time,field.header.seq,field.header.stamp,field.pose.pose.position.x,field.pose.pose.position.y,field.pose.pose.position.z,field.pose.pose.orientation.x,field.pose.pose.orientation.y,field.pose.pose.orientation.z,field.pose.pose.orientation.w,field.twist.twist.linear.x,field.twist.twist.linear.y,field.twist.twist.linear.z,field.twist.twist.angular.x,field.twist.twist.angular.y,field.twist.twist.angular.z
1718025284.9713233,0,1609059013.5613792,-0.016048142037225814,0.00033642027699159723,-0.7641987977030312,-7.082610486400807e-06,-0.0002943452747650891,1.2746330238596842e-05,0.9999999565741112,-2.617213409187761e-05,-0.0002934505997633102,-0.0019395078787989362,0.0,0.0,0.0
1718025285.0640597,1,1609059013.6552362,-0.02138795313881308,0.0005353684177178981,-0.7663347182022233,-0.00019094906505445194,0.0004977436235733285,1.776876238063194e-06,0.99999985789328,-0.03776693832866486,0.0017379328746180136,-0.01620698001591203,0.0,0.0,0.0
1718025285.1734135,2,1609059013.7656472,-0.024628922341286393,-0.002080763675276052,-0.7609187786339451,5.746136646703759e-05,0.0001899008479541273,1.3041690764117104e-05,0.9999999802328852,-0.04821250390810988,-0.029795031088373877,-0.01452392564830098,0.0,0.0,0.0
1718025285.267043,3,1609059013.8603215,-0.00740895426766283,-0.03207737433036513,-0.7275618467486146,-2.0440314817863375e-05,0.000428919440291862,2.49937938069677e-05,0.9999999074928032,-0.01660219015220324,-0.015710482679100014,-0.011058413518310998,0.0,0.0,0.0
1718025285.361892,4,1609059013.9555137,-0.005035503695607095,-0.03219454000628905,-0.7276216557292086,-7.096145154420113e-05,0.00032403651145502697,-1.3768709647642674e-05,0.9999999448876143,0.027184404397377404,-0.009466168101791506,-0.004178091658840535,0.0,0.0,0.0
1718025285.4739006,5,1609059014.0663762,-0.0359078162183807,0.0016842288573835846,-0.6653997498746894,-0.0011645436671005123,0.0005995815213136417,-4.3215026359765437e-05,0.9999991412358848,0.03471297163793831,0.04315103571848469,-0.007730715139274714,0.0,0.0,0.0
1718025285.5671265,6,1609059014.1604142,0.008000331669738351,0.020756914283439752,-0.8152875376559662,-0.0010047849846629706,0.0008485395079852718,1.052073778796664e-05,0.9999991351382014,0.006680377620403771,0.03598947656334544,-0.009804851301967739,0.0,0.0,0.0
1718025285.664481,7,1609059014.2553174,0.003911256508684001,0.01550706043564978,-0.8378323617967955,-8.617129710002766e-05,0.0006652586338232696,-3.271574726995245e-05,0.9999997744675421,0.013997935339773454,0.012010808310102965,-0.005543061407245969,0.0,0.0,0.0
1718025285.7738373,8,1609059014.3661335,-0.026257329705180965,-0.010889209655076774,-0.6932464487767925,-0.0009264528881447211,0.0010357713858793005,1.7971707536981275e-05,0.9999990342693827,0.0061007624486667245,-0.0029600168604217107,-0.008098939043889404,0.0,0.0,0.0
1718025285.8670404,9,1609059014.460222,-0.029771923027354395,-0.009227960753725834,-0.6878042774282016,-0.0009055260834499649,0.0011221920737313304,-2.0765705213188706e-05,0.9999989601375813,0.013980039942905656,0.0020908980931021335,0.002871619608422845,0.0,0.0,0.0
1718025285.9625735,10,1609059014.5659277,0.006883544692008853,-0.029646473070726678,-0.7110383892499701,-0.0009402414347308659,0.0007003613313417492,5.4477008159316525e-05,0.9999993112359149,0.006790982237563654,0.00021042133308452646,0.006769509443762328,0.0,0.0,0.0
1718025286.0739546,11,1609059014.665986,0.03310831626303265,-0.015912563678280908,-0.8180274953952512,-8.106701539743874e-06,0.0013054874907482208,-4.077053837637907e-05,0.9999991469868623,0.004469894614287825,-0.001744397347119627,-0.004433067273167917,0.0,0.0,0.0
1718025286.1680856,12,1609059014.7598484,-0.0022408954762912414,0.004731945531333564,-0.7828961693967957,-0.0006664426291325608,0.0016010724174552989,-1.4785308257325403e-05,0.9999984961002328,0.008803358085294553,0.010599965264204259,-0.007821524495078648,0.0,0.0,0.0
1718025286.2623606,13,1609059014.8546803,-0.0026148034495687036,0.004125537957544079,-0.785928846390861,-0.0005086722888553997,0.0007232372280145884,-5.06542835663396e-05,0.9999996078072003,0.00833526286922336,-0.0023114370853602496,0.005928433858002883,0.0,0.0,0.0
1718025286.3735569,14,1609059014.9658728,-0.009869731659989866,0.007201503821385598,-0.7897692714075288,-0.001031602276801673,0.0011422352901512304,5.2003943964238e-05,0.9999988141947321,0.012235438501004517,0.011854070839857055,0.004468148197209341,0.0,0.0,0.0
1718025286.469087,15,1609059015.0615332,0.0006157410309624457,0.005315622781556219,-0.7874231929611504,-0.0008534765566918505,0.0005176647914387113,2.8712984310135934e-05,0.9999995013881219,-0.006522371692312744,0.00902826039486108,0.009750478497305157,0.0,0.0,0.0
1718025286.5618312,16,1609059015.1550894,0.04338577252621318,-0.01744837248497911,-0.8234228064784802,-0.00021608490194177063,0.00044647546539806687,-6.093226011093325e-07,0.999999876983292,-0.004682933866074014,-0.009741778028468305,0.011331079148603334,0.0,0.0,0.0
1718025286.6728864,17,1609059015.2658863,0.031251836052775,-0.020349767538603535,-0.8430107226678059,-0.0003370835356888869,0.0010716347870686025,-2.6734524726347614e-05,0.9999993686292182,0.00757131134713907,-0.0006583591993044157,-0.0014747887352630148,0.0,0.0,0.0
1718025286.7680242,18,1609059015.3600175,0.028015956788307875,-0.020097445832088362,-0.8456325507939813,-0.0009981836458244464,0.0007065064737751654,-1.88941389432913e-06,0.9999992522369402,0.004513876756469508,0.003999799199923341,-0.005464434326860288,0.0,0.0,0.0
1718025286.8629737,19,1609059015.454967,0.03291090196588604,-0.011218401510892581,-0.8225094653249884,-0.001370331357900656,0.0013522547621582035,-6.069924945226685e-05,0.9999981449555924,0.014960162830994939,0.009809956869343335,-0.009344239864473237,0.0,0.0,0.0
1718025286.974228,20,1609059015.566338,0.034236620286140385,-0.012657369541390103,-0.8229217407034259,-0.0003610003503434772,0.0008882840352081583,3.355857406493312e-05,0.9999995397519137,0.0041118942611209665,-0.0002064751682954915,-0.006300935844484834,0.0,0.0,0.0
1718025287.0684147,21,1609059015.660704,0.026892931931179188,-0.013742383656505002,-0.8236715818425651,-0.0005900118764557427,0.000877463854714578,3.0171354987495795e-05,0.9999994405162721,0.009217812808177144,0.0021105759008039726,0.0004865490032691837,0.0,0.0,0.0
1718025287.162168,22,1609059015.755095,0.009402554243864618,-0.023026099653044786,-0.7637584293356268,-0.0005888330340341492,7.170304041803246e-05,-7.18055499709691e-05,0.9999998214891308,-0.001786997936981895,-3.9299055089887965e-05,0.0061675222030531515,0.0,0.0,0.0
1718025287.275846,23,1609059015.8668175,0.006952148818110926,-0.0230505201496463,-0.7360876050099813,-0.001587991215328831,0.0006892450746279248,6.327447367734636e-05,0.9999984996096073,-0.0038015624328899015,0.019161681643112546,-0.0012224446584834072,0.0,0.0,0.0
1718025287.3676507,24,1609059015.9600697,-5.5982443459732904e-05,-0.017776235075764295,-0.7360277319600464,-0.0016391331867083492,0.0021365225788131316,2.4458291180281975e-05,0.9999963739511537,0.02245473811317689,0.022616336184863514,-0.01633992307601066,0.0,0.0,0.0
1718025287.4620326,25,1609059016.0550356,0.0169006826805496,-0.008000856803783294,-0.8052586728325793,-0.002078769220036675,0.0010753552858683325,-5.858302792924756e-07,0.9999972611608463,0.010433575405975695,0.024344760282887623,-0.008124741969388978,0.0,0.0,0.0
1718025287.5746357,26,1609059016.1666756,0.019849412057364044,-0.012400919804280828,-0.8235160360321662,-0.0016010789600868932,0.0014889187078534732,-2.9818427747251402e-05,0.999997609386195,-0.004615900397418009,0.010825386303691908,-0.004588051272405611,0.0,0.0,0.0
1718025287.6763766,27,1609059016.259489,0.017389782513579276,-0.012996216839532171,-0.8184767301916874,-0.0017286204071734806,0.0006766699276193901,-3.569917533500066e-05,0.9999982763559467,-0.012997578419715963,0.005566580208994085,0.004843017180493755,0.0,0.0,0.0
1718025287.7617545,28,1609059016.3542585,-0.007685155611332536,0.007431100657233009,-0.7716716688935217,-0.0008446179369510043,0.001989025835753205,-3.7085300200839706e-05,0.999997664507995,0.029235997526488807,-0.014083885922147276,0.0010707174465328815,0.0,0.0,0.0
1718025287.8729608,29,1609059016.4652572,0.0003439985562903383,0.0013640532128532884,-0.7748406198522468,-0.0008183098955330564,0.0013426485931001973,3.5415280402878236e-05,0.9999987632039484,0.0041498109948351625,-0.022874487692424,0.00271416076962497,0.0,0.0,0.0
1718025287.966617,30,1609059016.5700505,-0.0075422828167649855,-0.0021115423885718528,-0.7728085082959903,-0.0005435454780813074,0.0005761383723838523,1.4146444558907827e-05,0.9999996862113327,-0.026695445346117248,-0.029663468801826624,0.00604312679184119,0.0,0.0,0.0
1718025288.0623555,31,1609059016.6545525,-9.930782045659619e-05,0.0006144681253625103,-0.7583217784279256,-0.0012468633400501024,0.001075174902398106,-5.781485986569553e-05,0.9999986429931685,-0.027376335663644457,-0.008689191331735135,-0.0004222607490400468,0.0,0.0,0.0
1718025288.173321,32,1609059016.7764914,-0.022716250305429533,-0.010349679755052086,-0.6776516727598834,-3.4861212121337846e-05,-8.699364155367422e-05,1.4407217915953214e-05,0.9999999955046163,-0.033656595803862877,-0.015212243142650106,-0.004883191745488732,0.0,0.0,0.0
1718025288.2672133,33,1609059016.8597677,-0.029580523352384147,-0.014087009235810353,-0.7067464862792157,-0.0006577856203549059,4.7125849172309e-05,3.682215792942143e-05,0.9999997818706559,-0.01395279686573081,-0.003946555571371814,0.001218717348780726,0.0,0.0,0.0
1718025288.3616374,34,1609059016.954656,-0.009144923511610514,0.00505529005449734,-0.7731953564426471,-0.000795275664068728,0.0008215778382436409,-4.7319608534882755e-05,0.9999993451534492,0.022205462397178195,0.011345229691676572,0.003305061827431146,0.0,0.0,0.0
1718025288.4727526,35,1609059017.0661576,0.019013453005836393,-0.01217167409311504,-0.8129683467172341,-0.0014698607803412878,0.0003079527418404286,3.04413547752667e-05,0.9999988718732222,0.002170666185942194,0.021290610245915356,-0.000987336644427649,0.0,0.0,0.0
1718025288.5691645,36,1609059017.1603043,0.022658815473410473,-0.0119604844237436,-0.8223641398263011,-0.0016028388168978153,0.0006545180766129309,1.2617863036402954e-05,0.9999985011761782,0.000958092576172517,0.041593967536936755,-0.002171517834125159,0.0,0.0,0.0
1718025288.6676002,37,1609059017.254894,0.04663649522831491,0.00030559433981014635,-0.8853946851881446,-0.0014931764474514768,0.0005789358525123008,-7.351679730488267e-05,0.9999987149255025,0.012608170294994399,0.031071411661320186,0.0028164130414233633,0.0,0.0,0.0
1718025288.773273,38,1609059017.3660686,0.011467694911128498,0.02122568025882334,-0.8451455110883845,-0.0025705233236924733,0.00045450588763093714,-1.931433345336242e-05,0.9999965927247934,0.0034078883164777238,0.017667152914044044,-0.004203709813999669,0.0,0.0,0.0
1718025288.867518,39,1609059017.4597769,0.01498420017125844,0.02373424446598847,-0.8412236077802597,-0.002823921944774108,0.0010699445680778135,-4.3013867206439556e-05,0.9999954394062393,0.0090960271477785,0.017220452193440712,-0.0072018449977372685,0.0,0.0,0.0
1718025288.962168,40,1609059017.554376,0.06018097209122308,0.003920452187784893,-0.8651937460095004,-0.0024378584336024792,0.0005545456523471695,-0.00010180422786215887,0.9999968694757378,0.009447281990935185,0.003207036224830607,-0.008148689366640446,0.0,0.0,0.0
1718025289.07271,41,1609059017.664841,0.034243854188498964,-0.014835076806432325,-0.7864963897419139,-0.0015110722817484714,3.6253778176394274e-05,3.228070805425038e-05,0.9999988571514359,-0.009037103038792602,-0.03421259913874759,-0.0005622466939893605,0.0,0.0,0.0
1718025289.1747108,42,1609059017.761045,-0.018263331476051272,0.004815271565999145,-0.7573597238112457,-0.0012884182637087954,0.00012528671489424282,-1.373091361238632e-05,0.9999991620461888,-0.015043011394960818,-0.031347404510971066,0.0022073938799351783,0.0,0.0,0.0
1718025289.2624388,43,1609059017.8549209,0.007669540259291895,0.015604063550880797,-0.8282598261823085,-0.0013641284526095486,1.4282148049022001e-05,-4.429388548522828e-05,0.9999990684933852,-0.005131899744654755,-0.020637981848529795,0.011570690770087759,0.0,0.0,0.0
1718025289.3751624,44,1609059017.9665732,0.04864868801888316,-0.006187924216185504,-0.8681529289698356,-0.0013103695459109376,-0.00020597401474246134,4.9196109786766e-06,0.9999991202406922,-0.008708200079620781,-0.014519288865855786,0.008687620021981039,0.0,0.0,0.0
1718025289.4708147,45,1609059018.060756,0.01630459823432565,0.016325816394458494,-0.8366691042617198,-0.001092248497920579,0.00011714016045779056,2.2814925205014376e-05,0.9999993963752604,0.018720527016857995,-0.00400074445377091,-0.0008328650407239506,0.0,0.0,0.0
1718025289.560425,46,1609059018.1537654,0.01938737582531644,0.014311764662692888,-0.8410727680479348,-0.0011270853699043946,0.0005022206252056438,-7.638888101138852e-06,0.9999992386970422,0.009861547412938905,-0.007159566135316431,-0.0018024410927328916,0.0,0.0,0.0
1718025289.6813943,47,1609059018.2652955,0.03915437594355272,-0.006840257357196237,-0.8819219886709175,-0.0016018742759265027,2.438165909149801e-05,-2.7838819573451907e-06,0.999998716697473,-0.002663304644392704,0.020062207332121725,0.00821436493338131,0.0,0.0,0.0
1718025289.7658427,48,1609059018.358787,0.0159290752203503,-0.025105291206887745,-0.8153628252515378,-0.0009373566364708118,1.4047760904248024e-05,2.7203332347995882e-05,0.9999995602124926,0.00413601513556486,-0.004834622760771644,0.00537032899995548,0.0,0.0,0.0
1718025289.860225,49,1609059018.4538321,0.01623678130088594,-0.016718413454814698,-0.8128934978863186,-0.0019352710170294745,0.0002955289660574881,-7.06380371437936e-05,0.9999980811976553,0.004820520240702664,0.02892824933717281,0.002882003169997326,0.0,0.0,0.0
1718025289.9712377,50,1609059018.5649493,0.01518456641112162,-0.020737997952781445,-0.8171156534120642,-0.0002114659474296198,-1.2422677028646933e-05,1.1455591323222387e-05,0.9999999774983018,0.002425419158407816,-0.011518765881985131,-0.0034467870791288595,0.0,0.0,0.0
1718025290.0656886,51,1609059018.6593163,0.04678164932575255,-0.006016926340346555,-0.8782808968922486,-0.0002525133464705067,0.0006263257777406691,-3.432229178141448e-05,0.9999997713874812,0.015671654064030486,-0.00980079255538093,0.0005790873777017647,0.0,0.0,0.0
1718025290.160283,52,1609059018.754355,0.043412722618750815,-0.0010663499322638645,-0.8778968054075831,-0.001002991908675074,6.8311531371084444e-06,-8.344465997929478e-05,0.9999994934986514,0.0031783413691776705,0.001890164250803501,-0.0045097134132540215,0.0,0.0,0.0
1718025290.2723367,53,1609059018.865138,0.024401759217289497,-0.010454925561401247,-0.8409897474636939,-0.0009284733623273324,8.481782893375635e-05,-1.1163998611608411e-05,0.9999995653091658,-0.007416695645396014,0.009125222221600135,0.0009948438384240355,0.0,0.0,0.0
1718025290.3659697,54,1609059018.9590113,0.02073600742809522,-0.00849865637682827,-0.8353324198317605,-0.0008787601867818927,0.0003789051449026831,-2.4830604326312714e-05,0.9999995417973301,-0.002680242636871947,0.0035752241770790746,0.0035126920988503385,0.0,0.0,0.0
1718025290.4604673,55,1609059019.0539863,0.03684599147783092,-0.007909380038455186,-0.872577667106857,-0.00040522862911501084,-0.00039413641819182807,-2.7673529909939033e-05,0.999999839840198,-0.01842040064698227,-0.009004964814892397,0.0003458153494887376,0.0,0.0,0.0
1718025290.5718653,56,1609059019.1649954,0.005920580758196549,0.012183362057995363,-0.8290878948472151,-0.00026560697606014335,4.839285361078646e-05,-1.0010709238497466e-05,0.9999999635054269,-0.003284919578688244,-0.01274322908876692,0.008437020319949534,0.0,0.0,0.0
1718025290.6651945,57,1609059019.258587,-0.0203578707272137,0.0013177095394924887,-0.7468762562751471,3.529917909246536e-05,-0.00010167005115672265,-1.5198888734885998e-06,0.9999999942074318,0.007810990223679229,-0.007792363076310678,-0.0007682716761583611,0.0,0.0,0.0
1718025290.761157,58,1609059019.353509,-0.0163102055680296,0.005886360840696858,-0.75217172595505,-0.0012056751747691044,0.00046907517585257887,-4.259156472276275e-05,0.9999991622505572,0.027536630566698604,0.018754866791941875,-0.008892911059367972,0.0,0.0,0.0
1718025290.8715932,59,1609059019.4650304,0.007460716650571484,-0.014705404719452414,-0.8021178662778272,-0.0008077025556292429,0.0001339289578330255,2.198145236878034e-05,0.9999996645981626,0.011134579426724061,0.014442409583633761,0.0033731991630722227,0.0,0.0,0.0
1718025290.9667282,60,1609059019.5587504,0.006626252412789715,-0.013662497073528367,-0.8047369246636417,-0.0012142063318688857,0.0002874569454690578,-3.3940712711411e-05,0.9999992209594578,0.00793973772236392,0.024491209836773158,0.004655452984235465,0.0,0.0,0.0
1718025291.0607376,61,1609059019.6540785,-0.010153728745448714,0.004384590548613331,-0.7661778294155194,-0.0012636907274296684,0.0006199168926323812,-8.948223332072924e-05,0.9999990053903683,0.016452829307343125,0.024065850568850224,-0.0002663959188081901,0.0,0.0,0.0
1718025291.1716812,62,1609059019.7648761,-0.015910707420789226,0.006362873610916397,-0.7486098445314231,-0.0013684928513454035,0.0004413327221573082,6.598551063228185e-05,0.999998964048794,-0.0035509698741243087,-0.005336357198622209,-0.004244720577640119,0.0,0.0,0.0
1718025291.266449,63,1609059019.8589776,0.011499895607068296,-0.01552907793210899,-0.7952478247886677,-0.0016725042279260973,0.0004249428372279939,2.3266293803119936e-05,0.9999985108048296,0.0012690282874922563,0.002605231316237966,-0.004009387024915263,0.0,0.0,0.0
1718025291.3687322,64,1609059019.9537926,0.034060319387205634,0.0021080046961499746,-0.8710347233006084,-0.0016972358631006925,0.000436403929157799,-4.203115367172015e-05,0.9999984635865312,-0.004645861015665274,0.006995999999265372,0.003935592598392949,0.0,0.0,0.0
1718025291.4862328,65,1609059020.066529,0.037502840305786204,-0.0015182021531162677,-0.870467467377865,-0.001528509576016211,-0.0004246108078824079,1.743634730753191e-05,0.9999987415292664,-0.024536404692638313,-0.0075546193029824606,0.0014812786151953026,0.0,0.0,0.0
1718025291.5731885,66,1609059020.1664095,0.04019422293868946,-0.007878237793934711,-0.8765077484878298,-0.0007553493935318759,-0.0002478433583349836,6.004698698517997e-06,0.9999996839924061,-0.02729722780967017,-0.019601288443181993,0.007482835733692356,0.0,0.0,0.0
1718025291.677297,67,1609059020.2703884,0.03687322077699809,-0.006675557438535927,-0.8792219579289096,-0.0007275966474454945,9.25546799402605e-05,6.23246864457666e-06,0.9999997309989194,-0.0014776779422921334,-0.01867885772777666,0.006485115075668691,0.0,0.0,0.0
1718025291.7800996,68,1609059020.3741074,0.01047020969788304,0.020401797595265024,-0.8322025932296274,-0.0012514709299862002,0.0006671213488223292,-8.768880213776608e-06,0.9999989943458593,0.02504445392868525,0.014283126122764372,-0.0025637794600913057,0.0,0.0,0.0
1718025291.8824177,69,1609059020.4766243,0.003382704865501883,0.017666655922013046,-0.8218805767680815,-0.00010451038236545741,0.00012002986787717265,-2.5173506714219955e-05,0.9999999870183555,0.013420533172478115,-0.009915133805316013,0.002751643555380225,0.0,0.0,0.0
1718025291.9856842,70,1609059020.5796132,0.032160093835907136,-0.001158731521332646,-0.8653314274648186,-0.0007357603593088298,0.00015608630851567134,-6.324052597121456e-06,0.9999997171268457,0.002957241186475274,-0.0016049937578499693,0.0014398500545966116,0.0,0.0,0.0
1718025292.0888016,71,1609059020.6825817,0.04180225851569545,0.0005460630363988087,-0.8696858949353032,-0.0013454372166896932,0.0008532056930198629,-1.12887347353815e-05,0.9999987308548515,0.004305525799815167,0.01598264659987051,-0.00735729473958455,0.0,0.0,0.0
1718025292.1606455,72,1609059020.7541127,0.018206373673372127,-0.015660425922937583,-0.8125004894518001,-0.0009863304921652893,0.0004232687859311803,-3.9645657775020376e-05,0.9999994232117966,0.005151928311892445,0.015168263207897785,-0.00820330673508864,0.0,0.0,0.0
1718025292.262863,73,1609059020.8548136,0.014704797916953997,-0.009935941926082246,-0.8037021386561884,-0.000869514542541395,0.0008798166430551892,-3.1730995813988475e-05,0.9999992344298513,0.007807970891016085,0.018910055666033425,-0.002261982280357044,0.0,0.0,0.0
1718025292.367139,74,1609059020.9594116,0.01470462060477199,-0.013589205483355068,-0.790059553038957,-0.0006216773657261794,0.0002255258403782741,-2.3550821992375855e-05,0.9999997810503342,0.006713273751539219,-0.011708969984749584,0.0016955664370332424,0.0,0.0,0.0
1718025292.4714296,75,1609059021.0609846,0.0014267710640772234,0.000680512810543871,-0.748711654718755,-0.0009956054567777288,0.0004854138039513875,4.52239276504375e-06,0.9999993865611977,-0.001383533855531029,-0.013879668866276597,0.0024176282474108503,0.0,0.0,0.0
1718025292.571054,76,1609059021.1636813,0.0004735754999857702,0.006106513919981018,-0.7613904380236836,-0.0005233791843200354,0.0005392595212050119,-2.8539645823392885e-05,0.9999997172294097,-0.0035967255007191934,0.0050454674832904455,0.008991562764749364,0.0,0.0,0.0
1718025292.6733,77,1609059021.266604,-0.017026054184082116,0.007597879739157164,-0.7711210916358933,-0.0014368503898151356,0.0006162382271242212,1.9150464142148047e-05,0.9999987776715912,-0.010099995350162249,0.02013794530708849,-0.0019798390103440457,0.0,0.0,0.0
1718025292.7759733,78,1609059021.3693292,-0.019248554400833787,0.007875693165945614,-0.7656249428466182,-0.0012685013491897292,0.0007847993662308641,-4.489746179203249e-05,0.9999988864886359,-0.004964787162769264,0.01965829798747541,-0.001794171133104638,0.0,0.0,0.0
1718025292.879931,79,1609059021.472718,0.008691654888931734,-0.016471602446584698,-0.8012817696085109,-0.0008788129309373229,0.0004921187576432344,2.289802504731015e-05,0.9999994924911979,0.004632729950126141,-0.014227055067841849,0.0030799398958056045,0.0,0.0,0.0
1718025292.9815145,80,1609059021.5759308,-0.014554916354300096,0.004009330766136618,-0.756308197367135,-0.0007966226408280657,0.0006555803706147682,-2.6928023424884123e-05,0.9999994674406781,-0.0010650891571286885,-0.00386685059485088,-0.0020205700710819435,0.0,0.0,0.0
1718025293.0847802,81,1609059021.6788065,-0.012311382462908114,0.008153733145147286,-0.775618579196495,-0.0010636983266266093,-0.0002794992679644701,3.884098175280412e-05,0.9999993944585267,-0.005371516693011267,-0.006256492992620431,-0.006659528555543103,0.0,0.0,0.0
1718025293.1883905,82,1609059021.7816267,-0.021442062208085755,0.01768623532129742,-0.7697687676670866,-0.0017702759786215954,0.0011304109636227598,-7.87094348027213e-05,0.9999977910469854,0.014200763363146823,0.02538188338988109,-0.006961243404911034,0.0,0.0,0.0
1718025293.2597108,83,1609059021.8536313,-0.020627088264468036,0.014958607915709311,-0.7666890833935616,-0.0005685263177893602,0.0004160624757805281,-1.953987175248027e-05,0.9999997516439938,0.017506894359900417,0.008520877497807278,-0.002897654437032405,0.0,0.0,0.0
1718025293.361391,84,1609059021.9544072,0.012982287567948057,0.01225439206597871,-0.741037606539842,-0.0002493565228720923,0.00046282664653460076,-2.8138594002314096e-05,0.999999861410516,0.0056948782309688,-0.01630753866319042,0.00410835166816721,0.0,0.0,0.0
1718025293.463471,85,1609059022.0571887,0.02024710163234833,0.0093905353350753,-0.7474851167470105,-0.0002893024566638129,0.00036658226736027916,-2.5837674875502762e-05,0.9999998906269719,0.013919750735121481,-0.017550147303626265,0.015439446754436856,0.0,0.0,0.0
1718025293.5708907,86,1609059022.1609817,0.017108391210473552,-0.01159692607866051,-0.8142993136132821,-0.0010393322070849594,0.0006984907697162486,-4.355809464682516e-05,0.9999992150006483,0.000588637784540335,0.005316017336754294,0.006910172753192775,0.0,0.0,0.0
1718025293.6723926,87,1609059022.2645185,0.012274966718648849,-0.011363167057902667,-0.8195460795370725,-0.0007904681064187926,-0.0007309878895265771,2.066384514744482e-05,0.9999994201947802,-0.026981383871601927,-0.0005663514854977354,-0.0017038019934559586,0.0,0.0,0.0
1718025293.7767086,88,1609059022.3668666,0.013466243610265823,-0.011131369009806356,-0.8162776821054172,-0.00036815461066142294,-0.00014920595542668646,7.698707068187325e-05,0.999999918136381,-0.017737438289046954,-0.009213519555500161,-0.0052758152621326685,0.0,0.0,0.0
1718025293.8757155,89,1609059022.4697247,0.02068792151702066,-0.016182098480669038,-0.8172016016763054,-0.0005670603163000341,9.635147609223542e-05,8.453719443431382e-05,0.999999831006218,-0.012858788013659424,-0.008203828492140667,-0.0027180392185628087,0.0,0.0,0.0
1718025293.9789486,90,1609059022.5723758,0.015319618833809175,-0.01149134020607408,-0.8105076694889024,-0.0010312658930519616,5.966189577798128e-05,8.620255090849853e-05,0.9999994627499789,-0.007472690420487108,0.00733946841124461,-0.0014411293830993675,0.0,0.0,0.0
1718025294.0819292,91,1609059022.6754441,-0.016381458888417806,0.0082463025404967,-0.7807746736831142,-0.0009287188747553201,-6.0281383617338936e-06,4.278880033886546e-05,0.9999995678069271,0.0002547881981143016,0.01146602774498706,-0.0012256505495850196,0.0,0.0,0.0
1718025294.1862004,92,1609059022.779034,-0.01588271043530088,0.008237556844481003,-0.7838847375505296,-0.0010750485256701174,-0.0003497492408594682,3.6762433716219845e-05,0.9999993602971297,-0.0005358671717730027,0.0114299231798609,-0.005643075505303543,0.0,0.0,0.0
1718025294.2897313,93,1609059022.8830657,0.029913011103590712,-0.011361652167192168,-0.8292344915921409,-0.001441213756904315,0.0014329250359716957,4.071554253834809e-05,0.999997933983366,0.047776309981661796,0.008451485575859518,0.0014221758420105268,0.0,0.0,0.0
1718025294.3599892,94,1609059022.9539292,0.0036091404193527273,0.012814545725590489,-0.7746171276889039,-0.0011822788735180066,0.0011353128914999852,-7.021874714421008e-05,0.9999986541744139,0.03810674444798621,0.00896135633561768,-0.002638564489294993,0.0,0.0,0.0
1718025294.4603624,95,1609059023.0544028,0.0016766894112160272,0.010797167706780533,-0.7774274635707557,-0.0009240247405447753,0.001028307329900968,-2.7955950472860752e-05,0.9999990439899367,0.015493625349556572,-0.006803319654420792,-0.0036580109775996373,0.0,0.0,0.0
1718025294.5634444,96,1609059023.1569023,0.037327285303801354,-0.01669366680873351,-0.8415900570865361,-0.001492877005880258,0.0009942537763764742,4.605726259459839e-05,0.999998390326911,0.012364369810594404,0.009679331130163834,0.0028750193825030582,0.0,0.0,0.0
1718025294.66699,97,1609059023.2603188,0.03543492714378201,-0.017961665572236565,-0.8347867067281806,-0.00031572373450860526,0.0012351270169875367,-4.175983968384695e-05,0.9999991865176192,-0.003716966365649039,-0.004920195681717688,-0.0018650811464652338,0.0,0.0,0.0
1718025294.7717996,98,1609059023.3638515,0.02361596250605086,-0.011415542384220942,-0.8257888920652247,-0.0020460157654151384,0.0009571973445500414,3.153180510623672e-05,0.9999974482959868,-0.003621113979589783,0.007913634161284341,0.007120450899300783,0.0,0.0,0.0
1718025294.873211,99,1609059023.4666786,0.04045870908470678,0.0021612428170127117,-0.8738927978034834,-0.0016707344800455327,0.0007832401358307394,1.2835595061110087e-05,0.999998297506772,-0.008709384220748916,0.007658079628336988,-0.002026280287095653,0.0,0.0,0.0
1718025294.9775033,100,1609059023.5700805,0.03583421049502044,0.002580329282046311,-0.8775327580705345,-0.0012922433868665345,0.001294350970369747,3.7733657512704565e-06,0.9999983273727834,-0.00356812594682329,0.006243690463538543,-0.0007026461571362375,0.0,0.0,0.0
1718025295.079537,101,1609059023.6724968,0.03535120805441148,0.004125687443868101,-0.8763421381496854,-0.0015256500963747766,0.000699846341187813,5.159240451335019e-06,0.9999985912891444,-0.00409616953354266,-0.0029832987415268544,-0.001226159015488124,0.0,0.0,0.0
1718025295.1833105,102,1609059023.7760684,0.03977492324484754,0.003842309511831444,-0.8813319465546965,-0.0014435809049327243,0.0010719550691943465,6.167326250159508e-05,0.9999983815901499,0.0026171788622759624,-0.009108368492424416,-0.012043957653391968,0.0,0.0,0.0
1718025295.2905529,103,1609059023.878678,0.013356275134221562,0.01643535411488954,-0.8510166561003013,-0.0009758537173905764,0.0009823481188197265,2.8685835198982122e-05,0.9999990409389542,-0.0035899151973242684,-0.010876363232014281,-0.00010329226395244112,0.0,0.0,0.0
1718025295.389364,104,1609059023.9817903,0.01210894265034965,0.014990443775998985,-0.8523015921947272,-0.001227113116526143,0.0002793238659158758,5.250091508261733e-05,0.9999992067073059,-0.013740327365704552,-0.01409233030716758,0.0007987666772500759,0.0,0.0,0.0
1718025295.4603987,105,1609059024.054072,0.046006006848903644,-0.005774307752945205,-0.8862495921441857,-0.0006555705838355909,5.013756863497355e-05,-3.435611093923339e-05,0.9999997832665273,-0.02109196392469821,-0.004444364877784433,0.005896018921025175,0.0,0.0,0.0
1718025295.5601134,106,1609059024.15403,-0.00017842583055359754,-0.02603189745208631,-0.7467383343691795,-0.0014067174281598566,0.0009051093679453369,-6.283045844239542e-05,0.9999985989867447,0.005659738904090075,0.006464239469534185,0.0011716764106140323,0.0,0.0,0.0
1718025295.6669033,107,1609059024.2585795,-0.023742200133318847,-0.006065318691217516,-0.7124065018588113,-0.0017408455280468786,0.0005010872327921935,5.3283628587576736e-05,0.9999983577633004,0.02131225155176022,0.014575257865269203,0.0033606047759829507,0.0,0.0,0.0
1718025295.7672691,108,1609059024.3598754,-0.005342274879976727,-0.023244856860563677,-0.7436503994159359,-0.0014584863683288253,-0.00021640058025347036,2.6368506346459294e-05,0.9999989126459161,-0.0017521983150340856,-0.0042005573482433636,-0.006028409595323562,0.0,0.0,0.0
1718025295.8718188,109,1609059024.464491,-0.0008278897716874158,-0.02572634403354613,-0.7536263260248499,-0.0010629234322157932,0.000651293209815151,4.639140766395558e-05,0.9999992219290872,-0.005728130304577325,-0.0012242349130287449,-0.01046708128350302,0.0,0.0,0.0
1718025295.9729698,110,1609059024.5662785,0.010124238999985468,-0.027509876943563216,-0.7499393861112459,-0.0013259972329604907,0.00026772824090956986,4.094080801435947e-05,0.9999990841879748,-0.006611182296776899,-0.0032447433699744396,0.000876306902409486,0.0,0.0,0.0
1718025296.0763283,111,1609059024.6693368,0.04637719838855521,-0.009893581128515702,-0.8789884525971544,-0.0009911805243421484,0.0004005961932610213,0.00010082991583884966,0.9999994234584322,-0.006107126319826344,-0.02516491366644724,0.0055448790242935845,0.0,0.0,0.0
1718025296.1789272,112,1609059024.7722876,0.01092159243965702,0.016180254378336402,-0.8451675322361257,-0.0014454311883139099,0.0003865327377870555,3.3683929821189935e-05,0.9999988800926362,-0.011542716066351126,0.01680015720951746,0.008839102987135423,0.0,0.0,0.0
1718025296.2821271,113,1609059024.8754787,-0.017610713795478915,0.004802930282085483,-0.7648581530613859,-0.000579295450813416,0.0003521757352880985,8.854552524106845e-05,0.9999997662743398,-0.0032457730065951016,0.0023154587150535626,0.0009851470327471006,0.0,0.0,0.0
1718025296.385565,114,1609059024.9785547,0.014478292913160813,-0.018945460952107855,-0.8017038054954158,-0.0007559996844809417,0.0008822918723505881,-1.798209590929503e-05,0.9999993248508647,0.019407230418737494,-0.01101116164774107,-0.004524805133155635,0.0,0.0,0.0
1718025296.4880092,115,1609059025.0816088,-0.01874253121530251,-0.0004663545671955258,-0.7578947006004771,0.00020206842955663727,0.00011347772726536306,5.017790007746169e-05,0.9999999718866729,0.011873406850062905,-0.02917677467934093,0.004925644528813188,0.0,0.0,0.0
1718025296.5603118,116,1609059025.1536193,0.007178357659658246,0.01861041160631005,-0.8379639284450519,-0.0010643792476844637,0.0003092551139519477,1.9908131977977612e-05,0.9999993855306969,0.018676285870419366,0.002038018608206748,0.005689851209324148,0.0,0.0,0.0
1718025296.6608071,117,1609059025.2534063,0.04575012421655387,-0.0014495188138448564,-0.8790316967745334,-0.0011492817713846313,0.0002846775672667935,-3.362134050752701e-05,0.9999992984896097,0.01199161395893033,0.025311410065786036,0.00961714975402433,0.0,0.0,0.0
1718025296.765132,118,1609059025.3574781,0.037380174082313644,2.563704233530216e-05,-0.8743907110262673,-0.0014512083153558214,0.0001594610746940654,4.801763546161847e-05,0.999998933129887,-0.007374005897357589,0.014704534082105706,0.0028201608477804885,0.0,0.0,0.0
1718025296.8688054,119,1609059025.4617655,0.03432941024653481,0.0027153165543886137,-0.8742978113188449,-0.0011951545601417458,-5.1515553939088003e-05,7.707910437967039e-06,0.9999992844459079,-0.002537488267880231,0.015541167192843786,0.002055043035379683,0.0,0.0,0.0
1718025296.9739404,120,1609059025.5634778,0.033778053754896044,-0.0017993078539362498,-0.8779583873371742,-0.0005173499303236034,0.0004812168832314886,-2.2595665012720875e-05,0.9999997501343739,0.009785908231119016,-0.0073897402990803045,0.00240171562250487,0.0,0.0,0.0
1718025297.074619,121,1609059025.6675704,0.013228896614964788,0.01713211085454252,-0.8381413928098657,-0.0012271059276884222,0.000744281538799967,-4.21398693034875e-07,0.9999989701274044,0.0035433797415026546,0.011871297583238068,-0.012956584171946844,0.0,0.0,0.0
1718025297.177811,122,1609059025.7708263,0.044403729743519846,-0.0038208445666718695,-0.8812461891889961,-0.0014303691500805954,0.0006336178821811714,4.622452954019647e-05,0.9999987752171398,-0.0057617521302384175,0.01166953881966315,-0.00883131115287961,0.0,0.0,0.0
1718025297.2799768,123,1609059025.872822,0.04394340519976472,-0.005211531637197674,-0.8900346900348087,-0.0002870254529634861,-7.85629425501947e-05,4.256497042906526e-06,0.9999999557130732,-0.01676981704299066,-0.013164304587116135,-0.0026404523280505526,0.0,0.0,0.0
1718025297.3825924,124,1609059025.9754462,0.012797748992649037,0.016648784879738265,-0.8403483291796782,-0.0008514784580532566,-0.00020605418324228758,7.749405575994671e-05,0.9999996132603216,-0.02258317585135583,-0.014304948446099593,0.0009232882840257682,0.0,0.0,0.0
1718025297.4869602,125,1609059026.0792496,-0.038985261949516,-0.007979639487551312,-0.6702868549548671,-0.0014021945281990228,0.0011541216226664266,-3.609313688506065e-05,0.9999983502741808,0.009857491180518319,0.007339144693119526,-0.00325371609940572,0.0,0.0,0.0
1718025297.5883188,126,1609059026.1817498,0.0005113306962021219,-0.03143167563115564,-0.6972666947018122,-0.000641472141466186,0.00012200498525122433,2.1291814225892682e-05,0.9999997865874501,-0.013846603186500443,-0.00732407465722947,0.004581446120494461,0.0,0.0,0.0
1718025297.6596124,127,1609059026.2529747,0.015411857964037427,-0.02606492122511705,-0.745184482282745,-0.0009596304160561801,0.00037292982806399685,-2.999414164860199e-05,0.9999994695664448,0.006786717268573026,0.00580320868793009,0.0030474255833530285,0.0,0.0,0.0
1718025297.7602198,128,1609059026.3531616,0.011875451673717095,-0.02614249457625473,-0.7556506520667953,-0.0010591653134472603,0.0003495796489048232,-6.645870634959013e-07,0.999999377981045,0.014607002880531988,0.012201840599672439,-0.0010841731626715428,0.0,0.0,0.0
1718025297.8652446,129,1609059026.4569666,0.01925978675684676,-0.024861098081269194,-0.7460780062858564,-0.0012718398335286208,0.00022037890075290442,-2.4123406488366858e-05,0.9999991666369775,0.02455002686977135,0.0033153313758178937,-0.004624292398245135,0.0,0.0,0.0
1718025297.9681401,130,1609059026.560173,0.011717232222643393,-0.0252358669350229,-0.7407779806071061,0.00017729772774952599,-0.00032065618899694407,-4.001876892626688e-05,0.9999999320718135,-0.007263903629510307,-0.022205490182600093,-0.004602925453041977,0.0,0.0,0.0
1718025298.0703819,131,1609059026.6638765,-0.038616310195364635,-0.005273707936589498,-0.7112478571944068,-0.0011559951185943368,-0.0002769431559638744,7.91840870373956e-05,0.9999992903535805,-0.006277542532576363,-0.018840670380481588,-0.0109482325737262,0.0,0.0,0.0
1718025298.1732676,132,1609059026.7665226,-0.03569142601067671,-0.0011578239003822086,-0.7098469406269178,-0.00015636539571031082,0.00019535081700015747,4.7098640343107676e-05,0.9999999675848242,0.007725315065025726,-0.0004319439591102467,0.00507840931092593,0.0,0.0,0.0
1718025298.276664,133,1609059026.869423,-0.007300253699710837,-0.023881621616049238,-0.744749607810303,-0.00022042141764254492,-0.00022570759153043088,0.00011653642232992198,0.9999999434448748,-0.002898638000370834,-0.004039223214097391,0.00868261700341716,0.0,0.0,0.0
1718025298.3830402,134,1609059026.9728374,-0.007131653963795741,-0.017152402254626786,-0.7441981578993935,-0.0013327455578807344,0.0005015584186396862,5.098809692969286e-05,0.9999989848138117,-0.0037462758846369742,0.04310944355493013,0.002214357812098641,0.0,0.0,0.0
1718025298.482346,135,1609059027.07606,-0.022758937814527265,0.0024836303173572122,-0.7061581825890837,-0.0017387217385655268,0.00022340568659199773,-2.4926232564338813e-07,0.9999984634671002,0.0029389159511128446,0.03183451820297231,0.006090472248568729,0.0,0.0,0.0
1718025298.5861428,136,1609059027.178655,-0.022670735078330496,-0.001302770368064525,-0.7224892531964325,-0.0006434878326880252,0.0010447611319086521,-3.3203778398982905e-05,0.9999992466472679,0.013110846082387087,0.01599184147427744,0.0010545760666148029,0.0,0.0,0.0
1718025298.6904907,137,1609059027.2832828,-0.03039119473182403,-0.0011720679516632887,-0.7174802382093945,-0.0011978382821924423,0.00046302949988409516,-5.512903647133662e-05,0.9999991738736227,-0.004319755509745466,-0.000738066818751798,0.002066970340493462,0.0,0.0,0.0
1718025298.7602427,138,1609059027.353423,-0.025865004749244472,-0.0014286160558469926,-0.7191096208868244,-0.0011446421944262917,0.000640673776010192,-7.825807187613836e-05,0.9999991366031472,-0.0010949221520719287,-0.0042292103344422636,-0.0033827222484350584,0.0,0.0,0.0
1718025298.8601713,139,1609059027.4535656,-0.021559681098710367,-0.003437950788009455,-0.7104658076245515,-0.0008693505122646402,0.0007009157020918985,-6.155578373592314e-05,0.9999993745786829,0.008554422094471272,-0.010499191636419263,-0.009881938647029364,0.0,0.0,0.0
1718025298.9633482,140,1609059027.557109,0.004300065237581657,-0.02359698268925249,-0.7377230682632251,-0.0008955115422044659,0.0006688897712771502,-5.3312355961781136e-05,0.9999993739014789,0.00977979884770897,-0.012417603964832607,0.0010383149390301993,0.0,0.0,0.0
1718025299.0661633,141,1609059027.6595051,0.011966088664604026,-0.021306840082802786,-0.7946501212684209,-0.0009638735452664022,0.0004930484425460786,-1.5002982019910295e-05,0.9999994138127972,-0.0031578249953291716,-0.008517498312762077,-0.002489535789000147,0.0,0.0,0.0
1718025299.1721542,142,1609059027.7642024,-0.009177114319020272,-0.0024274187619917962,-0.780921573146213,-0.0005347306622840685,-0.0009092262748188146,5.829217347338186e-05,0.9999994419862082,-0.026412053562141945,-0.014487164208542451,-0.0002823632359964228,0.0,0.0,0.0
1718025299.2733653,143,1609059027.8663113,-0.014051248805022835,0.005535419895497157,-0.7809213080442206,-0.0013072800601225652,0.00043481259173065506,2.2461253845757395e-06,0.9999990509754572,-0.0015663481361065344,0.01882640437702386,-0.0014950164856573816,0.0,0.0,0.0
1718025299.377227,144,1609059027.9694633,-0.01507164493579949,0.008551534604572164,-0.7790363616890605,-0.0015112252686133516,0.0008846665991879349,-3.0455910843700077e-06,0.9999984667757871,0.025525714945194865,0.022365523146943858,-0.0012876916451590227,0.0,0.0,0.0
1718025299.483939,145,1609059028.0726435,-0.009987673624335293,0.007157795739538847,-0.7749397025782288,-0.0007401753877473474,0.0012783162531464554,-3.944204015288322e-05,0.9999989082455448,0.016317732117629748,0.002293631665621944,-0.0015325000872306385,0.0,0.0,0.0
1718025299.581788,146,1609059028.1755977,0.004454337406821052,0.01902354750168809,-0.829955118203933,-0.0006803474835110687,0.0002724328054032153,2.666985191571803e-05,0.9999997310981592,-0.01616677594737816,-0.008017507429925562,-0.004201811834579685,0.0,0.0,0.0
1718025299.6848724,147,1609059028.2784286,0.030092115581364515,-0.003181419260522605,-0.8697247720290754,-0.0013172432574383112,0.0011880334151245472,-2.0674490656334148e-05,0.9999984265084486,-0.011415423277959226,0.0036039373868173314,-0.0026665273308139597,0.0,0.0,0.0
1718025299.7887414,148,1609059028.3814416,0.003470252944121143,-0.011563143437666352,-0.7973529389786733,-0.0010407237350275583,0.0005195739744881712,-2.4782703995171384e-05,0.9999993231611778,-0.01032002124162553,0.005298548999887286,0.00547682491637591,0.0,0.0,0.0
1718025299.860334,149,1609059028.453259,0.011632486716282643,0.026682699700835578,-0.8363753749147957,-0.002286822951465185,0.0009956244230063679,-8.219320476396235e-05,0.999996886203691,0.019461078226442937,0.022716083822137488,0.007099074055185813,0.0,0.0,0.0
1718025299.9605768,150,1609059028.5536344,0.040675602488820385,0.0018354746021331698,-0.8904211358655597,-0.002094409392016003,0.0011359946220947034,-0.00013391032721298536,0.9999971525127185,0.03483005369831475,0.012904023454556494,-0.0043819646284419585,0.0,0.0,0.0
1718025300.0637758,151,1609059028.6564279,0.013304652530829894,-0.015451802947514236,-0.8058543130830942,-0.0015932439773244471,0.001208018088054938,-4.850556762148721e-05,0.99999799995457,0.018074956059642,0.0016383139172497473,0.00016514399676489846,0.0,0.0,0.0
1718025300.1669607,152,1609059028.7595475,-0.015687575978682967,0.007736849378887623,-0.7603522233600711,-0.0009674151353134238,0.0007815970859870279,-3.1831989605785624e-05,0.9999992261000393,-0.007134881896915357,-0.006139863678516552,0.003335250414775883,0.0,0.0,0.0
1718025300.272993,153,1609059028.8632205,-0.02241472865722087,0.006548834454687206,-0.7687767903278877,0.00013253892097504517,0.00017216154093254753,-8.7318588255832e-05,0.999999972584652,-0.041527565643641746,-0.02474911297583324,0.005313183099176291,0.0,0.0,0.0
1718025300.3756983,154,1609059028.9665215,0.009198020162686664,-0.0168021878789347,-0.7978200036068743,-0.0010493967786222268,0.00034386458660510486,1.0841205728762046e-05,0.9999993902028228,-0.01885417247273604,-0.012965971852033718,0.005945296823172635,0.0,0.0,0.0
1718025300.4828067,155,1609059029.068982,0.011164599624948705,-0.01503268321404396,-0.7985186694815092,-0.001715961114255181,0.0007663914439432164,-6.308709119896859e-06,0.999998234039346,0.0026480111944727977,-0.008399090056163096,0.006849931656138812,0.0,0.0,0.0
1718025300.5783136,156,1609059029.1718645,-0.020516517220179078,0.006946965492764942,-0.7668571437033272,-0.0010332172919801884,0.001632465297200122,-1.3155848926915459e-06,0.9999981337569341,0.026295075327395702,-0.006481991909403349,0.0027099542260362167,0.0,0.0,0.0
1718025300.682301,157,1609059029.275007,0.009389005211814622,-0.014738217682878304,-0.8061865338137676,-0.0013967006535381707,3.824284313069874e-06,7.906425416914209e-05,0.9999990214802734,-0.0039035771018492843,0.0020799361063509386,-0.015690154727492037,0.0,0.0,0.0
1718025300.7848449,158,1609059029.3781216,0.012068281940506163,-0.01095215933573162,-0.8038370614532421,-0.0018942940339742996,0.0006899780335348508,-3.311153332331849e-05,0.999997967239961,-0.008302898365670408,0.02384089923047323,-0.008968614268425426,0.0,0.0,0.0
1718025300.8887405,159,1609059029.481734,-0.017926311600085405,0.006680223082663467,-0.7718085665139807,-0.0013000275559602104,0.00014059822545173982,-2.412146525463319e-05,0.9999991447889592,-0.026306583725738002,0.011154357779411506,-0.013512697106322117,0.0,0.0,0.0
1718025300.9604592,160,1609059029.5536451,-0.017121012787103335,0.015161474883229985,-0.7949287296993826,-0.0012065346234947812,-0.0003208246799356839,-0.00011857118253239537,0.9999992136429927,-0.029646798777131667,0.0019285100746788165,-0.003988397253741534,0.0,0.0,0.0
1718025301.0627165,161,1609059029.655103,0.020188629763687224,-0.0036958486876478396,-0.8329230098986121,-0.0013083942082478765,8.259665198123574e-05,-3.5736620974354726e-05,0.9999991400022719,0.007154918146076553,0.00940622118988489,0.013316326751397767,0.0,0.0,0.0
1718025301.1672964,162,1609059029.7579055,0.02476327953200695,-0.006995849428974327,-0.8303857891934733,-0.000858993344425648,-0.00031323040278656767,-7.042679296158204e-05,0.9999995795285196,0.008905590326499555,0.0031941478352560835,0.009679855446239713,0.0,0.0,0.0
1718025301.2744868,163,1609059029.8665793,0.013253793355304496,-0.008509558350904422,-0.8391100927306412,-0.0010148593387970617,-0.0003463318999837329,-1.9668661011616905e-05,0.9999994248637762,-0.0010238776336030375,-0.005847921003633634,0.003591525276055712,0.0,0.0,0.0
1718025301.3768325,164,1609059029.969794,-0.004865319588473084,0.012022846804512035,-0.7816597195074136,-0.0009122778066099693,0.0003831077556927915,-5.135123213506353e-05,0.9999995091702311,0.011368136031429226,-0.009913921142808913,-0.010604677056384395,0.0,0.0,0.0
1718025301.4802494,165,1609059030.0728164,-0.007815147262093081,0.011529520321309706,-0.7866753141943514,-0.0020377817202600346,-0.0005582530043230705,3.3569123157702857e-06,0.9999977678914959,-0.019512568168491767,0.00270215746165162,-0.009913762012071189,0.0,0.0,0.0
1718025301.5842547,166,1609059030.1768498,0.017694816394964688,-0.0060611262346142725,-0.833718429774765,-0.0011171418324950012,0.0007611355637143031,-5.71625283205528e-05,0.9999990846991933,0.014207954158268692,0.006053225379305334,0.0009541537348381514,0.0,0.0,0.0
1718025301.6864834,167,1609059030.2791622,0.023404497692981262,-0.008013409302124509,-0.8307617370230886,-0.0014176948094069435,0.0002167411424325695,1.1634940722893347e-05,0.9999989715141373,0.014806530169577496,0.0028636793591591027,-0.005168321857677764,0.0,0.0,0.0
1718025301.7903683,168,1609059030.3820486,-0.004140651849177558,0.012560861939143339,-0.7888477202991773,-0.00159887695676938,0.00036114563413173605,-5.2921368994101e-06,0.9999986565682485,0.0208693853877153,-0.0002648103008992973,0.011225849857982341,0.0,0.0,0.0
1718025301.8627253,169,1609059030.4557362,-0.007052398139053217,0.013412601787629892,-0.7866261050189556,-0.0014678215606222932,0.0004908784180123394,-6.513955547112251e-05,0.999998800146822,0.02310110759464405,-0.0022795590347015346,0.012002990603018841,0.0,0.0,0.0
1718025301.9674194,170,1609059030.5587542,-0.034748616722698446,0.00023107884955341634,-0.69517690972201,-0.0014433156356124836,-6.326918734354804e-05,2.738925653352548e-05,0.9999989560428626,0.009990531050346774,0.005468249541546554,0.01862796987734705,0.0,0.0,0.0
1718025302.0692413,171,1609059030.6618514,-0.03787402848989152,-0.0025163121824961932,-0.6781253802474462,-0.0014990661769323003,0.0005563286931676161,8.618815833385414e-06,0.9999987216115319,0.009512505108320959,-0.011959994099203407,0.011699167768810016,0.0,0.0,0.0
1718025302.1729236,172,1609059030.7659643,-0.026363928198906292,0.004809932987522023,-0.7511349552426786,-0.00022946783413596046,-7.172190741820442e-05,3.291001398433697e-08,0.99999997110024,-0.015591713500902065,-0.01739056127749592,-0.003384260751599085,0.0,0.0,0.0
1718025302.2753155,173,1609059030.8681095,-0.006953795423146122,0.0007405397752032836,-0.7726585572507284,-0.001365160581954411,2.1797714037520515e-05,-4.200501919779891e-06,0.9999990679214664,-0.012904648311630275,0.00870853405069429,-0.012858756340549895,0.0,0.0,0.0
1718025302.3788989,174,1609059030.9712808,-0.011552040046977954,0.015074699521899755,-0.7533052102336913,-0.0024279143628464293,0.00046233672811633994,-3.300546256534628e-05,0.9999969451889519,0.004610253824836319,0.04700877079701029,-0.0025926762692625033,0.0,0.0,0.0
1718025302.487838,175,1609059031.0748515,-0.01670831942637069,0.011971111679359471,-0.7534688041620851,-0.0009746208550132727,0.0005385128577795215,5.184972627493427e-06,0.9999993800454114,0.01008831996222356,0.004642759249379742,-0.0038788980773162597,0.0,0.0,0.0
1718025302.5838735,176,1609059031.176803,0.005464557999678722,0.020545290311970103,-0.8339542805956005,-0.0005983931614773623,-0.00032177021494177367,2.864427310396838e-05,0.9999997687845026,-0.015149277085947183,-0.026315401884217306,0.005468621601379318,0.0,0.0,0.0
1718025302.6864195,177,1609059031.2799277,0.04646513396038686,0.0007948036271819454,-0.8610136168880409,-0.0013698088540063614,0.00019679538380841668,-6.167623497730649e-06,0.9999990424281618,-0.010482105107020325,-0.014392233379600005,0.01081910969030708,0.0,0.0,0.0
1718025302.7910025,178,1609059031.383391,0.03959591514914414,-0.007659769188850375,-0.8814423516512453,-0.00020223357335796932,0.00016073342124204408,-2.598012845015451e-05,0.99999996629569,-0.013965235772424181,-0.02921018030754764,0.001356428028138337,0.0,0.0,0.0
1718025302.8621593,179,1609059031.4539027,0.017908548988700687,-0.01826878403793119,-0.8089066708029556,-0.0014226943855686995,0.0005281160813911639,1.0763321663501768e-05,0.9999988484584571,0.014387959316700543,-0.003329631006236986,-0.0014995764736311962,0.0,0.0,0.0
1718025302.9629853,180,1609059031.5552037,0.013479203706783042,-0.012417364674521036,-0.8127583191694668,-0.001862111404238084,0.00020579543463379861,-3.609887808864304e-05,0.9999982444415727,0.020153477074251802,0.018742958334373314,-0.01417626821417978,0.0,0.0,0.0
1718025303.0681133,181,1609059031.6598604,0.01729160824880615,-0.013042900670634044,-0.81614301041823,-0.0014521107622094487,0.00034794839225970475,-3.060125816937393e-05,0.999998884684284,0.018042605725602224,0.017883373262406722,-0.010714322249159225,0.0,0.0,0.0
1718025303.168718,182,1609059031.7617936,0.024839192259999133,-0.018675934698563372,-0.8070861299107531,-0.0002793464183499271,0.00017458132338523907,-1.6669559372398792e-05,0.9999999456045311,0.006619905461536074,0.00494559349083641,0.00483558893445509,0.0,0.0,0.0
1718025303.2743568,183,1609059031.8653603,0.02166661133659995,-0.0226685205255508,-0.8081891901474055,-0.00041502846669462995,-0.00039178977082369857,-2.715887313916691e-05,0.9999998367572576,-0.028475760708603158,-0.007827795894694357,0.004567694294079911,0.0,0.0,0.0
1718025303.3751705,184,1609059031.9678416,0.010135243096622748,-0.015437743222040225,-0.8008040159576054,-0.0010601845535975866,0.0006148882883796697,1.3184863068103856e-05,0.9999992488733499,0.0027721474579777174,-8.67257736354328e-05,-0.007467726375528684,0.0,0.0,0.0
1718025303.4786232,185,1609059032.0709758,0.01760951927158836,-0.016800487687245597,-0.8020895048093276,-0.0010723494039542678,0.000570682221160065,-6.133951018282108e-06,0.999999262175194,0.01281176466545234,-0.010514110781436655,-0.0028660504020016067,0.0,0.0,0.0
1718025303.582679,186,1609059032.175686,0.012226884594338478,-0.021421628195858092,-0.7702819829241213,-0.0010842604110066804,0.0006158117504886501,-4.739423540087654e-06,0.9999992225660903,0.013766225753736705,0.007795178604501499,-0.01573820166608498,0.0,0.0,0.0
1718025303.6858187,187,1609059032.2770722,-0.003416912261415272,-0.014672826575130207,-0.7701165274863895,-0.0018034687014153296,0.000917537413906586,-3.1998054701041684e-05,0.9999979522988326,-0.0018585896657670048,0.02394953612856223,-0.008743660756626033,0.0,0.0,0.0
1718025303.788305,188,1609059032.3813946,0.008460968201141825,-0.02155233112407231,-0.7828166042740243,-0.00014898462957012217,0.0002716993073915582,6.790238477221097e-06,0.9999999519684769,-0.002655629984001404,-0.022023966514668505,0.006047759623649646,0.0,0.0,0.0
1718025303.8913932,189,1609059032.4835973,-0.020655552012750884,-0.0027923397287103616,-0.7388674401072607,7.433568942058262e-05,-0.00016480897428152035,-4.089716226020108e-05,0.9999999828198133,-0.003996687872157434,-0.028729163906696702,0.020984570205881348,0.0,0.0,0.0
1718025303.9626324,190,1609059032.5536149,-0.025674706669080564,0.0017851444096611824,-0.7314655296772706,-0.0015629621247867887,7.156968027828075e-05,-5.351032133266474e-06,0.9999987759985215,0.01491714041946136,0.005841690510255643,0.015009667729005655,0.0,0.0,0.0
1718025304.0621836,191,1609059032.6552956,-0.01928211428756066,0.00277671124163301,-0.7243751049553047,-0.0024077474768335644,0.0011000280033294605,-8.312261055988018e-07,0.9999964963387548,0.03777697642922971,0.031816944118756664,2.593329305052884e-05,0.0,0.0,0.0
1718025304.165937,192,1609059032.7584608,0.004033062029596013,-0.014965350407009945,-0.7770807839707489,-0.002249188717958916,0.0007464780318261125,-4.806343144748048e-06,0.9999971919448353,0.007100494168481134,0.03449755338896444,0.0030772324408858526,0.0,0.0,0.0
1718025304.2695649,193,1609059032.8617327,0.003658399673211297,-0.016254620597646117,-0.7751636964057372,-0.002436958752993369,0.0011626656132310523,-6.423063493563358e-05,0.9999963526509142,0.009876715220412098,0.015702009851876662,-0.012210941036443284,0.0,0.0,0.0
1718025304.372873,194,1609059032.9654136,0.007469533433912984,0.004299989263550484,-0.7092283678913133,-0.0026625116140126886,0.0011191178446721079,-2.6988610397966275e-05,0.9999958289306847,0.002425284163746535,0.00913693661014267,-0.020534700646043565,0.0,0.0,0.0
1718025304.4753976,195,1609059033.0680783,0.011864809676571204,-0.000920986894884469,-0.7207761066531596,-0.0019022059559313342,8.898763319623234e-05,3.5896587950852856e-05,0.9999981862009221,-0.034882338218038225,-0.028936379233324795,-0.0017298564338654177,0.0,0.0,0.0
1718025304.5782576,196,1609059033.1708503,-0.005336607089270006,-0.00036083140907863277,-0.7112351264764333,-0.0012750824018161718,-0.0001115706164780465,-1.5435580289032823e-05,0.999999180738967,-0.03241943960336633,-0.02766230848196902,0.007932853459348578,0.0,0.0,0.0
1718025304.6809745,197,1609059033.2735696,-0.007515148698034513,-0.00030484289635439484,-0.7107342973329177,-0.0013547522292880437,-0.00010059677999830281,3.329234749570949e-05,0.9999990767087249,-0.022915246998246534,-0.011598859350241759,0.010763095822261573,0.0,0.0,0.0
1718025304.785029,198,1609059033.3766053,0.008580281151706896,-0.02704932657743027,-0.7840583786499855,-0.00036314009505477885,0.00015497471792636104,8.439894399602077e-05,0.9999999184944584,-0.00931871105939994,-0.024411601651203763,-0.0014382693558258521,0.0,0.0,0.0
1718025304.8873785,199,1609059033.4799383,-0.022347267182684438,-0.0019036563706554786,-0.7376586909058434,-0.0017403756823824062,0.000372440319819595,-2.344498943058257e-05,0.9999984159142561,-0.0012035050459870862,0.0009825740773460497,-0.005646400935157055,0.0,0.0,0.0
1718025304.9900641,200,1609059033.5830877,-0.030353389615850632,0.0024469326932490855,-0.7285078435195691,-0.0022547411138831744,0.0009501077776755402,1.954303879400435e-05,0.999997006523413,0.012654361956898145,0.022285591719076896,-0.0022113054236393625,0.0,0.0,0.0
1718025305.060464,201,1609059033.6532528,-0.001159254074569851,-7.190048380569664e-05,-0.6933906112237369,-0.0005804268254919662,-0.000413049693458113,-8.44000656763762e-05,0.9999997426856058,0.012290702422485268,0.009327297772069951,0.01204084714426327,0.0,0.0,0.0
1718025305.1820045,202,1609059033.7549644,-0.003472853140678997,0.0013609631903370029,-0.6744862178001766,-0.0011269288109377717,-0.0006715371035737937,-6.333315891133212e-05,0.99999913752877,-0.006003372477388434,0.0005337514771349989,0.004143413508865981,0.0,0.0,0.0
1718025305.265823,203,1609059033.8582103,-0.026342121344558097,-2.3172184217832084e-05,-0.7187433527075743,-0.001434342670875452,0.00046243705547386173,-2.2114208926374928e-05,0.9999988641613722,0.011762101396456818,0.0013931539355223482,0.009231110661013965,0.0,0.0,0.0
1718025305.368799,204,1609059033.9615805,0.0034665362353955755,0.015619422680077218,-0.8496368358184986,-0.0012926053606178729,-0.0007054918644599384,9.989522025250935e-06,0.9999989156758227,-0.013506018782308848,-0.022127658406204752,0.0016141823043549991,0.0,0.0,0.0
1718025305.472789,205,1609059034.064917,0.01625584303548954,-0.021651620191606567,-0.8221887183238958,-0.0013639255671667717,-0.0006395171466705499,-1.4900336234444892e-05,0.9999988652507795,-0.01571756892644669,-0.0017513549693004733,-0.020576468227191468,0.0,0.0,0.0
1718025305.5746906,206,1609059034.1677926,0.021640914226288922,0.004256085827828553,-0.7334671339929887,-0.0007870533549929265,0.0010553694240434982,2.782485835819735e-06,0.9999991333669511,0.01793351369664787,-0.0074864899607054725,-0.015683191700034335,0.0,0.0,0.0
1718025305.6784556,207,1609059034.2709835,0.04677735991666456,0.015014408288977293,-0.8009214245204308,-0.001422488431801279,0.001348211434329128,-2.3633973547571795e-05,0.9999980791451674,0.042926428971202954,-0.00785304511210621,-0.006099502600175499,0.0,0.0,0.0
1718025305.7813468,208,1609059034.3743782,0.0507550133779998,0.0015449601435087133,-0.8597150644426121,-0.0030613734370470453,-0.00012043862312198737,-7.213496889203619e-06,0.9999953067065773,0.0034733359163999916,0.038896233530043234,-0.006411941344904402,0.0,0.0,0.0
1718025305.8837402,209,1609059034.477204,0.05178291035355469,0.0026801183095728175,-0.8655833817893795,-0.001657843634812039,0.0007013003764649643,-7.881280411482884e-05,0.9999983767590856,-0.008279770733105927,0.02731598329969413,-0.0007450538696147048,0.0,0.0,0.0
1718025305.987087,210,1609059034.5802407,0.044237653294435804,-0.0014405782113328588,-0.8907386548233591,-0.0010977250950239953,0.001033914026795205,-8.850235692983278e-05,0.9999988590937154,0.018149379006920128,-0.004664068585736574,0.010013584723100462,0.0,0.0,0.0
1718025306.091553,211,1609059034.6840475,0.03589811655644571,-0.006301089334179762,-0.885183178927152,-0.0007859841728634008,-0.00054806345151016,-1.7148787112005293e-05,0.9999995407805208,-0.01646570276477689,-0.042203489948938466,0.006093015440678141,0.0,0.0,0.0
1718025306.1615145,212,1609059034.7543893,0.002811573793123883,0.017787221373679465,-0.832163378026538,-0.0011336826369590703,6.340146579356003e-05,-7.596627575595234e-05,0.999999352486319,-0.005232410258637219,-0.03373585503958931,0.017265539606369975,0.0,0.0,0.0
1718025306.2639086,213,1609059034.854861,0.06997548387855612,-0.004301666096993317,-0.8489138688702396,-0.0011796392824262377,0.00016997443518189956,-4.471052232695008e-05,0.999999288780159,0.005102413380973468,-0.008767707462526086,0.01737726537761868,0.0,0.0,0.0
1718025306.3650434,214,1609059034.9579124,0.07543538511812661,-0.0011768765467405733,-0.8543502623423698,-0.001799361272902991,0.0003389345120137921,-3.401524690958156e-05,0.9999983231312785,0.014479465166427239,0.023847403105254093,0.014786428633361692,0.0,0.0,0.0
1718025306.4692411,215,1609059035.061247,0.012371949582233612,0.02361009831197304,-0.8350718016505655,-0.0011789616087052816,0.0002946881178704359,-3.4489595316728505e-05,0.9999992610091804,0.00886967233478776,0.004113295257500836,0.010448790147577425,0.0,0.0,0.0
1718025306.571754,216,1609059035.1642663,-0.006597462117077698,0.013820195629383992,-0.789564686223611,-0.001290850005928292,0.00023377099492879284,-6.908993602987132e-05,0.99999913714161,-0.0015813917680754432,0.013189078865999801,-0.008613316489813302,0.0,0.0,0.0
1718025306.6767378,217,1609059035.2682388,0.02760992812064803,-0.008535057259040663,-0.8336252581999772,-0.0010230874675051678,0.0005081516700845664,-3.210454127370333e-05,0.9999993470213931,-0.0061084402327040025,-0.005135932350676343,-0.004725901423546703,0.0,0.0,0.0
1718025306.7793965,218,1609059035.3713005,0.02015383681959474,-0.020132877854392037,-0.8099315016991129,-0.0014120310421139302,0.0008664704059041898,-4.9183687325085566e-05,0.9999986264882249,-0.005243482257393644,-0.008845429774245682,-0.009852609449540625,0.0,0.0,0.0
1718025306.8817174,219,1609059035.474685,0.010861429154599374,-0.015241444307044015,-0.8203799737326547,-0.001889752275357395,-9.761319495292728e-05,2.5429036410286803e-06,0.9999982096491654,-0.009289089542174719,0.008752853084846909,-0.019559127803381784,0.0,0.0,0.0
1718025306.9849284,220,1609059035.576801,0.01436101996122474,-0.016885970144761037,-0.8135513643977368,-0.0009971591736191755,0.0002650465885874422,-1.7159504042813214e-05,0.9999994675645786,-0.010240981468966764,-0.01572369932253234,-0.0036866737391539443,0.0,0.0,0.0
1718025307.088088,221,1609059035.6802008,0.04230553182486762,-0.000718883623565876,-0.8720725338063571,-0.0016382388630013039,-3.478448573665385e-05,2.002191173199056e-05,0.9999986572803936,-0.0061969305521256445,0.002720492679628733,0.018562299923090324,0.0,0.0,0.0
