time,field.header.seq,field.header.stamp,field.pose.pose.position.x,field.pose.pose.position.y,field.pose.pose.position.z,field.pose.pose.orientation.x,field.pose.pose.orientation.y,field.pose.pose.orientation.z,field.pose.pose.orientation.w
1718606828186265707,1,1718606828186265861,2.3757288816865376,-21.286514968642507,2.3761479680622686,0.012385421180620856,-0.041187289264446085,-0.30356010177163056,0.9518410965899838
1718606828187456875,2,1718606828187457162,2.4240213204664256,-21.6914242437419,2.424287397769587,0.012224977254618054,-0.04126317975381169,-0.3035120819706186,0.9518551969840734
1718606828196792409,3,1718606828196792650,2.466005753374824,-22.042839897464944,2.465253127696006,0.01228203581736075,-0.0412699416815868,-0.3035050822949775,0.9518564012133859
1718606828237354719,4,1718606828237354908,2.5024341364290135,-22.347935760450653,2.5020761116984045,0.012560040845903184,-0.041254253373718394,-0.30364299926115035,0.951809466727569
1718606828275119277,5,1718606828275119484,2.534134935352363,-22.612873958948263,2.533259038622964,0.01236163756216226,-0.04132352912647338,-0.3036351631512819,0.9518115588473433
1718606828284035299,6,1718606828284035423,2.5637132930815207,-22.840257590035215,2.5601512499153585,0.012260520956168234,-0.04136219721352954,-0.30359385402192296,0.9518243640859736
1718606828329889209,7,1718606828329889462,2.5894777890531087,-23.03774159942344,2.5827231761713194,0.012457042895567929,-0.04133917751569738,-0.3036228111322796,0.9518135757829658
1718606828330439299,8,1718606828330439762,2.6119315093933277,-23.20927070927054,2.601548094678262,0.012540650863892533,-0.04132546279688818,-0.3036621062484516,0.9518005376281772
1718606828331347606,9,1718606828331347821,2.6315050520885093,-23.358261834766203,2.6171151979543086,0.01257438081960197,-0.04131689916879593,-0.30369862007396425,0.9517888142625175
1718606828370477841,10,1718606828370478292,2.648570826724643,-23.46559373054795,2.625024805858919,0.012379682480988228,-0.041336420449787616,-0.30369886407927577,0.951790441096687
1718606828396326492,11,1718606828396327069,2.6651523270959894,-23.558404572150515,2.6314113078307306,0.012278251464128594,-0.041360691574470414,-0.3035699455363517,0.9518318264801411
1718606828409117119,12,1718606828409117312,2.67962787795349,-23.638988252268796,2.636195804904883,0.012436553126277491,-0.04131639822474703,-0.30359006469310096,0.9518252780861151
1718606828418296069,13,1718606828418296243,2.692269962544177,-23.708955561706475,2.639588944275454,0.012526240911126639,-0.041299223174496885,-0.3036063856207797,0.9518196415624683
1718606828433825202,14,1718606828433825441,2.706297056598507,-23.77009019729585,2.6336330209771317,0.012582076324045885,-0.04126471898401407,-0.30365495934087766,0.9518049064751852
1718606828445340214,15,1718606828445340417,2.7185418196563433,-23.823166893517914,2.6276954514386826,0.01253929542440853,-0.04125405150917755,-0.3036629914739401,0.951803370929855
1718606828519994811,16,1718606828519995124,2.720481033123147,-23.8932196752561,2.6323729068913018,0.012245833787738702,-0.041271809198657444,-0.30359124924098163,0.9518293075465857
1718606828522768224,17,1718606828522768384,2.722222796866806,-23.954022792034273,2.6356863801448043,0.012293712360780324,-0.0412598672262733,-0.3035911122468957,0.9518292517870806
1718606828536335251,18,1718606828536335495,2.7240881063863474,-24.00663983881963,2.6378251330225257,0.012544693808149592,-0.04119080125007819,-0.3036888108991091,0.9517978013655639
1718606828567194129,19,1718606828567194959,2.7257608911362627,-24.052303608838265,2.6389511541391455,0.012339329526569378,-0.04120642440802534,-0.30369160709283,0.9517989174797977
1718606828610246431,20,1718606828610246700,2.6856223096498266,-24.113252879108053,2.626309644936744,0.01225380710049029,-0.04121092824812278,-0.3036466351287895,0.9518141754457304
1718606828610767419,21,1718606828610767677,2.650803047361109,-24.16613805580304,2.61460002877402,0.012410928961085713,-0.041189952140000034,-0.303673106963795,0.9518046022120207
1718606828618520493,22,1718606828618520732,2.6206052724742657,-24.21201527734432,2.6037005114267506,0.0124971609866633,-0.04117546801518208,-0.3036967685562306,0.9517965510388801
1718606828634094808,23,1718606828634095033,2.5945838306445683,-24.249854973812027,2.596123246321464,0.012546933006233848,-0.04115867905312972,-0.3037555753300399,0.9517778564700142
1718606828646832810,24,1718606828646833054,2.5720248220303477,-24.28267467910038,2.5888252645981127,0.012509136396603575,-0.0411694271242407,-0.3037662788556631,0.9517744730801811
1718606828664139719,25,1718606828664139958,2.5524731482203546,-24.311127853911657,2.581778455204062,0.01235050813736934,-0.041206006997434305,-0.30372391149555666,0.9517884825537213
1718606828671649505,26,1718606828671649684,2.5355334981697375,-24.33578020663093,2.574957228189215,0.012268839003766952,-0.04123561322285425,-0.3036724825980649,0.9518046664649017
1718606828701489691,27,1718606828701489897,2.5234036458650504,-24.3589656651856,2.571435202819555,0.012242898966189363,-0.0412573133388881,-0.30364178842046247,0.9518138525183292
1718606828711354222,28,1718606828711354513,2.5129201692602776,-24.37902008544257,2.5676869775847453,0.012450965670868383,-0.04126774765652221,-0.30365752242579985,0.9518056816028392
1718606828721597571,29,1718606828721597871,2.503866124936138,-24.396358243821084,2.5637494425417833,0.01254924327259813,-0.04126353366300548,-0.3036963199676704,0.9517921950305233
1718606828736712140,30,1718606828736712373,2.4945614793267508,-24.41135181418597,2.563326346187414,0.012565976446658845,-0.0412559642088701,-0.30374034046502213,0.9517782552818334
1718606828771973441,31,1718606828771973743,2.486527739488281,-24.42430493516496,2.562292831861275,0.012366861939667906,-0.04130010708603776,-0.3036793217962256,0.951798419516355
1718606828785119461,32,1718606828785119741,2.478832082978139,-24.436800209169967,2.560872862665597,0.012273540743548316,-0.04132862083297693,-0.30361474294123547,0.9518189918079949
1718606828794005825,33,1718606828794006049,2.4721948326687713,-24.44755791849223,2.558976955064153,0.012313055117179339,-0.04132920957588334,-0.3036077380404384,0.9518206903148736
1718606828813912553,34,1718606828813912760,2.4664816786038832,-24.456805537472427,2.5566745860371,0.012440594812582709,-0.04131254543189142,-0.3036394409490915,0.9518096422556195
1718606828819779885,35,1718606828819780431,2.461572357052178,-24.464744603123975,2.554029671627808,0.0125439191742513,-0.04129221184357946,-0.3036854785214493,0.9517944806879335
1718606828835066988,36,1718606828835067190,2.470786321928369,-24.473901163253807,2.550620594780725,0.01256774874835652,-0.0412819592668253,-0.30371712433373305,0.951784513383643
1718606828858454651,37,1718606828858454997,2.4788393301896807,-24.48177750582213,2.5470220027268393,0.012516799251261266,-0.04128092856514951,-0.30371573248057565,0.9517856736246297
1718606828862517920,38,1718606828862518191,2.4858808938013635,-24.48853353091362,2.5432685164344475,0.012428545779482674,-0.041284101136551205,-0.3036947415244242,0.9517933905073976
1718606828869622198,39,1718606828869622364,2.4920439660667015,-24.49432078534116,2.5393874823452887,0.012333626330246587,-0.041293615568016584,-0.3036463130501856,0.9518096635073082
1718606828886609438,40,1718606828886609601,2.4974423722021726,-24.49924422769947,2.534589282095338,0.012270415252986227,-0.041299243289314114,-0.303631939567078,0.9518148216370576
1718606828912198822,41,1718606828912198994,2.5021814337869444,-24.503422678046185,2.529807154105539,0.01247787552176763,-0.04122872595968011,-0.3036555011549166,0.9518076651280769
1718606828922312714,42,1718606828922312889,2.506347000488977,-24.506957230353343,2.525049323314618,0.01254708870446316,-0.041204419382962015,-0.30368921687086703,0.9517970508174076
1718606828937555362,43,1718606828937555528,2.5485284430336734,-24.49144859968453,2.5205561803828993,0.012546742533494085,-0.04117680100512914,-0.303706360006756,0.9517927805999733
1718606828959297507,44,1718606828959297721,2.585213464634262,-24.477890168046194,2.516057823832514,0.01247142388452089,-0.041176872436750986,-0.3037170638424018,0.9517903518598886
1718606828963567098,45,1718606828963567282,2.6171227762964353,-24.466029775133258,2.511562123522172,0.012373524623372966,-0.04119479314657716,-0.3036976502858052,0.9517970488065648
1718606828971040118,46,1718606828971040414,2.6448802662407007,-24.45563444686737,2.50707812869912,0.012287331444193072,-0.041206343953249416,-0.3036698922672063,0.9518065219541262
1718606828990939833,47,1718606828990940004,2.6683029126206796,-24.44676506587023,2.5049861586556497,0.012242660190954775,-0.04120980351236317,-0.3036629094199852,0.9518091756274002
1718606829003882851,48,1718606829003883028,2.6886880399536905,-24.438949338414815,2.502598530997785,0.012297380296561971,-0.0412013628450097,-0.3036569253443931,0.9518107447533597
1718606829010402182,49,1718606829010402338,2.706435955610717,-24.432053359688176,2.49996255086682,0.012429036288663613,-0.041167312304463514,-0.30368561473799666,0.9518013547246962
1718606829020314342,50,1718606829020314486,2.7218910638892138,-24.425962928462113,2.4971169309384664,0.012503015069049155,-0.04114053154972304,-0.3037155090890222,0.9517920050183156
1718606829031840940,51,1718606829031841097,2.7333180688386887,-24.417038862967054,2.497892914448876,0.012538470685576222,-0.04112820511660768,-0.3037481765073419,0.9517816465793075
1718606829041700477,52,1718606829041700636,2.7432769206631824,-24.409203468627474,2.498022614495451,0.012493484326982723,-0.041121228454570294,-0.303753904509483,0.9517807115691105
1718606829074764104,53,1718606829074764310,2.7519581053509405,-24.402312951203342,2.497601804892994,0.012370026246964438,-0.041143176903792746,-0.3037485008975672,0.9517831001060026
1718606829090570821,54,1718606829090571019,2.756618855153634,-24.396300074944982,2.4957428056811493,0.01223487011985129,-0.041178531188993596,-0.3036535326540649,0.9518136207414634
1718606829093699891,55,1718606829093700069,2.7606966532555606,-24.390969101669448,2.4936030036015433,0.012271875700381683,-0.041179095683875976,-0.3036326581308694,0.9518197791923823
1718606829110842295,56,1718606829110842468,2.764274320258322,-24.386230439588466,2.491227839383646,0.012405290709981896,-0.04116813303440541,-0.3036323963945364,0.9518186074271576
1718606829119480513,57,1718606829119480675,2.7674137556498324,-24.382011474409282,2.4886540134566495,0.012486535550773677,-0.04116001186192286,-0.30366118514207396,0.9518087121326304
1718606829134645273,58,1718606829134645438,2.768216904034698,-24.378182978135655,2.4837121629684775,0.012538729870635928,-0.04116109288846975,-0.30371170518545815,0.9517918600297017
1718606829144754179,59,1718606829144754379,2.7689410404931962,-24.374769695787478,2.478916635408339,0.012483858864355594,-0.041172740308793115,-0.30374641104606825,0.9517810023844521
1718606829164520956,60,1718606829164521143,2.769594859845885,-24.37171317761546,2.474254378173243,0.012349692046820026,-0.04121069567912005,-0.3037156729586873,0.9517909190926563
1718606829171529709,61,1718606829171529886,2.770186146009708,-24.36896402852684,2.469717815029024,0.012272636049202685,-0.04123226805816284,-0.30367576192788226,0.951803716158276
1718606829187355516,62,1718606829187355693,2.7724868937358997,-24.342575114546868,2.4621081942460674,0.01224783220551334,-0.041255540769049436,-0.3036388750959463,0.9518147952687999
1718606829197567803,63,1718606829197568044,2.7745119287964215,-24.319550157253637,2.4550159944767422,0.012310025675837229,-0.041254052953037065,-0.30362929567675895,0.9518171133099276
1718606829206762426,64,1718606829206762657,2.776301626994261,-24.2994422121195,2.448387395368317,0.01242249288627387,-0.04123590630103225,-0.30364591974792665,0.9518111352166766
1718606829216816572,65,1718606829216816749,2.777885018301727,-24.28187622469995,2.4421662527682564,0.012511453552693886,-0.041226283245134165,-0.303660995069522,0.9518055774018024
1718606829237706763,66,1718606829237707037,2.7830334767756284,-24.265638145874306,2.4386376148677353,0.012555246074386475,-0.04123011549109011,-0.30369060827657585,0.9517953865286417
1718606829248037627,67,1718606829248037843,2.7875297857935517,-24.251454810903837,2.4351194114389743,0.012492697236756976,-0.04124471396915782,-0.30369089941954025,0.9517954841745698
1718606829267574016,68,1718606829267574285,2.791453631483428,-24.239053445743664,2.431618511877436,0.012358048674871669,-0.04128780875543882,-0.3036809798778155,0.9517985385267062
1718606829285630455,69,1718606829285630671,2.795875473139253,-24.22774811912752,2.426948935390426,0.012271139661204385,-0.04131238125638866,-0.30361461368374004,0.9518197689920164
1718606829299256606,70,1718606829299256828,2.7997373480006233,-24.21783113989285,2.422462101527734,0.012334088819081457,-0.04130400040953252,-0.30362946542205166,0.9518145814866946
1718606829309805790,71,1718606829309805971,2.803121324674563,-24.209116986058774,2.418139037809436,0.012470169295202973,-0.04127892271089193,-0.3036575164217652,0.9518049475276658
1718606829320470137,72,1718606829320470348,2.8060858341606276,-24.201453755114507,2.4139640234487536,0.012545644217854623,-0.04125222907405173,-0.3036818185059253,0.9517973594817938
1718606829335938368,73,1718606829335938628,2.8220818726072228,-24.19478315826248,2.4105402811534637,0.012570151111071735,-0.04123209478395027,-0.30368841384036616,0.951795804235286
1718606829346291898,74,1718606829346292123,2.8359927550340487,-24.188912408042917,2.407155556274656,0.012512984912152986,-0.04123025900362251,-0.30369899946579293,0.9517932594185351
1718606829382363854,75,1718606829382364249,2.848090219066726,-24.209621875462354,2.4091546853916395,0.012368540645339137,-0.041243494776660325,-0.30368212763497,0.9517999572893507
1718606829383765248,76,1718606829383765448,2.8586106693305813,-24.227522284299,2.410490130058515,0.012272813008052942,-0.041262223142019896,-0.3036625298843359,0.951806637372577
1718606829421831251,77,1718606829421831489,2.867769315808694,-24.242967502211293,2.4112556398444087,0.012479674984345334,-0.04119892039896453,-0.3036824162382245,0.9518003449978145
1718606829422498378,78,1718606829422498557,2.875741865300822,-24.256288448206348,2.4115345897418377,0.012550376568830991,-0.04117552327939422,-0.3037101154588315,0.9517915896343231
1718606829461034196,79,1718606829461034704,2.883161461947875,-24.267772656656327,2.4126159119713932,0.01255613325036073,-0.04114524097638613,-0.3037389683875832,0.9517836160313126
1718606829485893978,80,1718606829485894178,2.8896169836173233,-24.277666186258713,2.4131747414257014,0.012395055897665463,-0.04115883611271809,-0.30371635988284257,0.9517923542131738
1718606829486499179,81,1718606829486499438,2.89568405105943,-24.286146927464173,2.413332587100057,0.012252691214798949,-0.041174580050832264,-0.30361185182343375,0.9518268587027673
1718606829498542107,82,1718606829498542340,2.9009649155125015,-24.293408014579832,2.4130945750971025,0.012309909506739315,-0.04116274691513389,-0.3036154734725935,0.9518254769979366
1718606829509998018,83,1718606829509998242,2.9055657847352165,-24.299611303371726,2.4125216637194575,0.012439704059242145,-0.04113248962410684,-0.30366607424206293,0.9518089553133313
1718606829520504993,84,1718606829520505196,2.9095741831970576,-24.304902580243628,2.411660056032638,0.012517404218819122,-0.041116817065367336,-0.3037027589569458,0.9517969090872145
1718606829536215617,85,1718606829536215832,2.902731107998011,-24.28438319879242,2.3970405698524577,0.012543822180382542,-0.04110585747974332,-0.3037446030265196,0.9517836819037317
1718606829546127012,86,1718606829546127239,2.8967940632614257,-24.26648185139988,2.3839926281197323,0.012491618774881535,-0.0411083199520464,-0.3037619185853433,0.951778736003518
1718606829556410074,87,1718606829556410279,2.8916430653270564,-24.250855035499697,2.3723148323692507,0.012402245033833284,-0.04112238500032423,-0.30373663176220433,0.9517873671654593
1718606829581205649,88,1718606829581205937,2.887175481939904,-24.237202903621977,2.3618383219898456,0.012310757634924589,-0.04114531153202307,-0.3037159593357621,0.951794160851045
1718606829598639831,89,1718606829598640074,2.8832440631614333,-24.22532180269259,2.3524818271311867,0.012259838940204836,-0.04116842468676377,-0.3036624749008111,0.9518108837868395
1718606829612871587,90,1718606829612871765,2.8798428822591826,-24.214907095855786,2.3440290448781322,0.012482217455117841,-0.041149731534554264,-0.3037031874872524,0.9517958120059786
1718606829638751641,91,1718606829638751871,2.869017243069954,-24.201912679553594,2.3382718968894283,0.012574557233734702,-0.04115093133032143,-0.3037606482269078,0.9517762079132844
1718606829660120711,92,1718606829660120946,2.859623576143741,-24.1905549544919,2.3329528169653395,0.012397751164380664,-0.04120857997761934,-0.30377468349785747,0.9517715536661467
1718606829684870125,93,1718606829684870371,2.851307195261243,-24.18243575173635,2.3339001735670033,0.012314664404508372,-0.04123429710703551,-0.3037646531602834,0.9517747198119447
1718606829686048979,94,1718606829686049193,2.8440939902646907,-24.175294146835867,2.3344154671907433,0.012291501401721394,-0.04126914320048268,-0.3037423888399455,0.9517806144456782
1718606829711327976,95,1718606829711328209,2.837844865830675,-24.168996741163916,2.3345608997037823,0.012487634772283608,-0.04125588679116584,-0.3037648141596794,0.9517714791174423
1718606829721562698,96,1718606829721562933,2.832431813285846,-24.16344115025342,2.3343891394710825,0.012566980412355334,-0.04124178202926232,-0.30378480552829,0.9517646654233941
1718606829732475291,97,1718606829732475486,2.827873223125869,-24.18194151015844,2.3352756562182555,0.012604326573617992,-0.04123485340665118,-0.30381049820208533,0.9517562707953955
1718606829742752172,98,1718606829742752320,2.823923216302735,-24.19793494959073,2.335749359028569,0.012570029400640951,-0.04124067069252774,-0.3038225538689354,0.9517526239534385
1718606829773495314,99,1718606829773495502,2.8204993141469803,-24.21174644652639,2.335876454180922,0.012404261423627463,-0.04127615841605556,-0.3037831322506557,0.9517658438948772
1718606829815813141,100,1718606829815813480,2.8175145916421616,-24.223647430892548,2.3357379165973886,0.012497141731333341,-0.04127191305046262,-0.30374916838780547,0.9517756528433676
1718606829820848158,101,1718606829820848410,2.8149373883735134,-24.233891537952168,2.3353348765163284,0.012571384639493388,-0.04124941143286395,-0.30377088791328427,0.9517687187552778
1718606829836031047,102,1718606829836031381,2.817952491227142,-24.24293271300438,2.3393958691870482,0.012599802812229909,-0.04123227748092135,-0.3038019296860089,0.9517591774088057
1718606829862336823,103,1718606829862337082,2.8205756525988646,-24.250711944971783,2.3426501492492293,0.012398279520919125,-0.04123702418325918,-0.30377207514538535,0.9517711473160431
1718606829900132759,104,1718606829900133123,2.8197760601489428,-24.257027287081243,2.3377306272216383,0.012289273877126682,-0.04124386777484839,-0.30367301395183144,0.9518038756571411
1718606829902236553,105,1718606829902236737,2.8190895466518664,-24.262412458612125,2.3331891705505967,0.012351994117516012,-0.0412319404797718,-0.30369424118757915,0.9517968077247864
1718606829911638967,106,1718606829911639230,2.8185058710511806,-24.266993312390056,2.3289868923938286,0.012437739374765389,-0.041199934262727354,-0.3037284972790233,0.9517861461466114
1718606829918651071,107,1718606829918651285,2.818011444827387,-24.27088081860999,2.325082983552914,0.012525132131910715,-0.041170798919127526,-0.30376518272202835,0.9517745532148313
1718606829933989000,108,1718606829933989172,2.817428520186942,-24.274159899583083,2.321443752497104,0.012574085195386223,-0.04113696263529625,-0.3037907593095722,0.9517672074855044
1718606829959290809,109,1718606829959291099,2.816928918053832,-24.276931944164225,2.3180297982016413,0.012523699182586534,-0.04112945748303688,-0.3038004845218739,0.9517650919687114
1718606829964666365,110,1718606829964666568,2.8164989042732476,-24.279261023926978,2.314815744975104,0.012387812795142533,-0.041146512165254896,-0.30373948141188273,0.9517856029917807
1718606829969922713,111,1718606829969922893,2.816128844021403,-24.281204283774528,2.311788749324482,0.012306019250667634,-0.04116216163726608,-0.30370672517636743,0.9517964401184721
1718606829988169872,112,1718606829988170041,2.8158761715735956,-24.282707963404597,2.30916424682905,0.012267744775862469,-0.04118173088114556,-0.3036859849331375,0.9518027054148025
1718606829996069670,113,1718606829996069869,2.815660194767578,-24.28391982621544,2.3066464759504197,0.01231968854030771,-0.041176668815194044,-0.30367835998911286,0.9518046863164082
1718606830011086114,114,1718606830011086325,2.815480880711217,-24.28487846051103,2.304226091252625,0.01245013191485553,-0.04115577214920633,-0.303721562190795,0.9517901077939864
1718606830020951653,115,1718606830020951837,2.815330334186502,-24.28562543145233,2.301896040359486,0.01252903325853058,-0.04113185040531298,-0.30375054532769474,0.951780857351612
1718606830036368825,116,1718606830036369002,2.8136569637258555,-24.28575213723454,2.2959941852288064,0.012564426002273376,-0.041122837919590066,-0.3037920227104964,0.9517675421751562
1718606830060977363,117,1718606830060977662,2.8122050772689025,-24.28579182806208,2.290648562264611,0.01251396958815067,-0.04112183904185224,-0.3037825120764739,0.9517712856960278
1718606830067740219,118,1718606830067740427,2.8109495684430414,-24.285755984191688,2.285792670340079,0.012360107790199755,-0.04116294062315535,-0.3037619220291699,0.9517780911430004
1718606830073016375,119,1718606830073016631,2.809859961663409,-24.285643254053888,2.281356636380142,0.01229083610941953,-0.041189409113942616,-0.30373236036665324,0.9517872772792653
1718606830084097550,120,1718606830084097740,2.808916678343662,-24.2616753150726,2.2685386326608796,0.012270078071394108,-0.04119957241250507,-0.3037129046607747,0.9517933136766951
1718606830093408619,121,1718606830093408795,2.8081038315580598,-24.240777707961776,2.2572063887484024,0.012317501310814844,-0.041205258798412636,-0.3037086868163175,0.95179380086294
1718606830109370292,122,1718606830109370526,2.8074071716146927,-24.22254619065668,2.2471632566230597,0.012483573593585857,-0.04120370770378118,-0.3037178236585587,0.9517887887834694
1718606830119533704,123,1718606830119533890,2.8068092732240273,-24.206637500644106,2.238249580248588,0.012569424413465098,-0.04119133856602713,-0.3037498524989203,0.9517779732185113
1718606830135576323,124,1718606830135576511,2.8038323355103185,-24.19278414708249,2.2276563170897683,0.012604151474676768,-0.04119689639123346,-0.3038022129083832,0.9517605615517502
1718606830145445552,125,1718606830145445710,2.8012507187081734,-24.180698365823268,2.2182745220057463,0.012552971017030852,-0.04120776868017606,-0.3038026166263344,0.951760638422308
1718606830165416225,126,1718606830165416464,2.799010863927248,-24.170149842843358,2.209940320270717,0.012418586356622725,-0.041249291859769485,-0.30379207231792754,0.9517639683402338
1718606830197337552,127,1718606830197337803,2.7970278796800665,-24.16252418416117,2.208591863253919,0.012309192567273426,-0.04130384660744026,-0.30373996218476135,0.9517796548601839
1718606830212600672,128,1718606830212600901,2.7953166415765796,-24.155827851074456,2.2072405027716004,0.012497954555010075,-0.04128588215905221,-0.3037598024473898,0.9517716425085444
1718606830222121947,129,1718606830222122333,2.793840380658508,-24.1499415090122,2.205890209272697,0.012576423504875879,-0.04127156335507348,-0.3037855009651816,0.9517630277718229
1718606830237522274,130,1718606830237522450,2.7945746087837224,-24.144824236867116,2.213401240494809,0.012609835576591311,-0.04126227974598557,-0.3038294580228702,0.9517489567918761
1718606830247523243,131,1718606830247523417,2.795216670202895,-24.140322777889644,2.219752293701001,0.012548244239746363,-0.04126559465681891,-0.3038372022272623,0.9517471548719378
1718606830268397246,132,1718606830268397489,2.7957792181452525,-24.136362141363634,2.225101207777161,0.012461452336647388,-0.041288020599263245,-0.3038198252324622,0.9517528698965779
1718606830269158904,133,1718606830269159180,2.7962680100231476,-24.132864006220792,2.2295763079748694,0.012380458387341704,-0.041308741925755114,-0.3037905388353501,0.9517623761237667
1718606830285587352,134,1718606830285587508,2.8010900826861684,-24.128753613020628,2.236111050185175,0.012327101341550756,-0.041330804659956435,-0.3037457896740249,0.9517763930745388
1718606830295249189,135,1718606830295249482,2.8052837441586687,-24.125113617668134,2.241625450569749,0.01236014325193801,-0.04132696539008718,-0.3037235681976678,0.9517832226466879
1718606830309401011,136,1718606830309401328,2.8089308343045643,-24.121882767839736,2.246253839216274,0.01251193131684989,-0.04129501045486494,-0.3037358511996512,0.9517787066236976
1718606830320119931,137,1718606830320120228,2.8121046842428323,-24.11901429649795,2.250117334645905,0.012590305097432837,-0.04127569240171447,-0.3037669767943167,0.9517685775668124
1718606830335072331,138,1718606830335072540,2.7936004713431593,-24.128648123995553,2.201037758539364,0.012619578525139797,-0.04124786480641133,-0.30380798715533813,0.9517563064290049
1718606830345190018,139,1718606830345190196,2.7775357939931267,-24.13695975264747,2.1582695278579003,0.012569785245240673,-0.04124682132762973,-0.3038122757612546,0.9517556416045153
1718606830369023642,140,1718606830369023835,2.763588021748891,-24.144124101086575,2.120987413704947,0.012431157994171292,-0.041256488804782124,-0.30377630693344804,0.9517685242685328
1718606830374472841,141,1718606830374473035,2.751479412403207,-24.150286278470773,2.088479259793719,0.012346067412799493,-0.04126582276973539,-0.3037445532146788,0.9517793614504312
1718606830387423339,142,1718606830387423513,2.741170001649637,-24.15622370342595,2.0561461198557227,0.012309617311065007,-0.04126378503941774,-0.3037016676984633,0.9517936070404381
1718606830401175279,143,1718606830401175443,2.732223218421002,-24.161304098098242,2.027940900996403,0.012359286856151378,-0.04123982542336067,-0.30371521100613974,0.9517896802502925
1718606830412983928,144,1718606830412984349,2.7244656461582544,-24.165642854340973,2.0033282347826744,0.012485589727706142,-0.04119773547188724,-0.30372139557648953,0.951787881048193
1718606830425602251,145,1718606830425602491,2.7177393120014792,-24.16934611648341,1.9818362679101469,0.012564282377513605,-0.041168840869548,-0.30374737397121404,0.9517798054988283
1718606830433050374,146,1718606830433050617,2.717879435210597,-24.173250226853618,1.964704152253415,0.012593190509225244,-0.04114297578833606,-0.3037724944361676,0.951772524671787
1718606830443125440,147,1718606830443125628,2.718005423930231,-24.176588407394327,1.9497103016008515,0.012550812763191014,-0.041136069831460884,-0.30377774504290966,0.9517717071201736
1718606830516621356,148,1718606830516621756,2.714360016334152,-24.179416392871886,1.9362685425416677,0.012454131503903742,-0.041135187814807156,-0.303765532568255,0.9517769130187224
1718606830521458406,149,1718606830521458582,2.711205241260375,-24.18180561401406,1.9244855553766618,0.012536154408916405,-0.041110662471169256,-0.30378670902983046,0.9517701369977114
1718606830536867901,150,1718606830536868127,2.7127693440994154,-24.185267913709758,1.914106550395358,0.012568509950087028,-0.04110070629226643,-0.30382227444609095,0.951758787745254
1718606830547553087,151,1718606830547553250,2.7141314003373074,-24.18822874300016,1.9049892003116353,0.012516249342175797,-0.041106530752163216,-0.3038199633997978,0.9517599626332636
1718606830580260117,152,1718606830580260265,2.715319171515227,-24.190757614098544,1.8969706508844761,0.012379025618871027,-0.04114122113128623,-0.30381394683699686,0.9517621789900461
1718606830594508412,153,1718606830594508607,2.7041174671136456,-24.218028905490748,1.9385334527299452,0.012287144028314429,-0.04119347233786533,-0.30373875999301764,0.9517851068420229
1718606830600850049,154,1718606830600850249,2.6943995947325132,-24.24163072122036,1.9745112048603621,0.012352729458619052,-0.041194961902782566,-0.30372585152448467,0.951788312758923
1718606830607772248,155,1718606830607772412,2.6859744647804717,-24.26205037024883,2.00564432193646,0.01244554126965724,-0.04118306310690329,-0.30374984077498135,0.9517799630402037
1718606830617591902,156,1718606830617592056,2.678671693241637,-24.279707717141427,2.0325681900858976,0.012540152602718969,-0.041171161268484316,-0.30375219857686003,0.9517784836358872
1718606830633427557,157,1718606830633427708,2.6723409808370353,-24.294980075666516,2.0532128976947073,0.01259753128968426,-0.041164041931931954,-0.3037644450642026,0.9517741253953421
1718606830646397342,158,1718606830646397521,2.666854190627374,-24.30819064995203,2.071028266375233,0.012561551722233149,-0.041174235032010155,-0.3037758943670742,0.9517705058412678
1718606830661953187,159,1718606830661953451,2.662096783388996,-24.319605779354823,2.0863865248130637,0.012406235894295929,-0.041220454375539874,-0.30377621975072355,0.9517704385858856
1718606830705999045,160,1718606830705999750,2.654927706190583,-24.32944883718192,2.1004025787578398,0.012303049373007142,-0.04126763987197034,-0.3037108108081154,0.951790607367923
1718606830711049782,161,1718606830711050054,2.648716326124239,-24.337921097613894,2.1124681372286824,0.012513117815690113,-0.04124434648682152,-0.3037221419829561,0.9517852626694168
1718606830720770201,162,1718606830720770489,2.6433393903497375,-24.345205897643396,2.1228416830118393,0.012596355299935058,-0.041221266998443466,-0.303744156208857,0.9517781393524283
1718606830736519231,163,1718606830736519507,2.6363416508984208,-24.349665157664447,2.1314663669048897,0.012624527787394323,-0.041217079708915444,-0.30376316962274025,0.951771879401341
1718606830747571363,164,1718606830747571531,2.630274538120806,-24.35348075012508,2.1388539290713724,0.01257189519423995,-0.04122603958548168,-0.3037816511422148,0.9517662893487198
1718606830763618738,165,1718606830763618933,2.625017319101568,-24.356739057126163,2.1451655535087384,0.012427492080726455,-0.041254326746007514,-0.303755104871959,0.9517754326675713
1718606830803597079,166,1718606830803597254,2.6204600355743417,-24.359503144161962,2.150550192053624,0.012331873095619911,-0.04126881841172953,-0.30369657760664237,0.9517947248660638
1718606830816299221,167,1718606830816299399,2.6194527970467907,-24.362231071117684,2.1520742673688233,0.01252196458161452,-0.04121361700443042,-0.3036885579870377,0.9517971936942147
1718606830825295903,168,1718606830825296147,2.618591072183595,-24.364532257022667,2.153298076813763,0.012593530952021434,-0.04119369728176036,-0.3037225282455389,0.9517862722894026
1718606830834257505,169,1718606830834257799,2.609268984378226,-24.372690605165793,2.162244117630972,0.012610134920923452,-0.04117048682599407,-0.30373521003680726,0.9517830097746457
1718606830845880694,170,1718606830845880900,2.601186180728253,-24.37972377957211,2.169916608525092,0.012545065780487804,-0.04117179604936535,-0.303723599278249,0.9517875181867528
1718606830860986417,171,1718606830860986649,2.5941786482995264,-24.385774525452938,2.1764849615548965,0.012428558261887473,-0.04118836987411439,-0.30368896904235027,0.9517993797059537
1718606830890199825,172,1718606830890200128,2.5824585368537596,-24.38881611219705,2.1822399829801986,0.012307262600315639,-0.041191740555215156,-0.3036626781855533,0.951809198145561
1718606830892705648,173,1718606830892705871,2.5722958334191346,-24.39138944185214,2.187148291252265,0.012274042488059151,-0.04119427057416681,-0.303621227187425,0.9518227410364104
1718606830902393258,174,1718606830902393567,2.563488138511292,-24.393550149737074,2.1913151818819867,0.012328631446542827,-0.04117568277213118,-0.3036036839147556,0.9518284357531526
1718606830912484364,175,1718606830912484672,2.5558578560966954,-24.39535366141586,2.1948386209842194,0.01245599293898686,-0.04114268962875375,-0.3036176764542246,0.9518237409702249
1718606830921277152,176,1718606830921277391,2.549252520045351,-24.39684993537596,2.197812629904938,0.01253203416536644,-0.04112006486487156,-0.30362964903775697,0.9518199013523491
1718606830936274801,177,1718606830936275082,2.5596593136145613,-24.39811506593501,2.201300215435954,0.012555967802470255,-0.04110095579934039,-0.30365877826239285,0.9518111185992287
1718606830956545804,178,1718606830956546089,2.5687059209815506,-24.39916168602182,2.2042466620376557,0.012502618395745834,-0.041095791046269536,-0.3036608533353272,0.9518113818626002
1718606830961455815,179,1718606830961456166,2.5765656011893743,-24.400017053356734,2.2067199038772416,0.012412809901819017,-0.041100059793167845,-0.30363802153981756,0.9518196568209362
1718606830973817894,180,1718606830973818191,2.5833943765651557,-24.4007049814076,2.2087821931950233,0.012298516885917469,-0.04111812621802236,-0.30359277022453324,0.9518347945132701
1718606831002623902,181,1718606831002624686,2.5858217907713983,-24.402991201343127,2.20551160456141,0.012260343998482045,-0.04112794350288143,-0.30355859771818167,0.9518457616544992
1718606831015882880,182,1718606831015883220,2.587944598000206,-24.404903436696074,2.202596145738587,0.012470220365978538,-0.041098446805365715,-0.30364335661911435,0.9518172740895637
1718606831034987780,183,1718606831034988165,2.6148764376913007,-24.395777224690605,2.20518715671789,0.012574509569398915,-0.04108069416172111,-0.30375581621933484,0.9517807848392433
1718606831077186341,184,1718606831077186734,2.638260658055345,-24.387812420911857,2.2073568361864933,0.012535678479412995,-0.0410930864747877,-0.3038230970893489,0.9517592871540959
1718606831090310021,185,1718606831090310439,2.6580743833966674,-24.383641761866386,2.208501430123701,0.0122872165685503,-0.041177180694944485,-0.3037732617588658,0.9517747998026597
1718606831106976576,186,1718606831106976896,2.675279281025234,-24.379961471269134,2.209417904448178,0.012323032723964056,-0.0411876428662913,-0.30374776477411575,0.9517820214389067
1718606831113157096,187,1718606831113157256,2.690222510425354,-24.376712352060878,2.2101428083844823,0.012463550793438357,-0.04118766190020746,-0.3037130480740949,0.9517912695745617
1718606831123383206,188,1718606831123383427,2.7031957411412586,-24.373836038141455,2.2106995520408717,0.012533238059064075,-0.04118378800547874,-0.30369442462503504,0.9517964645873316
1718606831132591202,189,1718606831132591415,2.709452118479237,-24.371186980042523,2.2106945002616927,0.012558741171555973,-0.041187702548654705,-0.3036644976606744,0.9518055074643347
1718606831143005760,190,1718606831143006229,2.7148846411854604,-24.368832144643022,2.2106158500269744,0.012512703519829436,-0.04120908708419543,-0.3036364935711418,0.9518141221709909
1718606831164277123,191,1718606831164277501,2.7195981405080554,-24.366730169983057,2.2104813601548092,0.012338332569300317,-0.04127770201939908,-0.30356188962595304,0.9518372213945658
1718606831187815205,192,1718606831187815425,2.72369097571479,-24.36484196754664,2.2103008158587945,0.012303450356316165,-0.041296628681665795,-0.30355654370995255,0.9518385568675635
1718606831204557837,193,1718606831204558285,2.73191874633379,-24.362380432976273,2.2083206442119026,0.012328119950902456,-0.041310441361469684,-0.30358529783591875,0.9518284676510118
1718606831216947177,194,1718606831216947322,2.739063488747407,-24.360197391640476,2.206539911442695,0.012591904800807007,-0.041289757413309695,-0.30381247015761126,0.9517534254432543
1718606831220629729,195,1718606831220629976,2.745267756741083,-24.35826108308631,2.204934540926387,0.012679312147857051,-0.04125475808547433,-0.30390247150580463,0.9517250484207241
1718606831235690754,196,1718606831235690981,2.7456262906170052,-24.353712649771104,2.2045513819965294,0.012684332574939087,-0.04121798466407994,-0.30400250992346556,0.951694625080752
1718606831246223850,197,1718606831246224108,2.74593678242374,-24.34973030425803,2.204151953429045,0.012586265653184709,-0.04122059065875547,-0.3040110207873303,0.9516930955210805
1718606831291700404,198,1718606831291700718,2.7572166218565757,-24.342183624476114,2.19664430357973,0.01226323973708091,-0.041284883387066325,-0.3039172154065646,0.9517244861483742
1718606831298825438,199,1718606831298825685,2.7670131079658935,-24.335574133016713,2.1900753513063185,0.01234710427095581,-0.04127435156115473,-0.3039052018998097,0.9517276948673733
1718606831310816326,200,1718606831310816525,2.775509559812798,-24.329776755117805,2.1843089099086055,0.012447772343126644,-0.04124706915810899,-0.3039024422315445,0.9517284475391405
1718606831320677866,201,1718606831320678072,2.7828704467323804,-24.32468884068988,2.1792381182916047,0.012544680761277445,-0.04124389405761583,-0.30391539774386195,0.9517231757195745
1718606831339009439,202,1718606831339009659,2.785055802932048,-24.320253751718404,2.171894819108943,0.012592489736694109,-0.041206188190842506,-0.30390479932756126,0.9517275619643927
1718606831412240619,203,1718606831412240793,2.782750317822201,-24.31633697451843,2.16907604161609,0.0123531169655588,-0.041139484514705116,-0.303478040191067,0.9518697507731237
1718606831422565738,204,1718606831422565988,2.7807666034910157,-24.312879607135045,2.1665825135905896,0.012418120716681587,-0.041116400285734704,-0.3035183157344102,0.9518570606551994
1718606831440170623,205,1718606831440170893,2.782779398511585,-24.312218683300408,2.163891576206453,0.012505302605899256,-0.04107415501673392,-0.3036412169721733,0.9518185449717051
1718606831447486971,206,1718606831447487202,2.7845179058393805,-24.311611114773193,2.161506610909239,0.01250865544732113,-0.041076558092553325,-0.3037007043546506,0.9517994179913426
1718606831482590440,207,1718606831482590643,2.786022217196407,-24.311050219569033,2.1593903642293375,0.012440591829967308,-0.04108561502563541,-0.30379691181344287,0.9517692158740482
1718606831512350372,208,1718606831512350609,2.773710671574081,-24.310764146275424,2.1579277532567422,0.0124185154934244,-0.0410862995969149,-0.30402644276895213,0.9516961797525664
1718606831520802646,209,1718606831520803006,2.763026393114844,-24.310477513517405,2.1566135343935002,0.012523887381694758,-0.04109163857312639,-0.30411183112189766,0.9516672862171488
1718606831535861761,210,1718606831535862113,2.7716654198320034,-24.303455965315088,2.171884879894208,0.012619272575585273,-0.04105935543392494,-0.3042293433490422,0.9516298597335123
1718606831545541247,211,1718606831545541452,2.7791538375740137,-24.29733632825164,2.18508407121293,0.012593333169595712,-0.041049944665901575,-0.30424739847983967,0.9516248370659814
1718606831577186237,212,1718606831577186459,2.785648881224875,-24.292020991527288,2.196495368476716,0.012468144226455414,-0.04110630205659852,-0.3042073828504989,0.9516368454037653
1718606831653042918,213,1718606831653043155,2.785214278078521,-24.285511518481812,2.2014569826894013,0.012445137983619075,-0.04129221775366961,-0.3036524760230391,0.9518063065028671
1718606831670005648,214,1718606831670005891,2.7848300701547934,-24.279828306303266,2.2057131844706634,0.012524138427795636,-0.041327749835729656,-0.3034980423473936,0.9518529830501433
1718606831674252482,215,1718606831674252686,2.7844859872692127,-24.27487088624077,2.20936090038459,0.012523162472564056,-0.041338776928004924,-0.303389802033132,0.9518870226797292
1718606831718541175,216,1718606831718541427,2.782289856889422,-24.271391188489325,2.213483718602447,0.012518291537663175,-0.04139852646555313,-0.303307067929335,0.9519108555571623
1718606831725825495,217,1718606831725825736,2.7803760903848214,-24.268318028246284,2.2170190183596885,0.012587821084344189,-0.041377764771224665,-0.30345163419946647,0.9518647661535533
1718606831768042571,218,1718606831768043067,2.778707933010401,-24.2656139062533,2.2200405072009373,0.012539809542167064,-0.04126212802918014,-0.3043067818646271,0.9515973793986319
1718606831831048414,219,1718606831831048868,2.7784621252193134,-24.26329680214971,2.2238651085071632,0.012377868612799983,-0.04126431923809911,-0.3046952605595161,0.9514750877027675
1718606831833337827,220,1718606831833338035,2.78196541657451,-24.238209231749785,2.2208995719674154,0.012520380418879927,-0.04126150566748076,-0.30506888277359767,0.9513536172146969
1718606831834451052,221,1718606831834451238,2.7850071423199827,-24.21643778784886,2.2182838845353574,0.012625629404984606,-0.041237370917032536,-0.30514659006578515,0.9513283509352609
1718606831835803658,222,1718606831835803901,2.787643844026922,-24.197557836900543,2.2159677643555566,0.012708091119278333,-0.04121153410416797,-0.3051461563544247,0.9513285116819564
1718606831896271311,223,1718606831896271688,2.7852720192803533,-24.18205301613863,2.2106238184032416,0.012330636903272402,-0.04143169384471499,-0.30376638951780266,0.951765386394166
1718606831897581169,224,1718606831897581364,2.7832112129156563,-24.168542617315616,2.205948619088672,0.012293861769847472,-0.041513161634597714,-0.3032955954170054,0.951912443544325
1718606831912372277,225,1718606831912372576,2.7814255458567043,-24.156726240068174,2.2018507111000294,0.012327729302919997,-0.04153168059469079,-0.3028316990325143,0.9520588787770928
1718606831922628637,226,1718606831922628863,2.779876517078423,-24.14637584444175,2.198260578405857,0.012366064327915953,-0.04153391552189577,-0.30264558173649375,0.9521174644810572
1718606831938159985,227,1718606831938160208,2.777714682807673,-24.13506329843078,2.193919129208779,0.012436812396824662,-0.04149230081397638,-0.3025581454328485,0.9521461459790739
1718606831998347318,228,1718606831998347610,2.775829445508981,-24.125195497169763,2.1901041695064363,0.012531386923803277,-0.0413439064611343,-0.3028667102954626,0.9520532556191924
1718606832051305034,229,1718606832051305332,2.7765873545279267,-24.14146414116555,2.1954084481677896,0.012607319432893897,-0.04129010928869256,-0.3033497742150656,0.9519007809931209
1718606832070851878,230,1718606832070852066,2.7772386591126925,-24.15555080787844,2.1999725135771233,0.01214059454872881,-0.041430373174478084,-0.3039271863033109,0.9517165521143254
1718606832138615915,231,1718606832138616246,2.758453589002897,-24.181450299028555,2.200515942703718,0.013262290263971336,-0.041074960669465005,-0.30498340165746796,0.9513790432716056
1718606832211173174,232,1718606832211173414,2.746057647636912,-24.204285645014025,2.2033483868999144,0.013511850840471035,-0.04094832956963606,-0.30523319700913243,0.9513008775544703
1718606832213980527,233,1718606832213980774,2.7353073322848327,-24.223945368744765,2.2058088651687706,0.011404627684762827,-0.042119997563995044,-0.3030126922641174,0.9519869477043433
1718606832241442065,234,1718606832241442308,2.7237406814524867,-24.24080730151301,2.204875586813078,0.0112671032851998,-0.0422137420397989,-0.3028335627166497,0.9520414306420173
1718606832242915031,235,1718606832242915203,2.713687252187923,-24.255254413033256,2.2040346288277917,0.011377694957419903,-0.04216910131707238,-0.30294558248400316,0.9520064542874667
1718606832245732313,236,1718606832245732644,2.704939240553103,-24.267677586028675,2.203269123593671,0.011767350264798686,-0.04204048301718452,-0.3033044131057136,0.9518931453929196
1718606832322522978,237,1718606832322523330,2.692097776322491,-24.273131175191047,2.1985327493703517,0.012964567894130958,-0.04157058455814936,-0.3033462118413274,0.9518849101862729
1718606832336764137,238,1718606832336764455,2.680419767766488,-24.248894266263655,2.1379653385413415,0.011009245706757044,-0.04257748119689575,-0.302511859755577,0.9521305211530183
1718606832373748700,239,1718606832373749002,2.6702689351340507,-24.22762379544234,2.085416044011021,0.01089973586031162,-0.042638593465038,-0.30279980185177313,0.9520375129710098
1718606832420217274,240,1718606832420217503,2.659271740436849,-24.21028801551268,2.0403811193661023,0.013354655760616485,-0.04126265110001233,-0.30460261099025104,0.9514916164484245
1718606832439197373,241,1718606832439197675,2.6445505879414513,-24.195105899215854,2.002977121118724,0.010486804245199275,-0.04250725851364117,-0.30347118639141446,0.9518342287082162
1718606832450834801,242,1718606832450835038,2.631792204120431,-24.18176920785325,1.9705650947955262,0.010412141051247242,-0.04267088065863012,-0.30354059887688384,0.9518055936461021
1718606832467875195,243,1718606832467875464,2.620718702073063,-24.170093221890234,1.9424767548491166,0.011080372034813653,-0.04241125987642722,-0.30396142293493555,0.9516753457764016
1718606832516752107,244,1718606832516752323,2.617038776665211,-24.163538601724525,1.9225158999841567,0.013708045546463028,-0.04098291647375496,-0.3046160304823341,0.9514943846485838
1718606832523903277,245,1718606832523903494,2.6138136603860924,-24.15778728835093,1.9051449566476273,0.01215314803142394,-0.0416730472057681,-0.3042367541629239,0.9516068807789909
1718606832532803917,246,1718606832532804143,2.6110080091047636,-24.152824618431815,1.8900451912027383,0.010826215901530713,-0.04232435231450626,-0.30392541982383897,0.9516936384337735
1718606832541999415,247,1718606832541999657,2.6118236668913823,-24.175114330130974,1.9288582479257435,0.01038707501246754,-0.042718428620129936,-0.3037309909202688,0.9517429956051706
1718606832573142012,248,1718606832573142336,2.612569169488506,-24.19439861785915,1.9625925313771004,0.012247540146848177,-0.04194449664231334,-0.30352977141620424,0.9518194864709385
1718606832590547001,249,1718606832590547378,2.6155526716155104,-24.211026770577988,1.9886298696528546,0.0133227935301893,-0.04109220471799776,-0.3034577886374307,0.9518651713342845
1718606832613707799,250,1718606832613708002,2.618156294480602,-24.225525070775383,2.011245550823981,0.012001370962393105,-0.04182796583726786,-0.3039664377893542,0.951688390738581
1718606832634536914,251,1718606832634537095,2.621951342863804,-24.239763703300646,2.029446164122806,0.012279793566089738,-0.04179958235710914,-0.3038983331663002,0.9517078357791796
1718606832644951995,252,1718606832644952189,2.6252539055657267,-24.252075636750817,2.0452177158855407,0.012743506387130657,-0.04153143620489696,-0.3035531670150169,0.9518236273842297
1718606832672242748,253,1718606832672242945,2.6280516581931916,-24.262568716422194,2.058776667411932,0.012739079697244974,-0.04137239132907299,-0.3031168208948199,0.9519696602175927
1718606832690537267,254,1718606832690537478,2.631648941528828,-24.273676823899294,2.0704538408304,0.011920055692913803,-0.04195395268845573,-0.3036821924463222,0.9517746078337493
1718606832697728797,255,1718606832697729004,2.6348746520718853,-24.28343262613516,2.080689039391832,0.012077518037971581,-0.04189769308033861,-0.30407185578174434,0.9516506834937041
1718606832713067028,256,1718606832713067274,2.6377739441475003,-24.29197131518768,2.0896238743662843,0.01245746805107558,-0.0416012166273005,-0.30425568204046977,0.9516000368910109
1718606832720048368,257,1718606832720048699,2.6402983295782563,-24.299319680977383,2.097320885849413,0.012756230511020499,-0.04129962759333157,-0.3042346661054252,0.9516159347570439
1718606832764056911,258,1718606832764057297,2.6426459904571113,-24.30583972749436,2.109675725138968,0.012120003164486633,-0.041904942687669096,-0.30434025688204946,0.9515640227239596
1718606832816229886,259,1718606832816230139,2.6448542514548574,-24.311608580127555,2.120580902574092,0.01218906323974322,-0.0417866594958316,-0.30434969058023564,0.9515653249615771
1718606832819382542,260,1718606832819382907,2.6507511509465926,-24.314672042960318,2.134704093036277,0.011842709042745281,-0.04155867967863035,-0.3040851415557186,0.9516642543833074
1718606832837729271,261,1718606832837729583,2.656063905163762,-24.31751111409246,2.147142410718257,0.012480818035501329,-0.041730468845525344,-0.3042771364391271,0.951587211658239
1718606832839835360,262,1718606832839835603,2.659870531344031,-24.318235753500353,2.157446110388582,0.013004357825721713,-0.040982845852914285,-0.30429947140320757,0.9516055510173663
1718606832848718899,263,1718606832848719146,2.6630256055765122,-24.31865398180316,2.166165054398874,0.012474545964030864,-0.04076458061163459,-0.30417855976781677,0.9516606740052495
1718606832863868355,264,1718606832863868562,2.6655114743701174,-24.319023180801842,2.1735096294211314,0.011481380363613014,-0.04125656323683406,-0.3040975456050315,0.9516778639076497
1718606832904902262,265,1718606832904902547,2.667639571177606,-24.31954781866778,2.1798595072474223,0.011491671168561611,-0.04172934951224693,-0.3040970256337453,0.9516572922453479
1718606832956224670,266,1718606832956224918,2.669800755800905,-24.318248110354617,2.1824378478475155,0.012078742218440798,-0.04203822366917647,-0.30378129378568935,0.9517372627374917
1718606832964265012,267,1718606832964265332,2.6713968803248127,-24.31697025882712,2.184387138944919,0.011590417227886823,-0.04078536021352888,-0.30356895277679,0.9518655932066982
1718606833003361115,268,1718606833003361417,2.6699982409671343,-24.315345291530896,2.1829365449799587,0.011743358456526142,-0.041465416974836404,-0.30371937466435006,0.9517863490199681
1718606833039089756,269,1718606833039090024,2.6658648997645678,-24.287764399676604,2.132446633875402,0.011524972672193446,-0.04105428665520422,-0.30399153075242163,0.9517199534437307
1718606833049085246,270,1718606833049085707,2.6626823804769666,-24.263826509484318,2.0888923953968948,0.012464535858703383,-0.04137083351149801,-0.30416859967964666,0.9516378263022723
1718606833058632979,271,1718606833058633395,2.660472043164179,-24.242942939861678,2.051426156074434,0.012607798210492583,-0.04089164506482161,-0.30421392417946796,0.951642162329678
1718606833077172185,272,1718606833077172501,2.6584540418811358,-24.22474835854692,2.0187361123910854,0.011932008234862011,-0.04037443695991821,-0.3040816316438648,0.9517152375140674
1718606833134903983,273,1718606833134904337,2.6588932011819417,-24.207654725415637,1.9946198078241055,0.011548354484155757,-0.04072171517974165,-0.30398405108186,0.951736346951922
1718606833167214658,274,1718606833167215128,2.659553711855347,-24.19306748450971,1.973943105532269,0.01172652996499912,-0.04133871090607825,-0.3039993266982942,0.9517026893114191
1718606833167931504,275,1718606833167931700,2.6598888221104873,-24.180068223077456,1.955834143874334,0.013036491305284337,-0.040567166966199025,-0.30395504729550055,0.9517329899096562
1718606833170102594,276,1718606833170103037,2.6603432868301247,-24.168437348147492,1.9401379790785618,0.01289702021321616,-0.04088409247347592,-0.3040237726516209,0.951699376649431
1718606833186649726,277,1718606833186649964,2.6713424614027477,-24.159470986301756,1.9278709454518776,0.01170489874296568,-0.040995118803730905,-0.30398873844713736,0.9517211999724514
1718606833198724565,278,1718606833198724807,2.6805461450085724,-24.151862325920483,1.916956683243674,0.011716360116454794,-0.040567114568986325,-0.30399426532956786,0.9517376333674656
1718606833212337379,279,1718606833212337699,2.6888325239047495,-24.145051290274203,1.9076051028447734,0.012304832967842873,-0.04072572227678872,-0.3040248406423351,0.9517136664475667
1718606833221400643,280,1718606833221400867,2.6962220822983367,-24.139202434841636,1.8995692941772062,0.011988665225216476,-0.04064224428734202,-0.30392168220027166,0.9517542177337397
1718606833231623938,281,1718606833231624184,2.7023674848765067,-24.134205405825462,1.8924858598541028,0.01171086655500167,-0.040373032256087765,-0.3038009513595656,0.9518076779602078
1718606833265328451,282,1718606833265329154,2.704412920705225,-24.130225945655063,1.8884836969608458,0.011930125694748528,-0.04046863350100469,-0.30379358362501896,0.9518032466595905
1718606833270506823,283,1718606833270507086,2.7063414594797925,-24.126886612391942,1.885154275184561,0.011892441554121683,-0.04091648720972776,-0.30369075861975336,0.9518173848156256
1718606833289002798,284,1718606833289003015,2.69786568787469,-24.13039803912016,1.869679561908498,0.011936046776121383,-0.0411342259013403,-0.3037030312765316,0.9518035380477957
1718606833298214450,285,1718606833298214708,2.6906431125972534,-24.133587763386558,1.856385280449783,0.011808080430020797,-0.041137944319250073,-0.30368282957155146,0.9518114192407867
1718606833313415344,286,1718606833313415791,2.684090459224997,-24.136250224733566,1.8446204329964773,0.012145410159110685,-0.04072029099067745,-0.3037349548522578,0.9518085018083199
1718606833339625182,287,1718606833339625400,2.67311147245325,-24.134935336027652,1.83262101350465,0.012209480131283361,-0.041096693094294305,-0.3038528437883669,0.9517538756072178
1718606833363842103,288,1718606833363842362,2.663258819718405,-24.133800727543417,1.8220387520611148,0.012163204272225175,-0.04076631844116193,-0.3038694062628527,0.9517633884952957
1718606833388938390,289,1718606833388938649,2.6546356923414605,-24.132655779601905,1.8127220480142339,0.01237185388293768,-0.04099386235312415,-0.30393756024168284,0.9517291631316158
1718606833434596241,290,1718606833434596548,2.646410965370068,-24.12987814982543,1.8008320327204803,0.011980352383057514,-0.04068932815108613,-0.30383367338243167,0.951780409889975
1718606833437258434,291,1718606833437258661,2.6393354564425606,-24.127287606137692,1.7902891207124147,0.012196402108774726,-0.04067639275931464,-0.3039721261330448,0.9517340097852169
1718606833447264446,292,1718606833447264731,2.6335348175367983,-24.125090164244483,1.7813955633628002,0.012060969056099501,-0.04086330190197048,-0.3039835138395935,0.9517240917917492
1718606833466894029,293,1718606833466894317,2.6282303186047926,-24.123248167322146,1.7735763687145951,0.011864397037650208,-0.04041719964652769,-0.3039244548183798,0.9517644728707919
1718606833475104861,294,1718606833475105187,2.623604816352158,-24.12148855457246,1.766679199188792,0.012128603351318532,-0.04052206030826309,-0.3039458916582657,0.9517498382207279
1718606833489014684,295,1718606833489014966,2.6197804778199125,-24.120070162080232,1.7609378469891421,0.011787570385053469,-0.040633024345968126,-0.3038206236642762,0.9517893880229845
1718606833499227441,296,1718606833499227713,2.6162080107491397,-24.118873019656988,1.755864135467569,0.011617436828884343,-0.040266073629641096,-0.30371886031237477,0.9518395517977447
1718606833513507099,297,1718606833513507200,2.613187061747134,-24.117663642666628,1.751443459990878,0.011782440190279396,-0.040501538091317554,-0.30376842188390096,0.9518117174008547
1718606833539404390,298,1718606833539404501,2.6132260237312313,-24.120988388984607,1.7524994175489352,0.011554911956634481,-0.04009439550761845,-0.3036854379235237,0.9518582238189418
1718606833567206046,299,1718606833567206471,2.613502280711459,-24.12396257694546,1.7536108562253747,0.01184463402187632,-0.040382217422988406,-0.30369257781905656,0.9518402173361381
1718606833610549351,300,1718606833610549573,2.6224399967305603,-24.154011354116435,1.808288359746908,0.011337418302861649,-0.04005862884362791,-0.3034688632931593,0.9519314146580898
1718606833620430773,301,1718606833620430976,2.629969970113932,-24.179961138655194,1.8555304011078535,0.011526652893780246,-0.03993217794653539,-0.3035002477858703,0.9519244492245317
1718606833635998298,302,1718606833635998514,2.635504520091907,-24.20248861300076,1.8947029535155213,0.011701047577526496,-0.04040371359250523,-0.30351401347143847,0.9518980350016396
1718606833645979022,303,1718606833645979211,2.640239451036514,-24.2221974884597,1.9287144363601363,0.011567088101391364,-0.04016243383246125,-0.3034686513714144,0.9519243452167419
1718606833687170071,304,1718606833687170256,2.643978557097244,-24.239157557449225,1.958023739786109,0.01186453784340716,-0.0399727433286156,-0.30352707517698635,0.9519100415307379
1718606833688977123,305,1718606833688977334,2.6470854465674596,-24.253996073002412,1.9834196354829943,0.011536457085082717,-0.04014646091142536,-0.3035068978893811,0.9519131970761705
1718606833698036102,306,1718606833698036270,2.6496119330844525,-24.266730337521892,2.005258324989765,0.011620791026920249,-0.03996686802874869,-0.30355395294181076,0.9519047243969756
1718606833716243565,307,1718606833716243740,2.6521216917732136,-24.277788751344012,2.0244439349555097,0.011550769708926293,-0.04031603957559237,-0.3035247457038639,0.9519001656778275
1718606833738419238,308,1718606833738419486,2.653899963048714,-24.29072726651321,2.041684495093626,0.011841071252419958,-0.03976340790764339,-0.30356110796690516,0.9519082488102886
1718606833748604849,309,1718606833748605048,2.655729904490299,-24.30189187728925,2.0568334526711256,0.011846399230121735,-0.03991720611155447,-0.3035925165761004,0.9518917288014003
1718606833776812583,310,1718606833776812825,2.657358880658745,-24.311744901026913,2.0700587091628093,0.011563151398180146,-0.03968658013138269,-0.3036033578033192,0.9519013972138961
1718606833789449814,311,1718606833789449965,2.6602251661783987,-24.320110378519026,2.083912763707632,0.011579033964427868,-0.03913699478472978,-0.3037288796981193,0.9518839158474084
1718606833841217269,312,1718606833841217528,2.686917938370435,-24.312550441781546,2.106384033669386,0.011162027209969002,-0.03900221930728865,-0.3037361960821664,0.9518920943191018
1718606833842399451,313,1718606833842399651,2.7100334464568374,-24.30612668250761,2.125898336569557,0.010843321612722964,-0.03783476701389398,-0.3036690633243011,0.9519643127560765
1718606833853537244,314,1718606833853537466,2.7299764926162937,-24.300417457513767,2.142665774839833,0.010797582058946577,-0.037498487258766144,-0.3036192810799698,0.9519940166994048
1718606833860554384,315,1718606833860554640,2.7474681741517455,-24.295473741514968,2.1573146919521764,0.010683103537141194,-0.03746784922311386,-0.303581422006858,0.9520085880840061
1718606833888358247,316,1718606833888358522,2.762774439220914,-24.290337654052536,2.166023975036756,0.010332156531725485,-0.03662454577435172,-0.3034267614221375,0.9520945801973141
1718606833896318460,317,1718606833896318729,2.7761457909533442,-24.28596150526569,2.173669698268998,0.0102542294743928,-0.03645484541701447,-0.3033685402588391,0.9521204880710893
1718606833911237258,318,1718606833911237487,2.7876632495035043,-24.282025399996208,2.180226235228639,0.010183154505869114,-0.035853184409435086,-0.3032950729310877,0.9521675016864096
1718606833920801921,319,1718606833920802121,2.797670636963787,-24.278669930513942,2.1858546884451853,0.010072712431484518,-0.035487192363503936,-0.3032876146234808,0.9521847627737104
1718606833931422180,320,1718606833931422416,2.806341885269245,-24.27573383314843,2.190742477607082,0.010090299185350312,-0.035318964051097634,-0.303269065519329,0.9521967394082697
1718606833943735256,321,1718606833943735488,2.8139045076713263,-24.24491602158666,2.184873396411841,0.010019261971513647,-0.03496030223510168,-0.30327104463414534,0.952210095064997
1718606833980525732,322,1718606833980525983,2.8204182536475515,-24.2181509327551,2.179795666195819,0.009965962486454484,-0.034331246370325655,-0.3031743094636049,0.9522643452296452
1718606834000366703,323,1718606834000366911,2.7919517274786463,-24.20954798006631,2.1305372755246283,0.009577305524508993,-0.03359694243982093,-0.3030315491102619,0.9523399607920591
1718606834014849549,324,1718606834014849753,2.7672661454720378,-24.20201517687343,2.0877532161195105,0.009135304015181768,-0.033128228025228475,-0.30292054998615087,0.9523960348114363
1718606834039296803,325,1718606834039297061,2.746704460320539,-24.195423104603734,2.051953692968275,0.009003083440348147,-0.03269230315611764,-0.3028748391753693,0.9524268946210039
1718606834060757501,326,1718606834060757734,2.7288223228769435,-24.189646478165884,2.0208279559784064,0.00903907728079787,-0.032439143940714635,-0.3028495995732692,0.9524432356107192
1718606834091432711,327,1718606834091432996,2.71331706286609,-24.184619778696366,1.993850159967438,0.008950762066489959,-0.03230733658277216,-0.30286698233427595,0.952443022376187
