time,field.header.seq,field.header.stamp,field.pose.pose.position.x,field.pose.pose.position.y,field.pose.pose.position.z,field.pose.pose.orientation.x,field.pose.pose.orientation.y,field.pose.pose.orientation.z,field.pose.pose.orientation.w
0.0,1,0.0,0.0,0.0,0.0,0.012537010523114513,-0.041272068868750955,-0.30384035875233306,0.9517460144868954
0.0,2,0.0,0.43061268344130355,-3.792626655771363,0.4072565449588026,0.01248229243820981,-0.041267438030489316,-0.3038337404092492,0.9517490473453659
0.0,3,0.0,0.778283187729567,-6.854083025777403,0.7351050126570704,0.01239760539286018,-0.0412760731715842,-0.3038211036254513,0.9517538138383633
0.0,4,0.0,1.0630259628540633,-9.371453939153474,1.000907720946579,0.012440321088191542,-0.041259478951795964,-0.3037759078449894,0.9517684023021575
0.0,5,0.0,1.3005964961388927,-11.471051859534713,1.2216915428787622,0.012510562108734684,-0.0412306816019354,-0.30380108450220206,0.9517606935494075
0.0,6,0.0,1.5004110769305874,-13.240093646577849,1.4068424401249005,0.012519116357965392,-0.04121978902292902,-0.3038287125050513,0.9517522336070684
0.0,7,0.0,1.670181740665508,-14.742468850289962,1.5631874961286019,0.012362883782263072,-0.04123690843122815,-0.3037826208333725,0.9517682468790541
0.0,8,0.0,1.8175842810124077,-16.025940499413046,1.6988334510482925,0.012232732667303592,-0.041272646694373284,-0.3037301527530474,0.9517851244871093
0.0,9,0.0,1.9441137282678458,-17.12700067572731,1.814317469198366,0.012284023008150971,-0.04126142854872518,-0.30372540463795633,0.9517864654797121
0.0,10,0.0,2.0530930772043416,-18.074649324574203,1.9128410129794666,0.012417416500647233,-0.041240489249440904,-0.3037508003127632,0.9517775376227746
0.0,11,0.0,2.147191928687526,-18.892253591977564,1.9969852267213382,0.012495457215971997,-0.04121579236833162,-0.30378145031081316,0.9517678038552646
0.0,12,0.0,2.2286022639089613,-19.59976639335887,2.0944491826759344,0.012530939662367497,-0.04120758245027429,-0.30381531266982,0.9517568841290939
0.0,13,0.0,2.2991377895185066,-20.21214749343939,2.177968408625247,0.01250648443618529,-0.0412051175322736,-0.30381955362422763,0.9517559587266969
0.0,14,0.0,2.3603193369449476,-20.742734545227776,2.249493798359523,0.012340830239803894,-0.04123448819647292,-0.3037974736169821,0.9517638971489234
0.0,15,0.0,2.394852858723443,-21.213922522197514,2.260826886563162,0.01223586629152941,-0.04127530189471081,-0.3037121750983046,0.9517907058417061
0.0,16,0.0,2.42488943625927,-21.62269538987521,2.2698475167306094,0.012429675762293578,-0.04124751974505999,-0.30372145145555624,0.9517864388617098
0.0,17,0.0,2.4477530710828868,-21.97483850986781,2.2784220649378666,0.012530994865895246,-0.04123834301083075,-0.30376289658215255,0.9517722815324118
0.0,18,0.0,2.4676720463754553,-22.280572208799995,2.285061749264256,0.012484642980546698,-0.041254123461042014,-0.30377609990380944,0.9517679927977932
0.0,19,0.0,2.485035681439433,-22.546075652706847,2.2900246401194178,0.0123527058514378,-0.04128591316448964,-0.3037460426264267,0.9517779287318587
0.0,20,0.0,2.500182714176858,-22.776661432661058,2.2935404931780137,0.012259322599709743,-0.04131120257935608,-0.3037110132761353,0.9517892171934008
0.0,21,0.0,2.5094702456294256,-23.001003589790372,2.343631064419884,0.012250486067448791,-0.04132736985250286,-0.30369145938201886,0.951794868440992
0.0,22,0.0,2.5176045666723894,-23.195852771816433,2.3863598005965385,0.012315857449948777,-0.041326788080389434,-0.3036617692349872,0.9518035228697719
0.0,23,0.0,2.5247418327713267,-23.365090998626528,2.4227085067145895,0.012404614863300122,-0.04130027005319858,-0.3036885809549859,0.951794966902627
0.0,24,0.0,2.5310089092253065,-23.512087335619647,2.453515323293768,0.012489009212983695,-0.041282015344164466,-0.30370764865215955,0.9517885710640671
0.0,25,0.0,2.5363912021123607,-23.639775573013765,2.481773753558856,0.012537130922994223,-0.04126774838557973,-0.3037493785467764,0.9517752404448495
0.0,26,0.0,2.5411270710456697,-23.750686488133802,2.5055621099892087,0.01238494407741539,-0.041291920603885604,-0.30371506732039893,0.9517871339409917
0.0,27,0.0,2.545299076717941,-23.84701143260073,2.5254610726454345,0.012300380663097925,-0.041315377287518475,-0.30367386729875584,0.9518003585600032
0.0,28,0.0,2.5463447997621955,-23.93065519097796,2.5431229273507236,0.012245947214293935,-0.04132674539691243,-0.303624742221307,0.9518162389887915
0.0,29,0.0,2.5473139384945944,-24.003268499097672,2.5577137213040544,0.012422395882856081,-0.04129362483096036,-0.3036504092952934,0.9518072018868372
0.0,30,0.0,2.548218073936114,-24.066297628966275,2.5696428257599897,0.012500834046389615,-0.041267981618485695,-0.3036866935168302,0.9517957107605054
0.0,31,0.0,2.5511531242909693,-24.120323658551612,2.582933053083893,0.01253145895598855,-0.04124653588313605,-0.30375086350965075,0.9517757607394807
0.0,32,0.0,2.5537562710941377,-24.167212629825805,2.593731103893278,0.012482949062728808,-0.041246092257163046,-0.30373762894862655,0.9517806410181274
0.0,33,0.0,2.5548756863487365,-24.20814074889067,2.6027796392890297,0.01235238052964822,-0.04126687596164519,-0.3037152794942829,0.951788575601392
0.0,34,0.0,2.555902781151687,-24.243636705449994,2.6099157467821903,0.012260615138428212,-0.04127845681800165,-0.30368555870164193,0.9517987433040785
0.0,35,0.0,2.5568513953170813,-24.274409433819926,2.6153933197325294,0.012233191978047892,-0.04128420683930498,-0.3036650090661533,0.9518054031935995
0.0,36,0.0,2.557728063602954,-24.301065060742324,2.619426514425434,0.01226377417062141,-0.04128195109364307,-0.3036509578655312,0.9518095902775615
0.0,37,0.0,2.5585476839531833,-24.324138359040177,2.622216407021321,0.012385829889231688,-0.041253069342907886,-0.3036806417140533,0.9517997916242076
0.0,38,0.0,2.5593162732890518,-24.3441082670424,2.623926085525424,0.012489549485865468,-0.041229083045438916,-0.30370601209738235,0.9517913805455359
0.0,39,0.0,2.558154375820447,-24.362400052275518,2.6196872250384975,0.012521822125680364,-0.041217693251613834,-0.3037220340914064,0.9517863372317589
0.0,40,0.0,2.557194273662667,-24.37822874310133,2.6152998767617466,0.012467245370816183,-0.04121303184202783,-0.30373656972527013,0.9517826169933857
0.0,41,0.0,2.563430654347718,-24.395748910872335,2.609624010328342,0.012235181714137072,-0.04127248538872731,-0.303639366654928,0.9518140665569372
0.0,42,0.0,2.5689010300375488,-24.41087964838116,2.6039940692036385,0.012287192062753407,-0.041276600265981095,-0.3036462668585631,0.9518110168539518
0.0,43,0.0,2.5737097160966576,-24.423936230179223,2.5984248059783974,0.012437141666978563,-0.04124586775598632,-0.30368469278278587,0.9517981420814164
0.0,44,0.0,2.577942493301977,-24.435194388976996,2.592911382354031,0.01250930997719083,-0.04123497915617579,-0.3037061535695476,0.9517908204757359
0.0,45,0.0,2.577957537043552,-24.419022693177112,2.5358418147332378,0.01252458773101893,-0.041225916641514475,-0.3037260995454316,0.951784647362077
0.0,46,0.0,2.578017243748836,-24.404898045015237,2.4855878761916808,0.012462528083930495,-0.041237714511501586,-0.3037324763281987,0.9517829159630704
0.0,47,0.0,2.578116934470616,-24.392550330163076,2.441270336521362,0.012370090018283842,-0.041258078128371733,-0.30370837494103997,0.9517909302219504
0.0,48,0.0,2.5799524211138842,-24.381730278170878,2.404560759118662,0.012226283637221677,-0.041302562632829325,-0.3036115853916634,0.9518217383125603
0.0,49,0.0,2.5815950019332825,-24.372231839831272,2.372015702779325,0.012283747629058428,-0.041301189552921905,-0.3036042952327723,0.9518233834078205
0.0,50,0.0,2.583072565374165,-24.363881870704063,2.343098204896802,0.012419755484764119,-0.04127721150425082,-0.303649072812896,0.9518083746553192
0.0,51,0.0,2.58440342937922,-24.356533861908915,2.317335752862818,0.012500910578066548,-0.041261779549210835,-0.3036876809587958,0.9517956635838493
0.0,52,0.0,2.5832530441830293,-24.350069897130915,2.293793073860081,0.012535079578971355,-0.04125162344784087,-0.30373404629958894,0.9517808594741467
0.0,53,0.0,2.582295302562614,-24.344378120202393,2.2727169632490316,0.012483746859277077,-0.041253564042966324,-0.30374581614722135,0.9517776939449488
0.0,54,0.0,2.5815040516525403,-24.33935715965874,2.2537861862455366,0.01235118832998464,-0.04127812225577485,-0.3037080349039177,0.9517904151149429
0.0,55,0.0,2.5808601216692764,-24.33490942629522,2.2367382972679395,0.012259649954982212,-0.04129957750205945,-0.3036543704837153,0.9518077900328781
0.0,56,0.0,2.573593810224777,-24.32823484335509,2.2202328288751842,0.012249599027074143,-0.04131370720847947,-0.3036313905446022,0.9518146372042822
0.0,57,0.0,2.5673243145932756,-24.322330258518903,2.2053037447987025,0.01230972402816778,-0.041305860901299896,-0.3036422323713079,0.9518107434096978
0.0,58,0.0,2.561924521669515,-24.317102127213197,2.1917466015745273,0.012447228564698232,-0.04128404304164226,-0.3036830403177498,0.9517968823832961
0.0,59,0.0,2.5572804590776705,-24.31246694482143,2.1793924381029437,0.012512728523013819,-0.041265357124544794,-0.3037110853252376,0.9517878852858233
0.0,60,0.0,2.553288470455703,-24.308353769153868,2.1680855202378795,0.012539286276388426,-0.041254762921898454,-0.3037231591155735,0.9517841422574725
0.0,61,0.0,2.5497970986355805,-24.30851542322148,2.1662705215747766,0.01250314497504842,-0.04125408360852272,-0.30372651712942755,0.9517835755799643
0.0,62,0.0,2.546797344098952,-24.308573690968032,2.1641268578031503,0.01234959951013129,-0.041283437687664494,-0.3036817427590924,0.9517985943882394
0.0,63,0.0,2.5442295015058187,-24.308536223261264,2.161712360725507,0.012262230225187534,-0.04130294373418041,-0.3036372832384212,0.9518130618857815
0.0,64,0.0,2.5431574670536974,-24.307765759583198,2.1626014650822967,0.012426432282189738,-0.04128026300320841,-0.30364722864728527,0.9518087434994204
0.0,65,0.0,2.5422648361792155,-24.307009482667,2.1628296508035803,0.012531644555063302,-0.04123809525053471,-0.30372616382938805,0.9517840063745225
0.0,66,0.0,2.538501217493681,-24.305960523055234,2.1626139046781057,0.012470554878749408,-0.04123595899301962,-0.3037231117202024,0.951785875264988
0.0,67,0.0,2.5515823427631212,-24.325005344996683,2.2015792564630736,0.012215673741841843,-0.041283070427216025,-0.30362814213336903,0.9518174387537628
0.0,68,0.0,2.5629816821860576,-24.341440728847573,2.2348989169251476,0.012267754263600564,-0.04128065654963782,-0.30363103377135164,0.951815951185469
0.0,69,0.0,2.572920788763437,-24.355607838977484,2.263322149881166,0.012353505351947675,-0.04126049754562498,-0.30365039454739823,0.9518095398445092
0.0,70,0.0,2.5815972008850285,-24.367809411496815,2.2875007594853694,0.012440987353432801,-0.041234055708926604,-0.3036657149477985,0.9518046585558968
0.0,71,0.0,2.587836912799472,-24.378321757346846,2.30768943480527,0.0125085183128964,-0.04121589808796062,-0.30370504990892305,0.951792009513758
0.0,72,0.0,2.593286771881368,-24.387367153450974,2.3247176985338402,0.012442652095358928,-0.04121603494757705,-0.30372611295657514,0.9517861457177887
0.0,73,0.0,2.5980505049465554,-24.395139016801622,2.3390031477753,0.012317640685231668,-0.04123602800268943,-0.3037202352903809,0.9517887813993536
0.0,74,0.0,2.6022205585868443,-24.401792258823555,2.3509248562831053,0.01222219694392983,-0.041254264078283746,-0.30367363257738705,0.9518040914360882
0.0,75,0.0,2.610884892078316,-24.407463495824942,2.3576704980572085,0.012206837752044553,-0.04126814883899624,-0.30363495361553705,0.9518160263130625
0.0,76,0.0,2.6184457516512096,-24.412276593729196,2.363048580351512,0.012363016140894922,-0.04124423706547749,-0.3036445265177031,0.9518119931250217
0.0,77,0.0,2.6250474448938173,-24.416350251442978,2.3672399705644827,0.012474776711748035,-0.04122116635493579,-0.3036856836074336,0.9517984035299788
0.0,78,0.0,2.633116893372371,-24.41817106090317,2.369389288772224,0.012506773889457761,-0.041210041746251556,-0.30369995234370156,0.9517939125738216
0.0,79,0.0,2.640152247057506,-24.419669596152758,2.3707826693967218,0.01245344453116522,-0.04122192180167821,-0.3037199504771672,0.9517877161239436
0.0,80,0.0,2.6462860489161777,-24.42087976258231,2.3715312138948694,0.012367577677883365,-0.04123379853302876,-0.30371882172010356,0.9517886814907346
0.0,81,0.0,2.651635489717177,-24.42183429022792,2.371726682411566,0.012236723329997512,-0.04126911121035157,-0.3036710832004032,0.9518040745289686
0.0,82,0.0,2.6495465558818503,-24.401267224689626,2.3292602343575273,0.01238987632451512,-0.041254004477452796,-0.30368135998709717,0.9517994692558012
0.0,83,0.0,2.6477619483480574,-24.383301371197128,2.2919367233628614,0.012489677767891921,-0.041232337504453195,-0.3037250129760755,0.9517851747037541
0.0,84,0.0,2.6442361540166472,-24.368698639799717,2.2576203388872185,0.012513661321838065,-0.041228129025711865,-0.3037625147540194,0.951773073945505
0.0,85,0.0,2.6411923546460594,-24.35592187512004,2.2273922980827185,0.01231153948443026,-0.041269383894543855,-0.30374586265695513,0.9517792364131875
0.0,86,0.0,2.6385718620888565,-24.344728463951988,2.2007146779289566,0.012236141352592947,-0.0412784433968947,-0.30370997769193964,0.9517912672460754
0.0,87,0.0,2.63784144379596,-24.33570602706923,2.177120564335954,0.012225465199080493,-0.04128859717682009,-0.303688390798816,0.9517978519821643
0.0,88,0.0,2.637237730723465,-24.327763042951474,2.156227690891197,0.012384943527827322,-0.041266772442076126,-0.3037286665405052,0.9517838850219903
0.0,89,0.0,2.6367431898146316,-24.320762862756517,2.137686488029895,0.012472889310452342,-0.04125081042206508,-0.3037444405901472,0.9517783946288918
0.0,90,0.0,2.623979466850752,-24.31035715632985,2.112327165065616,0.012519549187963467,-0.04123404055155302,-0.3037918639294126,0.9517633730072912
0.0,91,0.0,2.612913516242518,-24.30123667175922,2.08990903840151,0.012463345345629196,-0.04122937585815323,-0.30380184541975463,0.9517611267060103
0.0,92,0.0,2.6033245194969283,-24.293227494857227,2.0700566786596397,0.01235358356695259,-0.041254049014701234,-0.30379061407195046,0.951765073542171
0.0,93,0.0,2.595014948745544,-24.28618065788882,2.0524367618704664,0.01226497397227948,-0.041270694135998036,-0.30377211069531757,0.951771403742886
0.0,94,0.0,2.5875216531268137,-24.279963040662565,2.0375106962224523,0.01221369948061872,-0.04128395810561433,-0.30373496384342674,0.9517833430393512
0.0,95,0.0,2.5810399034341325,-24.27445857362124,2.024179690555671,0.012400921703866589,-0.04125290143932528,-0.30376289654373767,0.9517733542955962
0.0,96,0.0,2.5754363428660305,-24.269578355967894,2.012239967161478,0.012482671699245659,-0.04122680699356945,-0.303794376721077,0.9517633686820566
0.0,97,0.0,2.5702606652426483,-24.26525662314956,2.003203453877385,0.012506134278625855,-0.041213298334373746,-0.3038423528787956,0.9517483308327283
0.0,98,0.0,2.565786690541036,-24.26142493041381,1.9950023831646937,0.012322466076213895,-0.04124917585856308,-0.30382711840413756,0.9517540356851807
0.0,99,0.0,2.5619176243062647,-24.25800677888391,1.9875364349602935,0.012237018314628324,-0.041260512415791824,-0.303791091076503,0.9517661469502378
0.0,100,0.0,2.5619568697363704,-24.25400656379933,1.9798991811527382,0.012382745021133843,-0.04123573882465426,-0.3037760676727285,0.9517701309552745
0.0,101,0.0,2.562015369226079,-24.250434974495796,1.9729324069280474,0.012461967625983745,-0.041216078681644876,-0.303802993453535,0.9517613542215658
0.0,102,0.0,2.562091875565058,-24.24724606155437,1.9665534614919506,0.012500416504097412,-0.041205074692985386,-0.30383405129828367,0.9517514122282359
0.0,103,0.0,2.568894804833341,-24.24806229909411,1.968983915322843,0.012483466917483563,-0.04120404131197902,-0.30385683919326967,0.9517444044010746
0.0,104,0.0,2.574820785343704,-24.24869357746642,1.970781802283455,0.012346621676636796,-0.041223038234562505,-0.3038225788172697,0.9517563042358635
0.0,105,0.0,2.5799818692678578,-24.249157938664943,1.9720223553539458,0.01225966303476564,-0.041245624261896874,-0.3037855315261678,0.9517682753574443
0.0,106,0.0,2.5844823251536537,-24.249467531365582,1.9727899700420282,0.012206945044518887,-0.041256966161635114,-0.3037344981036559,0.9517847487208113
0.0,107,0.0,2.6139557129434747,-24.24025355736127,2.014563010941859,0.01225710038457576,-0.0412499169725932,-0.30374518784345916,0.951780998287872
0.0,108,0.0,2.6395709084764656,-24.23215930722627,2.0505332591296925,0.012395111431494885,-0.04122820359371838,-0.30378939690622087,0.9517660420336451
0.0,109,0.0,2.661834162780763,-24.225037917275266,2.081463112531239,0.012473958034867255,-0.04120990773299264,-0.3038048846921061,0.9517608606749904
0.0,110,0.0,2.6786251806928636,-24.21945936022376,2.1129406998614253,0.012501778146865428,-0.041192357370531764,-0.30384526533366635,0.9517483648379644
0.0,111,0.0,2.693216821694206,-24.214543106631652,2.139975694955999,0.012450611563552491,-0.0411951261722236,-0.3038635408771586,0.9517430810764759
0.0,112,0.0,2.7058947426763122,-24.210193513870095,2.163157653775386,0.012303032058375454,-0.04123659518245197,-0.3038488713605522,0.9517478878320915
0.0,113,0.0,2.716911890400754,-24.206328938978103,2.1830008011286313,0.012209025693770264,-0.04126252454701385,-0.3037965781975051,0.951764667780383
0.0,114,0.0,2.726123105470917,-24.203026338030092,2.206396384589113,0.012242041825761042,-0.04125894765039508,-0.3037884972176483,0.951766978103864
0.0,115,0.0,2.7341325918264743,-24.200064138862174,2.22642736908153,0.01234955516966616,-0.0412489029616601,-0.3038093194163809,0.9517593781662077
0.0,116,0.0,2.7411000191823,-24.19740065817271,2.24354284493319,0.012439426554443446,-0.04123621297540103,-0.3038288850395961,0.9517525119599316
0.0,117,0.0,2.744588722417551,-24.19499622764777,2.2552453804265733,0.012513745028788024,-0.04121617047511882,-0.30389000636298086,0.9517328918921674
0.0,118,0.0,2.7476209846734627,-24.192838314111924,2.2651333448525195,0.012422628980095165,-0.041223504576275244,-0.3038722046999644,0.9517394518304134
0.0,119,0.0,2.7502585698840902,-24.190893280096837,2.273443679861489,0.012329792793070414,-0.04123908717143184,-0.30384514202069307,0.951748624148925
0.0,120,0.0,2.7525505613132846,-24.1891268882609,2.2803953515784356,0.012249964153585705,-0.04126197426478952,-0.30381434819113534,0.9517584933643637
0.0,121,0.0,2.7366387402891488,-24.19452696854814,2.234022037549385,0.012220642604739103,-0.0412752630870051,-0.3037679214124096,0.9517731129172592
0.0,122,0.0,2.7228275115751566,-24.199123862280608,2.1934914362352824,0.012267513766284533,-0.04126799669409894,-0.3037547609197645,0.951777025239329
0.0,123,0.0,2.710846001607491,-24.203028003848033,2.15804297198652,0.012387920059061357,-0.041247553750609456,-0.3037750395499607,0.9517698797990093
0.0,124,0.0,2.7004502082350674,-24.20633413727421,2.127014022346946,0.012467726635648737,-0.04122681773758636,-0.30380155589825836,0.9517612725497755
0.0,125,0.0,2.6898425968246684,-24.208520273487004,2.1000802848886297,0.012494564271785082,-0.04121272402292726,-0.3038463120403245,0.9517472437058917
0.0,126,0.0,2.68063788702301,-24.2103530104838,2.0764579506813883,0.012443590407971907,-0.041219862380135,-0.303875761903963,0.9517381999953598
0.0,127,0.0,2.6726527949429153,-24.211880233531886,2.055714665496121,0.012306234328112505,-0.04124463876316632,-0.30385703984505336,0.9517448900343828
0.0,128,0.0,2.6657233795145037,-24.213129748455252,2.0374805310332706,0.012221093333599619,-0.04125825330583586,-0.3038269888383871,0.9517549906700156
0.0,129,0.0,2.6597147828398406,-24.21413421835266,2.0214357568890122,0.012182750433318783,-0.0412739430437259,-0.30380725097911376,0.9517611026250319
0.0,130,0.0,2.654262035134966,-24.216399748801805,2.0105657818362412,0.012207537850411935,-0.041268904206879745,-0.30380318134044787,0.9517623025591092
0.0,131,0.0,2.649541332759295,-24.218279592965402,2.000915102995821,0.012369654759247232,-0.04124178694912876,-0.30385470312847346,0.9517449374896022
0.0,132,0.0,2.645456425556349,-24.2198284843437,1.9923309745012427,0.01245384621221855,-0.04122034693419157,-0.30387880370417797,0.9517370736566191
0.0,133,0.0,2.6399125767196283,-24.221104327869625,1.9858489769543182,0.01248839765655017,-0.04120160229449837,-0.3039074810643293,0.9517282757412812
0.0,134,0.0,2.6351058363020474,-24.22215454025664,1.980020238920691,0.012440236777154121,-0.04120389599071413,-0.303920049659096,0.9517247936663873
0.0,135,0.0,2.630938478836828,-24.22299905667351,1.9747634500886,0.012292093547081056,-0.041235100309293095,-0.3038928198306899,0.9517340621171778
0.0,136,0.0,2.624856480797725,-24.224214976078926,1.9703793186858967,0.01220063161005192,-0.0412666891722638,-0.3037963677470644,0.9517646620340376
0.0,137,0.0,2.6195917101415014,-24.225188787421118,1.966390707897105,0.012342235479963213,-0.04123995277762075,-0.30379297037589353,0.951765079559262
0.0,138,0.0,2.6150330645844915,-24.225955310710525,1.962735405661634,0.012450122651219747,-0.04121848384722297,-0.30380605298074015,0.9517604284732422
0.0,139,0.0,2.634345289123509,-24.22487956702789,1.9553285258785023,0.012483159588925472,-0.041197100470674757,-0.3038295631263233,0.9517534167051643
0.0,140,0.0,2.651116452706483,-24.22388421680254,1.9487151959623707,0.012430718829604085,-0.041196952609354444,-0.3038110070915036,0.9517600329364163
0.0,141,0.0,2.665680397899345,-24.222958024716654,1.9427945177874508,0.012344399942230938,-0.041211316701654316,-0.30378704140455964,0.9517681842972303
0.0,142,0.0,2.678330323380851,-24.22208765830525,1.9374807526700217,0.012254102549932866,-0.04122586308474165,-0.3037479915620727,0.9517811843095139
0.0,143,0.0,2.691722578401853,-24.221256864170613,1.9332240022360017,0.012186188729382883,-0.04124838333075099,-0.30371033017064153,0.9517930988531548
0.0,144,0.0,2.7033516302701375,-24.22045014042071,1.9293571624978694,0.01223414036536625,-0.04123918085632301,-0.3037209323752044,0.9517894993163963
0.0,145,0.0,2.7134529370021276,-24.21966902859711,1.9258346024243447,0.012372787211870797,-0.041214351571627374,-0.30375699151457164,0.9517772751369705
0.0,146,0.0,2.722228304891853,-24.21891618841932,1.922617454756769,0.01246619595984772,-0.04119699072207359,-0.30380052301483207,0.9517629138234219
0.0,147,0.0,2.733841022318098,-24.216612227340683,1.9193853526211049,0.012484743818952525,-0.04119060065727189,-0.30384104538089934,0.9517500116790705
0.0,148,0.0,2.74392031850543,-24.2145544796471,1.916421641367315,0.012424334284296899,-0.0412019210548122,-0.3038437219900845,0.9517494576968233
0.0,149,0.0,2.752670450644288,-24.21270778325519,1.9136972256071947,0.012283638464293558,-0.04123711389029932,-0.30380825737355155,0.9517610810574904
0.0,150,0.0,2.757699607236818,-24.213140480931678,1.9100144170611255,0.012374930068075825,-0.041244663867149416,-0.3037892347555941,0.9517656432415003
0.0,151,0.0,2.7620647243173155,-24.21344449031087,1.9066574895735138,0.012461550048150706,-0.04122443709060254,-0.3038191378928992,0.9517558442200267
0.0,152,0.0,2.7658512831040816,-24.213646345068277,1.9035981932504118,0.01250219191646837,-0.04120782563969099,-0.3038496228499319,0.95174629865174
0.0,153,0.0,2.769135937151222,-24.2154426220427,1.9045391686988498,0.012482517442787158,-0.04120664005580845,-0.3038661561943262,0.9517413297179476
0.0,154,0.0,2.7719827644473476,-24.216952132151278,1.9052104988802698,0.012305195554036471,-0.04123984374753986,-0.30381453991392543,0.9517586788608472
0.0,155,0.0,2.7744499741790616,-24.21819899855651,1.9056505669542179,0.012220901165760628,-0.041258278318105086,-0.30377086322563623,0.9517729071055103
0.0,156,0.0,2.776481456232045,-24.21767986935631,1.9072983442535207,0.012199171077084311,-0.04127941029624964,-0.30373312176323225,0.9517843144613108
0.0,157,0.0,2.7782439964892616,-24.217151181347838,1.908594432696007,0.012267264577480057,-0.04126892252300795,-0.3037318001152309,0.9517843158259846
0.0,158,0.0,2.7797758300821345,-24.216614065301506,1.9095864042883899,0.01236360982878263,-0.04125658474759073,-0.30375913406181126,0.9517748808625835
0.0,159,0.0,2.7811057462958177,-24.216077420098713,1.9103139974175347,0.01247446193898606,-0.041234122961235284,-0.30379562471781607,0.9517627610414594
0.0,160,0.0,2.78436008987602,-24.211296930925045,1.912084025084996,0.012507094536774791,-0.04121785085186873,-0.3038400000651493,0.95174887219151
0.0,161,0.0,2.7871801960295253,-24.207094860331054,1.9134930798975174,0.012440483887408227,-0.04122185291578393,-0.3038536874557456,0.9517452021535925
0.0,162,0.0,2.789621159127854,-24.203393752378105,1.9145971579009338,0.012300058503711797,-0.04124429961242793,-0.30383483837331665,0.9517520723912012
0.0,163,0.0,2.7703078438913673,-24.226214487476526,1.9649779925585302,0.01219836820022522,-0.041267284217085344,-0.30379925119868273,0.9517637448640907
0.0,164,0.0,2.7536706616759994,-24.24518943526398,2.0057720535382684,0.012507132749052923,-0.0412060529503588,-0.30385895502305094,0.9517433310945496
0.0,165,0.0,2.739221668418007,-24.26161308818314,2.0410599225223844,0.012454568330022356,-0.04121293101591328,-0.303853748315982,0.9517453849003515
0.0,166,0.0,2.726672543085397,-24.27581683461692,2.071564521167094,0.012320305099584863,-0.04124153364857615,-0.30381670295343377,0.951757719690821
0.0,167,0.0,2.7157714310568073,-24.28808891147608,2.0979231733194,0.012234392834183053,-0.041263920778892356,-0.3037761878741787,0.9517707897149207
0.0,168,0.0,2.7063078639863396,-24.298674747786144,2.1206815684332634,0.012202587467966229,-0.041277898268019905,-0.3037502589428316,0.9517788672616263
0.0,169,0.0,2.6980968237533256,-24.307789598124295,2.140319345178268,0.012229977146800535,-0.04127854529810906,-0.30373392104822544,0.951783701563402
0.0,170,0.0,2.696478535786391,-24.319682776216844,2.156718382770306,0.01231858808470146,-0.04127221629146698,-0.30381009532011705,0.9517585211236993
0.0,171,0.0,2.699918497131918,-24.305061470006216,2.1265459132442244,0.012246662259573465,-0.04129505678384093,-0.3037779142339711,0.9517687305077728
0.0,172,0.0,2.7029019351796952,-24.292302077853137,2.1002341074736277,0.012224068346930628,-0.04131545323806923,-0.3037551810707961,0.9517753912816985
0.0,173,0.0,2.694930826248496,-24.286968617003353,2.0708883219452283,0.01253782650606061,-0.0412915488866205,-0.303843431890802,0.9517441777042123
0.0,174,0.0,2.688009104480261,-24.28228952970872,2.0452956668941744,0.012343507679504552,-0.04133454911354124,-0.3038498931282224,0.9517427884222259
0.0,175,0.0,2.676427456793941,-24.273505471222222,2.027588452974073,0.012237497093162623,-0.041367979274333236,-0.30378965583741546,0.9517619339739523
0.0,176,0.0,2.666377033823079,-24.265805548569347,2.012111957127197,0.012302190587598997,-0.0413654283834245,-0.3037711578916816,0.9517671149365002
0.0,177,0.0,2.6576601810020057,-24.25905475398431,1.998578542870868,0.01244348931662916,-0.04133753079935844,-0.3037941436687665,0.9517591535643878
0.0,178,0.0,2.6501003980614084,-24.253145147887814,1.9867300253773759,0.012533592862643547,-0.04131702291200987,-0.30384832308162796,0.9517415664076696
0.0,179,0.0,2.668844085932736,-24.244952074160636,1.9692704968923427,0.01249669999048603,-0.04131892151596035,-0.3038590125985852,0.9517385563676185
0.0,180,0.0,2.685118982800402,-24.237798583549136,1.954021735576394,0.012370144778011925,-0.04134401683361941,-0.3038422492748455,0.9517444716654966
0.0,181,0.0,2.6992446247905106,-24.23153914722416,1.9406895572123184,0.012283513535925902,-0.04136823248499105,-0.30381492984967623,0.9517532626877183
0.0,182,0.0,2.7153777219452637,-24.22604428882355,1.9315433532482018,0.012238913364047529,-0.041385271732865415,-0.30372179591738296,0.9517828213242683
0.0,183,0.0,2.729383683915908,-24.22120978606379,1.9235167645837907,0.012432624789789232,-0.04134810411184876,-0.30373761555904366,0.9517768777511348
0.0,184,0.0,2.7414802793618898,-24.211708293554665,1.9179221607919739,0.01251796178754089,-0.04130854495269914,-0.30380767860770463,0.9517551151244601
0.0,185,0.0,2.7519782885598465,-24.203421550354776,1.9129833169458585,0.01236903849158849,-0.041322630360508754,-0.3037958799280143,0.9517602168853486
0.0,186,0.0,2.761081058802233,-24.19618390159517,1.9086105761582535,0.012282376896008706,-0.04134101721502686,-0.3037677652627854,0.9517695142736315
0.0,187,0.0,2.7711140764934563,-24.192497691717314,1.9007071523975054,0.012242320591346932,-0.04134748390877967,-0.3037371552656936,0.9517795184138267
0.0,188,0.0,2.779818134974497,-24.189239128264916,1.8937645510161514,0.012292373289383342,-0.04133132631295988,-0.3037411413379327,0.9517783030111877
0.0,189,0.0,2.7873705829466076,-24.186352783606957,1.8876603774972942,0.01242624744693177,-0.04131128142340725,-0.30377103965794977,0.9517678928534373
0.0,190,0.0,2.793923499013767,-24.183796804100098,1.8822818312593608,0.012503568071057002,-0.04129725010566268,-0.30381024571999776,0.9517549750407178
0.0,191,0.0,2.7996063392122337,-24.18153384858492,1.8775345503688827,0.012530431999972261,-0.04128878908907903,-0.3038270751441275,0.9517496165372574
0.0,192,0.0,2.792382652731792,-24.20482752393555,1.9233545354797918,0.01250099525260893,-0.04128680579817899,-0.3038247399921511,0.9517508351209257
0.0,193,0.0,2.7861016130933507,-24.22500991227964,1.9630534666104804,0.012421570651209166,-0.041294865087190616,-0.30381652548754257,0.9517541476351259
0.0,194,0.0,2.7790623163349872,-24.242473031620754,1.9972108905678896,0.012232416686826023,-0.041348552321613004,-0.3036847871116984,0.9517963097637169
0.0,195,0.0,2.7729480557713404,-24.25756697828716,2.02678506922116,0.01229644359294875,-0.04134645614218765,-0.3036700732768054,0.9518002703485154
0.0,196,0.0,2.767638413909214,-24.27060913223579,2.0523757287989564,0.012431596723498615,-0.04132732544992116,-0.3036949186623867,0.9517914183016712
0.0,197,0.0,2.7630251792636598,-24.28188817983696,2.0745086534342874,0.012522292617414013,-0.04130218340356388,-0.30374355558405924,0.9517758004251083
0.0,198,0.0,2.7585428942626584,-24.29117010247989,2.0936236304133664,0.012481879544055746,-0.041294586892116916,-0.3037552631522874,0.9517729245380653
0.0,199,0.0,2.754645785925787,-24.299187632664243,2.1101320874922065,0.012337478265872752,-0.04133510719639721,-0.3037391102502788,0.9517782033895662
0.0,200,0.0,2.739795876336863,-24.30644112123921,2.1247724406648327,0.012234764014827905,-0.04137602022231124,-0.30368870102582407,0.9517938371145885
0.0,201,0.0,2.7269026533401064,-24.312677082364594,2.1373985344007065,0.012288255306157455,-0.04137695103517546,-0.3036825282042836,0.9517950770875093
0.0,202,0.0,2.7157098601437837,-24.318025061053696,2.1482805364974094,0.012371891853942399,-0.04135818321504331,-0.30369886128580986,0.9517895978769718
0.0,203,0.0,2.705997124916474,-24.322608221385458,2.1576441027270983,0.012459512581132138,-0.041343244929121455,-0.30370029273653926,0.951788647146367
0.0,204,0.0,2.6975645122606347,-24.326535907341373,2.1656897863351854,0.012526792311659388,-0.04132411947906679,-0.30373504364035814,0.951777505454111
0.0,205,0.0,2.6903754694989273,-24.329901232413192,2.1727460938461216,0.012515380577846257,-0.041316183823640704,-0.303751965571898,0.9517725997392713
0.0,206,0.0,2.6841369174452354,-24.332787236223638,2.1788002029480364,0.012455721681621155,-0.04132588741939241,-0.30377481818091295,0.9517656675177683
0.0,207,0.0,2.67872024218338,-24.335249641662877,2.183981114225446,0.01233270798922796,-0.04135764938906508,-0.30375589478100656,0.9517719293698746
0.0,208,0.0,2.66837034561724,-24.337325970837476,2.191252690147376,0.01224756800353875,-0.04138173910413085,-0.30366924422840813,0.9517996316748939
0.0,209,0.0,2.6593891337552593,-24.33906985775363,2.197487041304103,0.012300762881073485,-0.0413791747409498,-0.3036604425376107,0.9518018652892859
0.0,210,0.0,2.651599248348254,-24.340526100991944,2.2028205603093487,0.012427037318632969,-0.041353522855484555,-0.30369668555848767,0.9517897761962519
0.0,211,0.0,2.6448452227426564,-24.34173623128273,2.207371601992784,0.012501818086111458,-0.041339970986843264,-0.3037275363775983,0.9517795411697728
0.0,212,0.0,2.6415551936748343,-24.341952057835805,2.2156093916094046,0.012528740475728837,-0.041325452596214646,-0.30379252837364473,0.9517590752570516
0.0,213,0.0,2.6386996599918593,-24.34210379365158,2.222678753912265,0.012474194198684426,-0.04132507070208758,-0.3038018722279617,0.9517568257918334
0.0,214,0.0,2.6368461724375827,-24.318902632260716,2.1840098164339983,0.012327156951178853,-0.041358378352305256,-0.30377123420931645,0.9517670739253997
0.0,215,0.0,2.635242300453789,-24.298720876537715,2.150380654528543,0.01225762577260973,-0.041367547736207155,-0.3037428134071992,0.9517766439181993
0.0,216,0.0,2.633848828041976,-24.28115253306187,2.1211175279751413,0.01223753553080842,-0.04137774841898213,-0.303722375168648,0.9517829812944875
0.0,217,0.0,2.6326424478934225,-24.26585079410313,2.095654075612962,0.012267185014831969,-0.04136908677917215,-0.30371584596367307,0.9517850596334446
0.0,218,0.0,2.631600697807285,-24.25251602511154,2.0734855657256945,0.012433385090238629,-0.04133641218881426,-0.3037466014442968,0.951774507997348
0.0,219,0.0,2.6307029584211628,-24.240899194024372,2.0541854430831936,0.012506993341932914,-0.04131918724971771,-0.3037815356666184,0.9517631420004657
0.0,220,0.0,2.618759296527746,-24.236866307585785,2.036334463644385,0.012529082940266,-0.041302865297490714,-0.3038027442131203,0.9517567903658322
0.0,221,0.0,2.6083950263864133,-24.23333761752739,2.02078606669048,0.012496704501801481,-0.041297001428602334,-0.30381460360767004,0.9517536848808703
0.0,222,0.0,2.599402157236113,-24.23024568367739,2.0072435832554807,0.012382649108949647,-0.04131984847094597,-0.3037993734318258,0.9517590455707856
0.0,223,0.0,2.5949010822430827,-24.230505544961396,1.9898197214371152,0.012249356052284725,-0.04135318130402526,-0.3036981569469891,0.9517916248524898
0.0,224,0.0,2.5909965256334866,-24.230683564665355,1.9746391197525281,0.012291265603131799,-0.04134104816389081,-0.3037083800930714,0.9517883495755907
0.0,225,0.0,2.5876168481034996,-24.230790565954834,1.961413582081212,0.012415999677208937,-0.04131922914324114,-0.3037252458086037,0.9517822961757205
0.0,226,0.0,2.5846911982817056,-24.230842536182678,1.9498869505451082,0.012493196459047423,-0.04130462419603734,-0.30375968398943004,0.9517709296069624
0.0,227,0.0,2.5915024341381976,-24.227841708496776,1.9326029554972948,0.012512320675414896,-0.04129431404251023,-0.30379474218439223,0.9517599361604757
0.0,228,0.0,2.597419865155664,-24.225213640797932,1.917554118730481,0.012455123790026529,-0.04131023380829272,-0.30379022640685394,0.9517614369230094
0.0,229,0.0,2.6025551535434857,-24.22290447797201,1.9044468162947887,0.012387811083392061,-0.041319620073186084,-0.3037985304743448,0.9517592573835036
0.0,230,0.0,2.6070127975359076,-24.220869674115896,1.8930305002021028,0.01229079928312922,-0.04135253415003069,-0.3037670974000653,0.9517691183840185
0.0,231,0.0,2.6125566034176337,-24.219057322501058,1.8830858486646536,0.012246446007158001,-0.04137306059221278,-0.303721262119596,0.9517834256562292
0.0,232,0.0,2.6173775785346485,-24.21744080895605,1.8744232034045711,0.012302439639307914,-0.04136979945552227,-0.3037402028738097,0.9517768009518345
0.0,233,0.0,2.6215708311714843,-24.215992590063607,1.866873350814775,0.012385352684900323,-0.041359094223913255,-0.3037556521194685,0.9517712604241234
0.0,234,0.0,2.6252177115887685,-24.214696881010802,1.8602851627585415,0.012469492940398124,-0.041348584924185056,-0.3038005325300691,0.9517562937564548
0.0,235,0.0,2.64862026088933,-24.20053700010397,1.9070959843271353,0.012530047769801107,-0.04133869506991585,-0.3038525433917785,0.9517393246404975
0.0,236,0.0,2.668936927791427,-24.188231942648734,1.9476992387887337,0.012477573589369646,-0.04134876910329032,-0.3038411353407604,0.9517432184816462
0.0,237,0.0,2.6865687671730103,-24.17753647443299,1.9829085400082014,0.012352205610399734,-0.04138188801826039,-0.3038034756261096,0.9517554363165458
0.0,238,0.0,2.702797644390315,-24.16749658969507,2.0122141967000724,0.012248138259051144,-0.041415778625134306,-0.30373142567483863,0.9517783026774623
0.0,239,0.0,2.716882581106685,-24.15874674019065,2.0376124981529755,0.012281478405167743,-0.04141557282707362,-0.3037363364051887,0.9517763148779983
0.0,240,0.0,2.729112483489076,-24.15111718380252,2.0596264973361618,0.012402334748341412,-0.04139763344671068,-0.3037645710630084,0.9517665172744356
0.0,241,0.0,2.7397259842660087,-24.14446633905812,2.0786894293661655,0.012504736640054017,-0.04138165256160714,-0.3037817416760313,0.9517603920194989
0.0,242,0.0,2.7489334027415357,-24.13867130555689,2.09519275565082,0.012531340515757328,-0.04137274817893184,-0.30380059965032435,0.9517544099530635
0.0,243,0.0,2.7569236754662136,-24.13635310061086,2.117488100246616,0.012502940126635399,-0.041371869975262994,-0.3038083553387105,0.9517523459857231
0.0,244,0.0,2.763852308919089,-24.134328619925604,2.1367910426292527,0.012348637224448372,-0.041406863843642006,-0.30378554549894715,0.9517601195318283
0.0,245,0.0,2.7698557858661745,-24.132552145955465,2.1535035338202646,0.012264146250446516,-0.04142652750516641,-0.3037443404773023,0.9517735072818637
0.0,246,0.0,2.7733081258878665,-24.13201897806973,2.1681147656838617,0.012226877630361885,-0.04144700953973571,-0.30367839078828185,0.9517941394187426
0.0,247,0.0,2.7763026622376548,-24.13152229411616,2.1807512039779877,0.012424743998393656,-0.04141147584854094,-0.3036488131537066,0.9518025602376605
0.0,248,0.0,2.7757887219995077,-24.129847689243164,2.1885707892500412,0.012515539217008636,-0.041386987728226986,-0.3036832192434036,0.9517914587108113
0.0,249,0.0,2.775331744299661,-24.128378541623377,2.1953147224787095,0.012366272633862392,-0.04141786424389336,-0.3036892216019556,0.9517901515068423
0.0,250,0.0,2.774922599884489,-24.127084755784388,2.2011238967257905,0.012257405848394246,-0.04143754176615781,-0.30367727483027934,0.9517945150534861
0.0,251,0.0,2.775032004859407,-24.153126576003196,2.2099421205169736,0.01222664340318715,-0.041455430843695,-0.30365793484144293,0.9518003020867796
0.0,252,0.0,2.7751169939585387,-24.17569578179385,2.217541046662569,0.012279748671768667,-0.04145124844509632,-0.30366300931058193,0.9517981816285123
0.0,253,0.0,2.775183800517121,-24.195244342758784,2.2240894894065346,0.012370716055347425,-0.04143615196667179,-0.3036917568066183,0.9517884888682898
0.0,254,0.0,2.775237873669043,-24.21217648310308,2.229729050666368,0.012461453750691088,-0.04142404807882574,-0.30371270475591927,0.9517811478386332
0.0,255,0.0,2.7771701320013515,-24.22581879557635,2.234573927538104,0.01251940604227718,-0.04141304232227461,-0.3037271472346881,0.9517762575472454
0.0,256,0.0,2.7400328057627252,-24.260263987350747,2.2373846249267477,0.01222941755292926,-0.041507531868659395,-0.30362872210970043,0.951807315192796
0.0,257,0.0,2.7077934787113223,-24.290124781359985,2.2397828719350064,0.012267777419743355,-0.04150846134445863,-0.3036097219699862,0.9518128418966109
0.0,258,0.0,2.679811735274285,-24.316005428708102,2.241815750519165,0.01242377841301513,-0.04148954740794608,-0.30362637679816656,0.9518063303520553
0.0,259,0.0,2.6555265651502196,-24.338433745329972,2.2435344748549313,0.012503921356429696,-0.04146353319259322,-0.3036487247735924,0.9517992852010713
0.0,260,0.0,2.6380872291107487,-24.360707510220863,2.2437683273471674,0.012543974477225522,-0.04144997970438884,-0.3036941966473433,0.9517848406071329
0.0,261,0.0,2.622950768522358,-24.380016386974425,2.243931605556838,0.012494943038441737,-0.041457459110769826,-0.30366697746457133,0.9517938444222449
0.0,262,0.0,2.609814062751664,-24.396751675192085,2.2440324696804,0.012354311024831,-0.041485002419711675,-0.3036317104311403,0.9518057312256523
0.0,263,0.0,2.598414375857427,-24.41124114786693,2.2440783676579943,0.01226342188577256,-0.04150380561708077,-0.3035973902853627,0.9518170345265251
0.0,264,0.0,2.5885231953226535,-24.423774881827136,2.2440779121469867,0.01222455855564738,-0.04152087431825189,-0.30357330577595837,0.9518244718351299
0.0,265,0.0,2.574149218596146,-24.434506720704093,2.2438703484765763,0.01224962967629912,-0.041516657009487354,-0.3035734527386438,0.9518242865970004
0.0,266,0.0,2.5616837235969383,-24.443774558919728,2.243650234383149,0.012425210724902627,-0.04149526179539761,-0.3036266733019776,0.9518059679611951
0.0,267,0.0,2.5508746589252316,-24.45177602666653,2.24342116394462,0.012525592611628783,-0.04147715388407834,-0.303661964551033,0.9517941828569931
0.0,268,0.0,2.5832982370157427,-24.43395674412377,2.256580206890776,0.01253564186140783,-0.041457734870457015,-0.30370131038594284,0.9517823427509015
0.0,269,0.0,2.6114465382440577,-24.4184586295927,2.2679634153445867,0.012324594097516527,-0.04149704531363549,-0.3036494655231707,0.9517999273471617
0.0,270,0.0,2.6309208566454148,-24.403004452157354,2.2731270020320498,0.01223047293960922,-0.041518607829045255,-0.3036015175130448,0.9518154964589449
0.0,271,0.0,2.6478340326823195,-24.389544620892437,2.2775707370618203,0.012409791707207634,-0.041479775624536544,-0.3036339142429933,0.9518045342429298
0.0,272,0.0,2.6625203461513083,-24.37782518868351,2.2813855537489762,0.012483555346877668,-0.04145317738910862,-0.30366607340926155,0.9517944687748766
0.0,273,0.0,2.6761113778572714,-24.33987935150413,2.2767235294755697,0.012510918968158409,-0.041438493732009495,-0.3037012208755127,0.9517835345195448
0.0,274,0.0,2.687906660327208,-24.306921150413878,2.2726336604462496,0.012460181414930162,-0.0414450842953871,-0.3037149660952586,0.9517795271157136
0.0,275,0.0,2.6981381909845825,-24.27829607750371,2.2690409726657608,0.012371643326700458,-0.04145891924327508,-0.3036877185529329,0.9517887738656573
0.0,276,0.0,2.706326828643555,-24.255317229132167,2.2689380805332413,0.012429447312654131,-0.04148011787889034,-0.30363712690316114,0.9518032379784431
0.0,277,0.0,2.71343268682362,-24.23535464787983,2.268812777462405,0.012538885245482825,-0.04143739714778015,-0.3036857435845575,0.9517881526988619
0.0,278,0.0,2.7184609504755968,-24.216249210286584,2.2640424052135835,0.01249212356942848,-0.041435866148820756,-0.30369385051441783,0.9517862475393042
0.0,279,0.0,2.722821674922349,-24.199659260648986,2.2598627428954727,0.012326349296563344,-0.0414687686130563,-0.3036732920491981,0.9517935354049943
0.0,281,0.0,2.7253283681833693,-24.171357573393948,2.256462815478914,0.012414508902690288,-0.04148186566887733,-0.3036775161849086,0.9517904711401028
0.0,282,0.0,2.7263381059973932,-24.159911685630682,2.2550371789488706,0.012487329118509104,-0.04147361450594639,-0.3037072018943926,0.951780406096268
0.0,283,0.0,2.7323751628938573,-24.17501531325781,2.2557726001951086,0.012510805463956318,-0.04146537272824919,-0.30373249354778237,0.9517723861167631
0.0,284,0.0,2.7376072956040325,-24.188122350262404,2.2563771907825583,0.01246895175949671,-0.04146414624401877,-0.3037259579977503,0.9517750744039386
0.0,285,0.0,2.742143268933344,-24.19949358627629,2.256871685191557,0.012347210841323628,-0.04148703716568938,-0.3036744523584239,0.9517920986835643
0.0,286,0.0,2.7460742348032023,-24.209349186467392,2.257271599473617,0.01224506251050598,-0.04151095372580918,-0.30365195304632653,0.9517995537801219
0.0,287,0.0,2.721281882862197,-24.22828304864764,2.2521004917588177,0.012230587940305597,-0.041516113405474356,-0.3035856737991716,0.9518206573248141
0.0,288,0.0,2.6997632036571866,-24.244685593470862,2.247579009229912,0.012408492829752696,-0.04147670332138149,-0.30363150802353145,0.9518054526649027
0.0,289,0.0,2.681088132725794,-24.25889976697014,2.2436193192859344,0.012487521172384762,-0.04145329371672697,-0.3036583607878643,0.9517968723307674
0.0,290,0.0,2.67075664071572,-24.27363103646907,2.2403750149261947,0.012518748687817655,-0.041437742166493034,-0.30369839906662105,0.9517843646855131
0.0,291,0.0,2.6617850857943317,-24.28640710949528,2.2375275856248207,0.012326926320897233,-0.04147329723483033,-0.30366022888574606,0.9517974983666467
0.0,292,0.0,2.6580310555956435,-24.299432144463424,2.2381247408417275,0.012221222480010126,-0.041502076238044396,-0.30360611618908995,0.9518148693950954
0.0,293,0.0,2.654775273464494,-24.310701429179296,2.2386155513984933,0.0122858901509534,-0.04149127841095169,-0.30362305954269125,0.9518091029365915
0.0,294,0.0,2.651956048708006,-24.320448774715693,2.2390165922663416,0.012377732610896936,-0.041471463896467435,-0.3036498540491412,0.9518002288052008
0.0,295,0.0,2.649515815254344,-24.328878980797093,2.239335443877688,0.012469803562985944,-0.04144539939778921,-0.30367290117808987,0.9517928093644857
0.0,296,0.0,2.6474008131414117,-24.336176210897236,2.239584556050137,0.01253962689247105,-0.04141552700710814,-0.3037114109942768,0.9517809047842821
0.0,297,0.0,2.6453882038082424,-24.342495569574588,2.2397704922702593,0.012498096275991653,-0.0414152769177005,-0.3037195433983998,0.9517788668515255
0.0,298,0.0,2.643641115006864,-24.34796562882005,2.2399058653278185,0.012332186753809853,-0.041427741747962765,-0.30369567180622964,0.951788105782845
0.0,299,0.0,2.643416162298228,-24.346946529458215,2.2411744182692845,0.01251410555040724,-0.041376101235896495,-0.3037274371236595,0.951777841382685
0.0,300,0.0,2.6432181019140786,-24.3460451776782,2.2422480083547947,0.012303219925137237,-0.04140735415095578,-0.30371085038742063,0.9517845245425252
0.0,301,0.0,2.643046622973569,-24.345238533059074,2.2431515733693477,0.01223025712329475,-0.04141166304890672,-0.30368333110410817,0.951794058283479
0.0,302,0.0,2.638084234237878,-24.342836682578977,2.2410998094239987,0.012411875344270181,-0.041374104940046445,-0.30367284264489286,0.9517966870245023
0.0,303,0.0,2.6337817280309124,-24.34072164349977,2.239294075625291,0.012471819861576042,-0.04135794816166073,-0.3037011832226188,0.9517875630319925
0.0,304,0.0,2.63005253100671,-24.338870053515834,2.237697487102996,0.01252557455743021,-0.04134610378897418,-0.3037469448471988,0.9517727686687986
0.0,305,0.0,2.628356982590454,-24.337253525278662,2.2304498614175046,0.012474827957610825,-0.04135311993432794,-0.3037327420357218,0.9517776628785669
0.0,306,0.0,2.626886777122475,-24.335839273649846,2.2241365823164467,0.01234538747490742,-0.0413868721094066,-0.303712811959955,0.9517842434483097
0.0,307,0.0,2.6256085937978226,-24.334589386438296,2.2186335822987635,0.012263415260329973,-0.041417575964026204,-0.3036813109956363,0.9517940188924221
0.0,308,0.0,2.625914528246575,-24.334768007004016,2.213480421878137,0.012238316456038227,-0.04144522678721065,-0.3036441328000982,0.9518049996732286
0.0,309,0.0,2.6261885449392346,-24.33488970991673,2.208989020827704,0.012415318476190556,-0.04143505824669585,-0.3036858670531254,0.9517898349779846
0.0,310,0.0,2.626433390455609,-24.334966445313846,2.2050675103269755,0.0124984179308278,-0.04141497696341561,-0.3037189629926973,0.9517790608912273
0.0,311,0.0,2.6299162901661703,-24.337880328708977,2.2088611117165997,0.012538058428104182,-0.04140177657386719,-0.30377277113663326,0.9517619416132123
0.0,312,0.0,2.6329397154361662,-24.34039932205821,2.2121334225842726,0.012481083254003088,-0.041415342138235806,-0.303789654803568,0.9517567113662548
0.0,313,0.0,2.635564406111954,-24.342575573703684,2.214957257013702,0.012388557424856157,-0.04142993392701191,-0.30374432172045185,0.9517717537531344
0.0,314,0.0,2.637840993327208,-24.344444504510463,2.2173834728997854,0.01230295257435378,-0.041453051489275326,-0.3037055372509662,0.9517842342271082
0.0,315,0.0,2.6393543591515076,-24.346187137114512,2.2197024321397016,0.01225979641667988,-0.04146940686047786,-0.30366105224883116,0.9517982722371345
0.0,316,0.0,2.6406699613582654,-24.347668169838144,2.221690991324776,0.012295455989177865,-0.041463909462794754,-0.3036413041121297,0.9518043519606141
0.0,317,0.0,2.6418186681807043,-24.34891816081344,2.2234025339678496,0.012429993311190027,-0.04143782236374683,-0.30365892540041195,0.9517981189142483
0.0,318,0.0,2.642821196818157,-24.34997398694079,2.2248663712188885,0.012511315304256209,-0.04142294302179565,-0.3036754021779785,0.9517924442297352
0.0,319,0.0,2.6409844415094015,-24.35087439115624,2.227930571842945,0.012565090789305941,-0.041404219681166435,-0.3037117905756319,0.9517809397920268
0.0,320,0.0,2.6393908880965657,-24.351647331111806,2.2305713605159254,0.01249717613000512,-0.041406637972002946,-0.3037097384514752,0.9517823835784982
0.0,321,0.0,2.638005824696006,-24.352308482545055,2.2328393906818143,0.012358926285192438,-0.04142148869411916,-0.30369801140220276,0.9517872845787485
0.0,322,0.0,2.6361128879751243,-24.351450561618215,2.235003234411325,0.012248338604081713,-0.0414292608244157,-0.30361129526326813,0.9518160410171406
0.0,323,0.0,2.6344737810244805,-24.35067641168596,2.2368578823142458,0.012438827322487122,-0.04137448264091976,-0.30364281252083064,0.9518058994172485
0.0,324,0.0,2.6330556397076577,-24.34997924471888,2.238448858775952,0.012517221402780861,-0.04135366264750755,-0.3036772116518357,0.9517948018755703
0.0,325,0.0,2.6318295595272025,-24.34935963844933,2.2398121409344878,0.012542664581585,-0.04133215034638857,-0.30370776820779893,0.951785651522009
0.0,326,0.0,2.6366837981824287,-24.323683694950873,2.192870034359523,0.012504047099074354,-0.041323790156558605,-0.3037152140940564,0.9517841466955848
0.0,327,0.0,2.640896866905006,-24.30138597996217,2.1521078451323685,0.01236930779631684,-0.04134973980575199,-0.3036653197084329,0.9518007001725791
0.0,328,0.0,2.6445498159590617,-24.282018037252044,2.1167117611170814,0.012277195187519095,-0.041372198467918106,-0.3036478747320356,0.9518064823497352
0.0,329,0.0,2.6455269475585173,-24.265186407895236,2.0857940832040107,0.012218427366897402,-0.04137608247246433,-0.3036049783802213,0.951820753574252
0.0,330,0.0,2.646374059465585,-24.250551537239517,2.0589476531676194,0.012274373858468928,-0.04136295110793048,-0.30361794446914075,0.9518164685580719
0.0,331,0.0,2.647114984041816,-24.237824053675844,2.0356392678209323,0.012404622868391738,-0.04132816377109932,-0.3036209800658783,0.9518153227778158
0.0,332,0.0,2.647761106198724,-24.226759452924256,2.015402812377216,0.01248701193906285,-0.041300323430785664,-0.3036491340895485,0.951806472547867
0.0,333,0.0,2.656347693319624,-24.223709291691968,1.9945625060420191,0.012508180071436571,-0.04128275465216557,-0.3036950547802456,0.9517923057588
0.0,334,0.0,2.6637982860147678,-24.221062639073033,1.9764673555046617,0.012455852307906188,-0.04128584134997437,-0.30371763340679925,0.9517856534982452
0.0,335,0.0,2.6702615405736054,-24.218761394658237,1.9607620062779358,0.012300293851461306,-0.04131696359398292,-0.3036746372551401,0.951800045166263
0.0,336,0.0,2.6697388150603034,-24.21371976593104,1.9418561538553378,0.012205979556799609,-0.04133517217228735,-0.3036175313001644,0.951818686668706
0.0,337,0.0,2.669284435221991,-24.209326304272516,1.9254460549563555,0.012270460357305038,-0.04133423256355074,-0.3036052168036682,0.9518218264731061
0.0,338,0.0,2.6688888566304,-24.205487449515736,1.9112016949983976,0.012364382429507836,-0.041325515574658155,-0.3036264970574683,0.95181420145648
0.0,339,0.0,2.6685492392020476,-24.202139177017422,1.8988455488889047,0.012463107432354145,-0.04130406587326656,-0.3036606543363475,0.9518029481481384
0.0,340,0.0,2.6703636785743567,-24.199232326994355,1.8911105034658733,0.012536797165905021,-0.041289491773095925,-0.303689735776846,0.9517933341696242
0.0,341,0.0,2.671934417519834,-24.196717393081265,1.8844027956214524,0.012485046621268233,-0.041299938973975985,-0.3037025641200668,0.9517894678963975
0.0,342,0.0,2.6759257607458564,-24.194521355785668,1.87703931164565,0.01224571458440967,-0.041356750142271304,-0.3036202835616553,0.9518163610181992
0.0,343,0.0,2.679393596011261,-24.19259545460541,1.8706561892668216,0.012395471463277215,-0.041334875977201535,-0.30364273012805826,0.9518082121706724
0.0,344,0.0,2.6824065459798576,-24.19090887086125,1.8651237312300641,0.012486018905895312,-0.041327937557418835,-0.3036777610486248,0.9517961537816939
0.0,345,0.0,2.6780295730571604,-24.187339327147306,1.8592088632227441,0.012546183363348399,-0.04132814274185549,-0.3037079231548943,0.9517857297277905
0.0,346,0.0,2.674226087488413,-24.184239641525735,1.8540847079193115,0.012347728250875581,-0.0413882373838383,-0.30367250522782513,0.9517970145897485
0.0,347,0.0,2.6715439566073753,-24.206301739424042,1.8982776241905852,0.012271758516883398,-0.04140580248693094,-0.3036384140152654,0.9518081093359159
0.0,348,0.0,2.6692123456444365,-24.225442790458743,1.9366504727918925,0.012248629343838609,-0.04140876111778681,-0.3036099284990957,0.9518173653063183
0.0,349,0.0,2.667187619305726,-24.24203340336011,1.9699654023536621,0.012285192408161264,-0.04139750107059905,-0.3036136971104726,0.9518161817701538
0.0,350,0.0,2.6654328352430494,-24.25641265874878,1.9988870696252676,0.012446672998535803,-0.041363870632162826,-0.30364336128010616,0.9518060830274789
0.0,351,0.0,2.6639140922470355,-24.268877458028008,2.023984425960685,0.012530578162040203,-0.041350665977130455,-0.30366065763022526,0.9518000378450044
0.0,352,0.0,2.6643600090358683,-24.279694631066924,2.0453744002403194,0.012555547046491753,-0.041329979856746094,-0.3036771711763043,0.9517953386678051
0.0,353,0.0,2.6647443230270897,-24.28908401510003,2.0639304944194867,0.012497998064433202,-0.04133425045761809,-0.3036684817510576,0.9517986830073342
0.0,354,0.0,2.6650768045108535,-24.29722859611673,2.0800289011760316,0.012364859045916436,-0.04136045805810101,-0.3036344786592156,0.951810131349391
0.0,355,0.0,2.668471371209491,-24.306461570957026,2.0941548384723356,0.012260385321427553,-0.04139179951057279,-0.30354507600022596,0.9518386358627515
0.0,356,0.0,2.671420754623542,-24.31444956010006,2.106404072020986,0.01233003395996536,-0.041387179084889904,-0.30357099620152106,0.9518296706528734
0.0,357,0.0,2.6739827724360934,-24.321359706157075,2.117026554829162,0.012472066840980525,-0.04135767680881136,-0.30362587711209965,0.9518115973582169
0.0,358,0.0,2.6797713257930136,-24.329267294746117,2.1291699789913037,0.012558730035858784,-0.041316765359886716,-0.3036988905113094,0.9517889404181381
0.0,359,0.0,2.684790605943242,-24.336131297506903,2.139700832576911,0.012505537589830976,-0.04131211325856672,-0.3037021173576209,0.9517888130988924
0.0,360,0.0,2.689144244403622,-24.342063833535725,2.1488285425801963,0.01225529352660807,-0.04133594537685948,-0.30357668995888104,0.9518310463070573
0.0,361,0.0,2.6929262088866364,-24.34718765509804,2.156743685426397,0.01245718110238534,-0.04130236979013645,-0.3036128136997112,0.9518183609523644
0.0,362,0.0,2.6962093491675,-24.35161850293118,2.1636019362674683,0.012536246298739992,-0.04129813294553584,-0.3036356335303004,0.9518102273009065
0.0,363,0.0,2.6903453766465955,-24.355457259122026,2.17153089610294,0.012555449302937446,-0.04129108863754908,-0.30366567585326915,0.9518006955242808
0.0,364,0.0,2.6852498045248527,-24.35878312252739,2.1784003006000674,0.012498032999935732,-0.041312682603330826,-0.30363711148551537,0.9518096269506742
0.0,365,0.0,2.6808199287001284,-24.361660320148253,2.1843487777124606,0.0123654092154214,-0.04135299549235487,-0.30359087191970274,0.9518243582225552
0.0,366,0.0,2.6730330522168972,-24.362501700854786,2.1892582674592798,0.012283762674356727,-0.041386029797131595,-0.3035327136183011,0.9518425276671039
0.0,367,0.0,2.6662771172594653,-24.363204084520575,2.1935104857522054,0.012441506316788087,-0.04136135331892479,-0.3035539615306315,0.9518347754790515
0.0,368,0.0,2.660414925361575,-24.363791736728004,2.1971852318497396,0.012552964957824531,-0.04134659685340573,-0.3035934750697294,0.9518213508292904
0.0,369,0.0,2.655328324807639,-24.364286595930317,2.2003592629007382,0.012587507663695376,-0.04133426532121061,-0.3036110797663698,0.9518158148529952
0.0,370,0.0,2.6651510730496217,-24.362944729793597,2.20009305977503,0.0125645257648489,-0.04134143458947391,-0.30361306245237185,0.9518151746986812
0.0,371,0.0,2.67367488872076,-24.3617671369012,2.1998449116804,0.012386897997427197,-0.041402423903209085,-0.30358372862180816,0.9518242084382077
0.0,372,0.0,2.6830281872370776,-24.360722444722555,2.1993865589078756,0.012312777703507338,-0.04145926418303312,-0.30355526596127386,0.9518317737004822
0.0,373,0.0,2.6961026972048856,-24.35941314728276,2.196965420182692,0.012626741281753685,-0.04141910879420178,-0.3036798062934059,0.9517896816423769
0.0,374,0.0,2.7074485253606166,-24.358268447060446,2.1948446530373027,0.012442177317238748,-0.04141746948248726,-0.3036663640971556,0.9517964723412707
0.0,375,0.0,2.721932460665743,-24.3327377281717,2.144741092154256,0.012305702678547102,-0.04144056028364131,-0.30356477863250947,0.9518296459024381
0.0,376,0.0,2.7345006453681653,-24.31055874092192,2.1012397365702604,0.012358210594187369,-0.04142906759682369,-0.30355974081974,0.9518310725871582
0.0,377,0.0,2.7454094455820135,-24.291280668298455,2.0634733557695792,0.012452195915566571,-0.04141607742807393,-0.30354609075635963,0.9518347661931056
0.0,378,0.0,2.7548773001421196,-24.274530593095896,2.030693064151657,0.012563844839633277,-0.041383161142523286,-0.303583704062106,0.951822734759277
0.0,379,0.0,2.7615780939907824,-24.259991180774506,2.0024647104397286,0.012618168912048375,-0.04136436341974965,-0.30362474253154964,0.9518097430552158
0.0,380,0.0,2.76738325959736,-24.247371756429487,1.977965386099262,0.012398375150366415,-0.041385848531862404,-0.3035992740226151,0.951819821524993
0.0,381,0.0,2.772888005574388,-24.236403586029837,1.9567120251546446,0.012293287538213092,-0.04137704203009779,-0.30352101374495993,0.9518465263316215
0.0,382,0.0,2.7776632440868334,-24.226866428895747,1.9382663715365336,0.012445596250844996,-0.041314863346049585,-0.30352187654432244,0.9518469728163615
0.0,383,0.0,2.7818019067620194,-24.218574144895655,1.9222612727714505,0.012531984048611562,-0.04127648292017328,-0.30355979662889837,0.9518354118250528
0.0,384,0.0,2.785387867425927,-24.21138291702671,1.9083782315970583,0.012582610330493847,-0.04121449647119067,-0.3035938805662207,0.9518265592431431
0.0,385,0.0,2.790409533141236,-24.201566097554874,1.8962772957499516,0.012526279906067885,-0.041196151447682294,-0.30360528001168197,0.951824460374203
0.0,386,0.0,2.794755828921976,-24.19305454929293,1.8857800598263168,0.012383962999236482,-0.041207663774227084,-0.30359265251963385,0.9518298520443644
0.0,387,0.0,2.774441568960594,-24.21013132373797,1.924776766627469,0.012292796479497213,-0.04122709393564365,-0.3035679989831587,0.9518380554872222
0.0,388,0.0,2.7568019216600463,-24.22493934609838,1.9586333669739382,0.012465364991227332,-0.041227809291675514,-0.30357786429028083,0.9518326337805385
0.0,389,0.0,2.7414852108478867,-24.23778549794101,1.9880293040005976,0.012544826525247238,-0.041208449491045,-0.3036027829558178,0.951824480248054
0.0,390,0.0,2.7218617717759797,-24.2524689681892,2.0121338069830994,0.012568566300894222,-0.04120592933279142,-0.30363030658097945,0.9518154965404281
0.0,391,0.0,2.704822008572241,-24.26521725937753,2.033053509812631,0.012507463248258903,-0.04121364031357294,-0.30364293768483924,0.951811938152342
0.0,392,0.0,2.6900254935069094,-24.276281473043056,2.0512092915100504,0.012364239963810518,-0.04125906021224981,-0.30362637850266355,0.9518171241356591
0.0,393,0.0,2.679740303146335,-24.285126875859618,2.070979805360661,0.012269104008814502,-0.04131162262310952,-0.3035792803003158,0.9518310981972637
0.0,394,0.0,2.6708194279098474,-24.292782073490436,2.0881439787203546,0.012443636365180567,-0.04132518112862159,-0.3036075488794995,0.9518192273651968
0.0,395,0.0,2.6630803252588087,-24.299410923955506,2.1030376258257375,0.01254758717740519,-0.04132686971676208,-0.3036410840716203,0.9518070917781872
0.0,396,0.0,2.652492538997722,-24.28075085241418,2.068211923206411,0.012622478432393483,-0.04134200890589071,-0.3036805990808422,0.9517928372706689
0.0,397,0.0,2.6433025069952873,-24.26455733868096,2.0379833358186463,0.012583731431024064,-0.04136455724352301,-0.3036978782270288,0.951786857372868
