time,field.header.seq,field.header.stamp,field.pose.pose.position.x,field.pose.pose.position.y,field.pose.pose.position.z,field.pose.pose.orientation.x,field.pose.pose.orientation.y,field.pose.pose.orientation.z,field.pose.pose.orientation.w,field.twist.twist.linear.x,field.twist.twist.linear.y,field.twist.twist.linear.z,field.twist.twist.angular.x,field.twist.twist.angular.y,field.twist.twist.angular.z
1718024752.5628316,0,1609059013.5613792,-0.003924386226776071,0.0014406474324587856,-0.00025314737735004564,-7.082610486400807e-06,-0.0002943452747650891,1.2746330238596842e-05,0.9999999565741112,-2.617213409187761e-05,-0.0002934505997633102,-0.0019395078787989362,0.0,0.0,0.0
1718024752.6590176,1,1609059013.6552362,-0.0025111421133962425,0.005273716882269518,4.9352849654777665e-05,-3.813923767098404e-05,-4.718924417580953e-05,-6.690374178831413e-05,0.9999999959212306,0.015709263144001187,0.04299282082713619,0.0030416713027978113,0.0,0.0,0.0
1718024752.848879,2,1609059013.7656472,-0.00017639704397035927,0.008298228943035741,-0.000851493819285722,-4.950466344528509e-05,-0.00014140360557136252,-0.00012082040973851846,0.9999999814783673,0.0202410882170451,0.03193507109585303,-0.0048276810138013024,0.0,0.0,0.0
1718024752.8730211,3,1609059013.8603215,-0.0019497340546568904,0.007670053610501918,-0.0004409064527510157,-6.592149353067527e-05,-0.0001173532949995342,-5.460431268316619e-05,0.9999999894504642,-9.278770612321935e-05,0.013670543061591819,0.00021262739479045896,0.0,0.0,0.0
1718024752.951602,4,1609059013.9555137,0.0003105663427683644,0.006755703078296481,0.000607270306998796,-1.314411247233478e-05,-8.836552383288615e-05,-4.1789893652840505e-05,0.9999999951361848,0.01180398785623991,0.0021846975177137132,0.007271963965099243,0.0,0.0,0.0
1718024753.063234,5,1609059014.0663762,0.0011209598669289084,0.006763200451645137,0.0002129689126612416,-4.574036663148862e-05,-0.00013789683716992573,-5.816605144861715e-05,0.9999999877544947,0.009931914148800895,-0.0007658303372728566,-0.00020241659004096788,0.0,0.0,0.0
1718024753.1569388,6,1609059014.1604142,0.0003005412998032428,0.0062372535218074,-0.0001824774380549591,-3.387189182833206e-05,-0.00013176010262852032,-4.818888747479572e-05,0.9999999895848992,7.622400419394527e-05,-0.0036120922057043523,-0.0029474562272430375,0.0,0.0,0.0
1718024753.252543,7,1609059014.2553174,-1.5678904463114513e-05,0.007228899130274422,5.32382343197689e-05,-1.9767431736109444e-05,-0.0001444525952732236,-0.00014474794980533936,0.9999999788953619,-0.0024435431953689192,0.002114695338272116,-0.00019220498431456092,0.0,0.0,0.0
1718024753.3626463,8,1609059014.3661335,-0.001555000403589116,0.0037137777153198204,-0.0006886749474137464,-4.198967957388227e-05,-0.00013328468600540966,4.637472219296713e-06,0.999999990225275,-0.009962165783380057,-0.017044462114364948,-0.005651199903843986,0.0,0.0,0.0
1718024753.4570673,9,1609059014.460222,-0.001934528749675057,0.0033411847339452883,-0.0007052994379185596,-5.518881314447776e-05,-0.0001378878974534465,2.4976073691768544e-05,0.9999999886586579,-0.00875394674759599,-0.012467207159606163,-0.0024910446215583456,0.0,0.0,0.0
1718024753.5526078,10,1609059014.5659277,-0.002366388320490833,0.0030584017948308705,3.679476806566812e-06,-3.0494424913801342e-05,-0.0001227704741146872,2.5845612965244935e-05,0.9999999916647515,-0.0074879556528057506,-0.009194418942444927,0.0031705808515114114,0.0,0.0,0.0
1718024753.6631954,11,1609059014.665986,-0.0029488778277291434,0.0020317549125314807,-0.0008420482166517371,-2.789839717221816e-05,-0.0001430196983020558,-2.406006057294267e-05,0.9999999890940788,-0.007181193160471144,-0.010635983535349043,-0.004345581576836035,0.0,0.0,0.0
1718024753.7570698,12,1609059014.7598484,-0.0018464496522197095,0.003859429208595974,-0.0004977598058986517,-1.9328793322123002e-05,-0.00012546837853376588,-3.5033563274581507e-05,0.9999999913283661,0.0010880511093641371,0.002589989599990083,0.00033341057104041474,0.0,0.0,0.0
1718024753.851984,13,1609059014.8546803,-0.0011242523298882134,0.001717156151178367,0.0001436195995471313,1.3605790647336646e-06,-0.0001506066703175051,-7.24685201191697e-05,0.9999999860320461,0.00409039629646283,-0.008315929797514676,0.003607599201255876,0.0,0.0,0.0
1718024753.9623303,14,1609059014.9658728,-0.0012326126686388428,0.0023130811092788974,-0.0005370442343158007,-3.217043102339557e-05,-0.00012563772777613995,-5.6571856801972515e-05,0.9999999899899249,0.0010707169895569665,-0.0026499920491778964,-0.003167584997631124,0.0,0.0,0.0
1718024754.0593147,15,1609059015.0615332,-0.0021972685441620054,0.004294880622166004,-0.0008900576977583614,-3.096721311481534e-05,-0.00013874894703240308,-2.906820349874803e-05,0.9999999894724,-0.004527391287433649,0.007405028189467363,-0.003827075749587062,0.0,0.0,0.0
1718024754.1509323,16,1609059015.1550894,-0.0014495482276869686,0.005563150249704037,3.4188423554151345e-05,2.8034164847203003e-05,-0.00011116828136592106,-0.00010694916787819532,0.9999999877087866,0.0004346741146237171,0.01069257651030741,0.003669548373101449,0.0,0.0,0.0
1718024754.2626152,17,1609059015.2658863,-0.000988995304758511,0.006353116620295329,-0.0006550913551196367,-2.1749678697165266e-05,-0.00015634030545667591,-4.904724818528721e-05,0.9999999863395133,0.0022821716721580496,0.008668962371855824,-0.002549308873702743,0.0,0.0,0.0
1718024754.3573575,18,1609059015.3600175,-0.001866675764014595,0.007711706850586119,-0.0004650976495744931,-3.0033745832863048e-05,-0.00014005220209477952,-5.2587300403247216e-05,0.9999999883589646,-0.003333001144073899,0.012067263374017173,0.00017686969502496604,0.0,0.0,0.0
1718024754.4514194,19,1609059015.454967,-0.0007644180779491343,0.005639955449614905,0.00021820134007660943,-2.0166564464563408e-05,-0.0001123479712686821,-8.173577040447988e-05,0.9999999901452524,0.0030553676269892286,-0.0014892566308170093,0.004638708503432386,0.0,0.0,0.0
1718024754.563782,20,1609059015.566338,-0.0015656000464534389,0.004453113187297417,-0.00030753871871366654,-1.545147340575273e-05,-0.00012183323791392493,-3.136395851885775e-05,0.9999999919671076,-0.001969133509333866,-0.006369634293786749,-0.0017443977196542598,0.0,0.0,0.0
1718024754.6582954,21,1609059015.660704,-0.00010119211436543062,0.004129062470323244,-0.0003794887888555098,-2.184823065395264e-05,-0.00013546689454288076,-2.722719248100585e-05,0.9999999902150274,0.0060349237937333084,-0.004779085521096543,-0.001216188962032974,0.0,0.0,0.0
1718024754.7516954,22,1609059015.755095,-0.0005303255384614586,0.0038438864100092656,-2.3351643985972798e-05,-5.774345557877692e-06,-0.00012647172954054244,-0.00010091918486319946,0.9999999868934383,0.0006218355245343303,-0.0035648518369892743,0.001079204894149565,0.0,0.0,0.0
1718024754.8641381,23,1609059015.8668175,-0.0014657133010524365,0.005511490527585313,-0.00022329288827064117,-2.891094230291039e-05,-0.0001393739435739421,-5.978166699977632e-05,0.9999999880826074,-0.0042375205616942985,0.004104166504881856,-0.0011100579448638944,0.0,0.0,0.0
1718024754.957068,24,1609059015.9600697,-0.00043891238098127476,0.005960186790062158,-2.9709966594200388e-05,-1.472697548648846e-05,-0.00012218160387107564,-6.514759132482779e-05,0.9999999903052822,0.0015750926995778776,0.00443434469274438,0.00010100313421699831,0.0,0.0,0.0
1718024755.0515108,25,1609059016.0550356,-0.00011563785945803499,0.006582744256181639,0.0004093216427127002,1.1714989896993783e-05,-0.00011503628574980673,-7.624893564402961e-05,0.9999999904077569,0.0016554590595895815,0.005555299775335769,0.002616889910333595,0.0,0.0,0.0
1718024755.1633615,26,1609059016.1666756,0.00019133028461771815,0.00542115959657406,-0.0003780238637225848,-3.446430870765627e-05,-0.00013820274644976856,-1.910773207850149e-06,0.9999999898542814,0.0027230008518164426,-0.0017495924041388443,-0.0033896961362868136,0.0,0.0,0.0
1718024755.255921,27,1609059016.259489,0.0010374071174190213,0.005074648371995204,-0.0005545359604609665,-2.9167418156602162e-05,-0.00011786252557622352,-7.286450589211439e-05,0.9999999899742259,0.00552973045019056,-0.0023412476522030427,-0.002755740061091512,0.0,0.0,0.0
1718024755.3510232,28,1609059016.3542585,0.0019417980808173671,0.002072294608138888,-0.00017915208637279186,7.193368367258709e-07,-0.00013427569189499526,-6.29735719191441e-05,0.9999999890019258,0.007349941285155086,-0.013473846726763506,0.001797099976145067,0.0,0.0,0.0
1718024755.462487,29,1609059016.4652572,0.001439653895482631,0.0013823439235372598,-0.0008040518642534744,-2.6541348524905796e-05,-0.00013108634179750549,-7.746542074502415e-06,0.9999999910259605,0.001080735657330174,-0.010412587535796443,-0.0032930616769676724,0.0,0.0,0.0
1718024755.5561085,30,1609059016.5700505,0.0001539608828361871,0.0013750084556427562,-0.000709755859217466,-3.192400214136396e-05,-0.00010959404973924707,-1.9659389621429066e-05,0.9999999932917565,-0.004904846302091957,-0.006678215565922486,-0.0012013213940928842,0.0,0.0,0.0
1718024755.6516938,31,1609059016.6545525,-0.000611420672117299,0.0037348363527362756,0.00010865722425069309,-1.7086733989415765e-06,-0.0001144405514141059,-4.317232930328695e-05,0.9999999925182967,-0.00670676722409779,0.0071181102855757735,0.004791401538812481,0.0,0.0,0.0
1718024755.7621338,32,1609059016.7764914,-0.0019586218495341,0.001601064495426378,-0.0005043315609420062,2.3733101369992713e-05,-0.0001582185232326643,-2.1685624505777942e-05,0.9999999869666871,-0.00941389251509407,-0.006471249259511926,-0.0025102557960621696,0.0,0.0,0.0
1718024755.8563292,33,1609059016.8597677,-0.0009140240809547865,0.0021674947887882264,-0.0005385350992817478,-4.276294473897075e-05,-0.0001354493076358308,-9.341424969823847e-06,0.9999999898687776,-0.001157384317552133,-0.00027318204062491084,-0.0014311614410494823,0.0,0.0,0.0
1718024755.9520502,34,1609059016.954656,0.0009919187497715214,0.0025775602383634097,0.00033920993657983255,1.5490497781322007e-05,-0.00011174457077682841,-4.1373310796513103e-05,0.9999999927807226,0.007733300740018335,0.002195775167518783,0.004755762415415205,0.0,0.0,0.0
1718024756.0623844,35,1609059017.0661576,0.0011070427775007766,0.0016605937600771797,-0.0004042136089386099,-3.1914857432409524e-05,-0.00010807217596974022,2.9773206563204353e-06,0.9999999936464915,0.004008990834130698,-0.002562450225202289,-0.002651712730006999,0.0,0.0,0.0
1718024756.1588943,36,1609059017.1603043,-0.000623836668680253,0.00257019423522016,-0.0004970410802429902,-2.968854370986762e-05,-0.00010139426690667184,-1.8738513200602277e-05,0.9999999942433319,-0.005323393597141961,0.003679177873258564,-0.001708741363902882,0.0,0.0,0.0
1718024756.2514071,37,1609059017.254894,-5.3200599734886975e-05,0.0052073802634831625,-0.00010553553872363063,-1.6207177938309272e-05,-0.00014561425388941404,-4.3408359228556734e-05,0.9999999883247667,-0.00044838183428906695,0.014394662116720363,0.002164443182302746,0.0,0.0,0.0
1718024756.3626542,38,1609059017.3660686,-0.0014766872236981806,0.004522419209467012,-0.000721802232120165,-2.423127818182904e-05,-0.00013148807763920623,-1.332378156763005e-06,0.9999999910609798,-0.006645156786831758,0.004820509621507369,-0.002580750926095644,0.0,0.0,0.0
1718024756.4565892,39,1609059017.4597769,0.000987640733880804,0.004059121578664696,-0.0007021279054074881,-2.556183073146984e-05,-0.00012994000700495515,-1.4875075496378801e-05,0.9999999911204617,0.00751578738498513,0.0022621988759619466,-0.0009274399339297479,0.0,0.0,0.0
1718024756.5511248,40,1609059017.554376,0.001403084903266833,0.003688811748058962,0.00033120029548191327,6.79992768759302e-06,-0.00011058132830626834,-6.1021124276400346e-05,0.9999999920009793,0.005988902252834734,0.0004947566111580021,0.006668557584021343,0.0,0.0,0.0
1718024756.661943,41,1609059017.664841,0.0008540201170734754,0.003859907369020058,-0.0003715547631536898,-2.4158709144209037e-05,-0.00013423518144502672,-1.3514439562402544e-05,0.9999999906073195,0.0012398300669255666,0.0008660492765511459,-0.0011398306002889354,0.0,0.0,0.0
1718024756.757301,42,1609059017.761045,-0.0010566408287092724,0.0039336855872834225,-0.0007609871452039964,-3.5171633454741e-05,-0.00014251283437696926,-2.539994479162541e-05,0.9999999889039481,-0.007756479656713483,0.001755449013821568,-0.0026440188876177195,0.0,0.0,0.0
1718024756.8517005,43,1609059017.8549209,0.0011258788231388497,0.0032789886085898673,-1.711448862075188e-05,-3.685649716922104e-07,-0.00013990439445341654,-6.47788053256472e-05,0.9999999881151681,0.005812138624673167,-0.0008802834380316289,0.004323835855087778,0.0,0.0,0.0
1718024756.9640381,44,1609059017.9665732,5.8437686163362995e-06,0.002070154987904897,-0.0007532246711945581,-1.5583265174290925e-05,-0.00012858769839933776,-6.885915539224537e-06,0.9999999915874769,-0.0021136930649389212,-0.006279471757392966,-0.0035146233037914826,0.0,0.0,0.0
1718024757.058064,45,1609059018.060756,-0.00018190024279092582,0.0002579200354226575,-0.0007721638092220872,-3.1922733202724734e-05,-0.00012571934541370192,-3.0914394873935954e-05,0.9999999911099451,-0.0023258372294258506,-0.010330940780817985,-0.0019188329863511467,0.0,0.0,0.0
1718024757.1494534,46,1609059018.1537654,-0.00022201578258653076,0.00021368118572406331,-0.0001611687056622118,-3.879225259898375e-06,-0.00012899090915539213,-4.697798683533835e-05,0.9999999905696848,-0.0011981747639987792,-0.006167453587246894,0.0035434731341124487,0.0,0.0,0.0
1718024757.2608578,47,1609059018.2652955,-0.001402345183490519,0.002141909731181963,-0.00047079087207289004,-2.5187867047240115e-05,-0.00013793127518078578,-2.4289086115260563e-05,0.9999999898752903,-0.00521461535769645,0.003909616210778719,-0.0006730291037711552,0.0,0.0,0.0
1718024757.3548152,48,1609059018.358787,-0.0006151650535954248,0.005422665583737082,-0.00017455794736528793,-1.6891693885094136e-05,-0.00011743322423653472,-6.85469400264745e-05,0.9999999906127154,0.000453776845136606,0.017181997874853083,0.001576244115854438,0.0,0.0,0.0
1718024757.4499109,49,1609059018.4538321,0.0015739608577806663,0.004832741620175377,0.0004272410175018037,1.397395260136187e-06,-0.00010908167332386243,-3.900191858542189e-05,0.9999999932890459,0.010215520394852046,0.008932496693200826,0.003967737704570377,0.0,0.0,0.0
1718024757.5604534,50,1609059018.5649493,-0.0009709173695612129,0.004864088406731186,-0.00045849795279656423,-3.500462630170568e-05,-0.00012517443477239878,-1.0057250780561136e-05,0.9999999915024466,-0.005892485782084246,0.00518704037078235,-0.003816133196688349,0.0,0.0,0.0
1718024757.6553743,51,1609059018.6593163,0.0002146659886487414,0.004135712079645157,-0.0001507676963315528,-4.1228758409176005e-06,-0.00011793576882214983,-2.6279382885689473e-05,0.9999999926917773,0.0020530665315599047,0.0007978590752959862,0.0006702411207510266,0.0,0.0,0.0
1718024757.7555134,52,1609059018.754355,-0.00030215237967119626,0.0030862972127176785,0.0005020458534644511,6.577310947301651e-06,-0.00012838547439539743,-4.960202338570519e-05,0.9999999905067758,-0.0014448325124202259,-0.003865088183825573,0.005407097822962123,0.0,0.0,0.0
1718024757.8622067,53,1609059018.865138,-0.0011396677360196138,0.0035189645136149577,-0.00017440744913089349,-2.8898639056763813e-05,-0.00013295641060958588,-3.188205229113708e-05,0.9999999902354989,-0.004659198282778653,0.0002371986216319422,-0.0020328456579476748,0.0,0.0,0.0
1718024757.9543004,54,1609059018.9590113,-0.0014396017489392034,0.0016254679020367574,-0.0005733802510353329,-2.9309643078375666e-05,-0.00012072212453469969,-1.552771219240411e-05,0.999999992163003,-0.0037396793892336354,-0.006459908860734534,-0.0037710045466859215,0.0,0.0,0.0
1718024758.0500803,55,1609059019.0539863,-0.0021340368938836786,0.0022863618636995158,2.3327528161211054e-05,-8.167671212009449e-07,-0.00011221661959627088,-5.6951517425393775e-05,0.9999999920816449,-0.0054387930113337915,-0.0010586176032079796,0.002522224251118611,0.0,0.0,0.0
1718024758.1608555,56,1609059019.1649954,-0.0018415345374956198,0.002332773564858982,-0.0005836660023081694,-1.3461675589065165e-05,-0.00012932042970562727,-8.075821244403433e-06,0.9999999915148967,-0.0007676991978426912,-9.369158770521752e-05,-0.003343250690024645,0.0,0.0,0.0
1718024758.2550254,57,1609059019.258587,-0.0011262479564701478,0.0016199302711466174,-0.000482789380244804,-2.9798100676087765e-05,-0.000127708128389348,-2.3982063137940854e-05,0.9999999911137856,0.0030138998826758053,-0.0019209627347525839,-0.0009458255121495411,0.0,0.0,0.0
1718024758.3498135,58,1609059019.353509,-0.0005173067737010566,0.0023725554496124915,7.543630057674398e-05,6.878028604472815e-06,-0.00012392410623790078,-3.43475835878348e-05,0.999999991707878,0.004414785559213935,0.003285094086918841,0.0029743704696839797,0.0,0.0,0.0
1718024758.4602666,59,1609059019.4650304,0.0008975046816215774,0.0028221856847048593,-0.0002799386791597553,-3.060158350082587e-05,-0.00010710301759730833,-1.8358684660717284e-05,0.9999999936277242,0.009335381226973121,0.004084386225401571,-0.0015522015594065523,0.0,0.0,0.0
1718024758.5559561,60,1609059019.5587504,0.0010354526118755967,0.0047414587996592724,-0.00027933792929239515,-3.8633858235075144e-05,-0.00011899210414248178,-4.952900975510999e-05,0.999999990947592,0.005992922884598172,0.011555014288789356,-5.772416504053364e-05,0.0,0.0,0.0
1718024758.650292,61,1609059019.6540785,0.0009948861544260288,0.0032996060625054735,0.0004612991520381819,7.75308151070411e-06,-0.00012928558553435874,-6.154962594744769e-05,0.999999989718387,0.00343783432812147,0.001622117710687149,0.0047738530924916235,0.0,0.0,0.0
1718024758.760725,62,1609059019.7648761,-0.0004556599801137733,0.0023448753800337846,-0.0004292339502495187,-2.4132118508936573e-05,-0.00013618461632716175,-1.6740938626220008e-05,0.9999999902955681,-0.004829149140717134,-0.0025312240269463816,-0.0038289327664732748,0.0,0.0,0.0
1718024758.8555286,63,1609059019.8589776,-0.0010317959008469164,0.0035023522179891053,-0.0004522227643547024,-1.6977793872725814e-05,-0.00011799288345209328,-4.1045033084565284e-05,0.9999999920523712,-0.005352614137023802,0.0037308058575145644,-0.001707920085635287,0.0,0.0,0.0
1718024758.9583564,64,1609059019.9537926,-0.0006912710791009497,0.0023427576825804405,0.0002915429176200496,7.304369445929179e-06,-0.00011408776478222502,-8.413596335503372e-05,0.9999999899258852,-0.0015150124745244064,-0.0020442685515367465,0.003685060865689965,0.0,0.0,0.0
1718024759.0741942,65,1609059020.066529,-0.001410907242213174,0.0017549127321953904,-0.0005762411194388935,-1.750278486021155e-05,-0.0001318515233293626,5.879302151544703e-07,0.9999999911542423,-0.0027614315975340647,-0.0031347851467920487,-0.0037856850074451213,0.0,0.0,0.0
1718024759.162134,66,1609059020.1664095,-0.002907578530965872,0.0041509798518333425,-0.0011406362703447299,-3.282120602719545e-05,-0.00015186333582874003,-3.0877330170873995e-05,0.9999999874534446,-0.007909326149311833,0.008215312054824595,-0.004642167675154782,0.0,0.0,0.0
1718024759.266381,67,1609059020.2703884,-0.0026114038379959647,0.005042924475403954,-0.0016467053739329903,-1.5022721602291043e-05,-0.00014127082022984193,-3.918505184214979e-05,0.9999999891407034,-0.002802465364610148,0.008728366895404393,-0.004714729019913876,0.0,0.0,0.0
1718024759.369549,68,1609059020.3741074,-0.0022749684242917498,0.0052950288671145445,-0.0019469672169383544,1.0630070270453974e-06,-0.00014698186096640784,-4.2945136009846306e-07,0.9999999891975098,0.00021457736149453578,0.006435018821474296,-0.004158889438641432,0.0,0.0,0.0
1718024759.4730515,69,1609059020.4766243,-0.0031697438302519844,0.002975954084403642,-0.0018389747905564607,1.7024923129513015e-05,-0.00015654528851822167,1.2863379035770012e-06,0.999999987601036,-0.0034099831697855846,-0.005639914074478472,-0.0004587456004129962,0.0,0.0,0.0
1718024759.57538,70,1609059020.5796132,-0.003729400124551504,0.001873037433331229,-0.0014478123351847252,5.9703779117270334e-05,-0.00016977164717379335,-2.513039696300091e-05,0.9999999834907555,-0.00429591478574654,-0.00818843749511125,0.0019518487381618736,0.0,0.0,0.0
1718024759.6818888,71,1609059020.6825817,-0.0031401145930205943,-0.0013413593226477322,-0.0010303664279175597,9.39578121276433e-05,-0.0001694008623695012,2.4329524229592177e-05,0.9999999809416763,0.0002871209966559471,-0.018555090742784306,0.003522911759019651,0.0,0.0,0.0
1718024759.749794,72,1609059020.7541127,-0.0028996210227234098,-0.00024495269576187064,2.1120110690125466e-05,1.0054156196837745e-05,-0.00013003792660892593,-5.0543492616730306e-05,0.9999999902172043,0.0014628597812605425,-0.005912121969741722,0.008652319701351623,0.0,0.0,0.0
1718024759.8519914,73,1609059020.8548136,-0.001019482205209119,-0.0008701104825083896,0.0009758393347581462,1.2362926088507058e-05,-0.00010493833720387286,-4.4481232636800716e-05,0.9999999934282628,0.009607559538049806,-0.005650168756957373,0.009303184561960205,0.0,0.0,0.0
1718024759.9559526,74,1609059020.9594116,-0.0006127215272840475,-0.0003072631784869971,9.194319828046546e-05,-3.1940528239482317e-05,-0.00011761047324738752,-3.1909307822738134e-05,0.9999999920646898,0.007459982295048652,-0.0001953076774355994,-0.0015898160036986325,0.0,0.0,0.0
1718024760.0580282,75,1609059021.0609846,-9.886655365642225e-05,0.0015758711660743456,-0.000684230668092295,-2.889409218164143e-05,-0.00012133748735585426,-3.694465874656556e-05,0.999999991538721,0.006737466388727903,0.008097359715943017,-0.004949914133208902,0.0,0.0,0.0
1718024760.162611,76,1609059021.1636813,-0.00042109668361426023,0.0028559205291271753,-0.00149154219781522,-3.392671027490138e-05,-0.00012583710734987986,-2.7067273737532726e-05,0.9999999911406838,0.0031347032867094565,0.010491943475049094,-0.006954797330932556,0.0,0.0,0.0
1718024760.2662752,77,1609059021.266604,-0.001756815249713467,0.0042375041837023186,-0.001979895049479065,-3.5726098616404576e-05,-0.00016060398794145024,-2.6782519943031387e-05,0.9999999861063521,-0.003408736193826871,0.012287489564215267,-0.005506532751651976,0.0,0.0,0.0
1718024760.365173,78,1609059021.3693292,-0.0018444900621339853,0.004529919395501841,-0.002372253574038176,-6.927442692891571e-06,-0.00014824125957083555,-6.9174211917977e-06,0.9999999889643458,-0.001898845451316876,0.008755085380655869,-0.00475434569089442,0.0,0.0,0.0
1718024760.4684854,79,1609059021.472718,-0.0015177822364604175,0.0035871588467806083,-0.0019383446293943522,1.0106367458429129e-05,-0.00015823306834030317,-9.80586964667417e-06,0.9999999873820025,0.0004966427846880817,0.0008866226223920321,0.0012071310312646195,0.0,0.0,0.0
1718024760.5718246,80,1609059021.5759308,-0.0027950637215620943,0.001879578798321928,-0.0018568902738785359,6.82679104169663e-06,-0.0001560453132952511,2.8921581051918356e-06,0.999999987797447,-0.0047113474718808715,-0.006495770485154952,0.001394536874189411,0.0,0.0,0.0
1718024760.6755579,81,1609059021.6788065,-0.0032508199536579957,0.002904589688392723,-0.0017580149632696242,5.6890080047431905e-05,-0.00017899432726255424,-2.698420723895919e-05,0.9999999819982028,-0.004143703879420321,4.2807810305410185e-05,0.001427247802751455,0.0,0.0,0.0
1718024760.7782683,82,1609059021.7816267,-0.002626500290290559,0.0005590143439930535,-0.001605101183828562,7.501603411372706e-05,-0.00018601564081080453,-2.76625174735186e-05,0.9999999795027829,0.0006823157747969542,-0.010383972159944365,0.0014182030340764932,0.0,0.0,0.0
1718024760.8488758,83,1609059021.8536313,-0.0006165318220377159,0.000513322899297576,-6.744912594418005e-05,1.70155344638012e-05,-0.00014229271928865362,-4.700382469554653e-05,0.9999999886269496,0.009852973594066804,-0.004513539840426489,0.010936881275105339,0.0,0.0,0.0
1718024760.9508674,84,1609059021.9544072,-0.0007867235095103161,0.0007547582184749167,0.0010792224480364973,2.196996592381501e-05,-0.0001134102483909058,-4.966392982878935e-05,0.9999999920944681,0.0037537124696504142,-0.0018194605658,0.010667346441264887,0.0,0.0,0.0
1718024761.0526872,85,1609059022.0571887,-0.00024154862580352902,0.0027401211188299445,0.0007779724906612851,7.533156690771138e-07,-0.00010878868633850489,-6.257495406774747e-05,0.9999999921244174,0.005114083232791111,0.00799595758498318,0.002416228962679,0.0,0.0,0.0
1718024761.1572337,86,1609059022.1609817,-0.000342939555104578,0.0029679470066711084,-3.379148805973869e-06,-8.116395121437329e-06,-0.00012224444645036475,-3.098559757447925e-05,0.9999999920151589,0.0025004016189456614,0.00576008874993323,-0.0038805649105668103,0.0,0.0,0.0
1718024761.260487,87,1609059022.2645185,-5.811662887415418e-05,0.003452444052882874,-0.0011201605348103215,-3.0275490676731286e-05,-0.0001327877217397498,-1.559137322921001e-05,0.9999999906038654,0.0026912234366268262,0.005098389435596165,-0.008784857163133798,0.0,0.0,0.0
1718024761.365178,88,1609059022.3668666,-0.0007759430052002809,0.004250633502691421,-0.0015811268192169982,-3.328122016950593e-05,-0.00013993784005282933,-1.0639922094844193e-05,0.9999999895982795,-0.0014771110362379767,0.007037894800395122,-0.0064127601659858145,0.0,0.0,0.0
1718024761.464953,89,1609059022.4697247,-0.0024223248559191884,0.003028329332059552,-0.0018901386653489098,-1.969023454855472e-05,-0.00012565474418323405,-4.6144882216899605e-07,0.9999999919114867,-0.008268050884881195,-0.00039232082332291574,-0.004503286103263981,0.0,0.0,0.0
1718024761.568149,90,1609059022.5723758,-0.004272534601971014,0.003813606962447588,-0.0020123280947657285,-5.976136850874122e-06,-0.00016502907577619694,-3.4819099624308886e-06,0.999999986358786,-0.011962346461666,0.0025680437023703796,-0.00227573082494664,0.0,0.0,0.0
1718024761.6715083,91,1609059022.6754441,-0.00446439768432036,0.0027090518558008387,-0.0017645434753191757,3.06613044782933e-05,-0.00018250719618006207,1.575913839585978e-05,0.9999999827513306,-0.007080087883242619,-0.0033445468277843358,0.0005455442486445904,0.0,0.0,0.0
1718024761.7792423,92,1609059022.779034,-0.004893881828485876,0.0023698137339014684,-0.0016038164667774638,5.954442111588324e-05,-0.00015835802045503373,-1.8681511733282447e-05,0.9999999855141023,-0.0054324994998666675,-0.0038283084277976978,0.0015616446496844688,0.0,0.0,0.0
1718024761.87955,93,1609059022.8830657,-0.0044936654226154045,0.001201665098054749,-0.0012123978052639925,9.652750929373027e-05,-0.00015980742049062695,-1.6563699813080698e-05,0.9999999824348377,-0.001580669958218552,-0.007733700376133398,0.0028009324232242455,0.0,0.0,0.0
1718024761.95049,94,1609059022.9539292,-0.0029382377055745105,0.0007036232415234233,-0.00020365334100390023,7.6848096041108e-06,-0.00013474782390231172,-5.610741989259828e-05,0.9999999893179644,0.006387702894733096,-0.004646424154551802,0.008415663399519071,0.0,0.0,0.0
1718024762.0502312,95,1609059023.0544028,-0.00260249529353372,5.0755632334338846e-05,0.0009023071961632971,1.3333753134688748e-05,-0.00011696348643453086,-4.207748977411603e-05,0.9999999921856206,0.0052490452436165826,-0.004671161935827586,0.010322166032756343,0.0,0.0,0.0
1718024762.1523638,96,1609059023.1569023,-0.0014577586447581865,0.0015600871847876398,0.0008633411573859305,9.324989405994809e-07,-0.00012609959476477206,-5.414509678285367e-05,0.9999999905831672,0.008043415156494633,0.0038434856206621933,0.0040337131845357395,0.0,0.0,0.0
1718024762.2559924,97,1609059023.2603188,-0.0025833707401515162,0.0011350412168872847,-0.00010680000512487562,-2.460784680929914e-05,-0.00011666542011983056,-2.0402912654264495e-05,0.999999992683679,-0.0005314445301290863,0.0012190090731773648,-0.004789913237056927,0.0,0.0,0.0
1718024762.3604732,98,1609059023.3638515,-0.0033552282797593485,0.001571985992898028,-0.001284758071560457,-2.814785345648677e-05,-0.00014353712847313573,-7.474165384063665e-06,0.9999999892744664,-0.0029184306299618636,0.003239794976195044,-0.008494978969900497,0.0,0.0,0.0
1718024762.4633014,99,1609059023.4666786,-0.0022612877368034215,0.0028656796964279894,-0.0016258945443757542,-2.6866974213324087e-05,-0.0001493686151555436,-1.1672645214020652e-05,0.9999999884154683,0.003648082259968585,0.007473746733870329,-0.004749708189129873,0.0,0.0,0.0
1718024762.5672152,100,1609059023.5700805,-0.002941046995162727,0.0022559603977592418,-0.0015879510450007683,-8.024907951693989e-06,-0.00014801021533079862,-1.4209013490122196e-05,0.9999999889133426,-0.0007399113894825124,0.0021798776877356473,-0.001189322118136845,0.0,0.0,0.0
1718024762.6700196,101,1609059023.6724968,-0.003433154913648912,0.0037641491142210936,-0.0015537431125863983,2.108231392299549e-07,-0.00016737147793374768,5.983156119333078e-06,0.9999999859754751,-0.0028179407421120703,0.007283581848777525,-0.0006557096994427901,0.0,0.0,0.0
1718024762.7725139,102,1609059023.7760684,-0.002442132279115853,0.0018797063655993616,-0.0014497846027493495,3.525147555204655e-05,-0.0001419306396760047,1.5948395873394867e-05,0.9999999891793397,0.00345683627128575,-0.0039860937767585754,-0.0003726330375356116,0.0,0.0,0.0
1718024762.8796992,103,1609059023.878678,-0.0023814395519105793,0.0014584729547459795,-0.0016426649056180277,5.291234228449508e-05,-0.000143438503086843,-1.590692037788153e-05,0.9999999881863261,0.00208391669287616,-0.004229697439873741,-0.0018566783706247566,0.0,0.0,0.0
1718024762.9779606,104,1609059023.9817903,-0.0025310001744462012,0.0008437659603362789,-0.0017003662776583753,8.571359610519346e-05,-0.00016690517699823526,8.068172348920538e-07,0.9999999823975959,0.0006592333586679937,-0.0054875279060536426,-0.0011505613577560856,0.0,0.0,0.0
1718024763.0509615,105,1609059024.054072,-0.0015299976263139113,0.0028160630601632964,-0.0003879029529620536,6.035203106106293e-06,-0.0001301960088259371,-3.758674079187092e-05,0.9999999907999072,0.0052563006505831275,0.006898717355883422,0.00776400905437861,0.0,0.0,0.0
1718024763.149169,106,1609059024.15403,-0.0005226527487600044,0.0033263856699317393,0.0006246899754912131,8.203863862875499e-06,-0.0001284857821211491,-4.802705499022238e-05,0.9999999905587527,0.00790377216733791,0.007362040419243602,0.009303059512210391,0.0,0.0,0.0
1718024763.2563136,107,1609059024.2585795,0.0008707909565652161,0.0026208378692446376,0.0007147465796804774,-7.1434254162149955e-06,-0.00011893931248756827,-2.092107136926474e-05,0.9999999926823614,0.010434318166816803,0.0022162828452694933,0.003857192677514612,0.0,0.0,0.0
1718024763.3555782,108,1609059024.3598754,0.0004310841041682492,0.0019605049028133164,-3.377876075770908e-05,-1.705955938406666e-05,-0.00010093934770797948,-1.682410699636457e-05,0.9999999946185862,0.0033919888295817595,-0.0010412865525922688,-0.0029385760020663896,0.0,0.0,0.0
1718024763.4608917,109,1609059024.464491,-0.0012219540780419634,0.0006027974714712768,-0.0008265946151350601,-1.0554756576221527e-05,-0.00012277492548066308,-3.5986490113561864e-06,0.9999999924009841,-0.005073714218646528,-0.005619844946873337,-0.00510108483784712,0.0,0.0,0.0
1718024763.5630505,110,1609059024.5662785,-0.002374700931969193,0.0005097927102793202,-0.00150611626507389,-1.9704409732092916e-05,-0.00014964149750608047,-2.8276981213349377e-05,0.9999999882097869,-0.007469198868898095,-0.0033574806174720083,-0.005681807687653047,0.0,0.0,0.0
1718024763.6655447,111,1609059024.6693368,-0.003244674903723185,0.00026454574160625555,-0.0019342346345678717,-2.523737584573693e-05,-0.0001594910267485333,5.382254551171462e-07,0.9999999869627009,-0.008076979238652561,-0.0026016383479114096,-0.004710064500269027,0.0,0.0,0.0
1718024763.7690563,112,1609059024.7722876,-0.005934499631467356,0.0009046680000147344,-0.0018935079129997392,1.728620807106875e-05,-0.0001357496996625129,4.050234966849784e-06,0.9999999906284031,-0.01659426804350171,0.001224388194569337,-0.0012697420111262652,0.0,0.0,0.0
1718024763.871386,113,1609059024.8754787,-0.00554681096751799,-0.0006064801207072789,-0.0019909645141836284,1.064629750132027e-05,-0.00015447535181286877,8.603701176532887e-06,0.9999999879750003,-0.007186570514137422,-0.005329046525695219,-0.0015556474136020155,0.0,0.0,0.0
1718024763.9749236,114,1609059024.9785547,-0.006152951416793086,-4.134340887744415e-05,-0.0021085143638607837,4.515507747060795e-05,-0.00017751787134302955,1.1818191746282617e-05,0.9999999831543785,-0.005946830132694225,-0.0011634820406706617,-0.0010935540824600083,0.0,0.0,0.0
1718024764.0781698,115,1609059025.0816088,-0.00535020192144228,0.0005417252863578036,-0.0016815329337268926,8.441609324476812e-05,-0.00019791969767153061,-3.066773211695184e-06,0.9999999768461572,0.0002474023120678922,0.000999498786320333,0.002381275265095943,0.0,0.0,0.0
1718024764.1499383,116,1609059025.1536193,-0.003977521076563402,0.00096449307186315,-0.00048231288561649506,5.138551168080771e-08,-0.00016949950494828846,-4.36493535296002e-05,0.9999999846823262,0.006597318078516233,0.005442897319403379,0.009331406690818328,0.0,0.0,0.0
1718024764.2511206,117,1609059025.2534063,-0.0025269141447261637,0.000934150418558531,0.0007754471155735869,1.4826380912869474e-05,-0.0001308026149283262,-4.530512120695806e-05,0.999999990309152,0.010637339788079566,0.004342674727822389,0.01151935361526241,0.0,0.0,0.0
1718024764.3554187,118,1609059025.3574781,-0.001983426198634008,8.529171921351369e-05,0.0006450603795123246,-9.197458894541058e-06,-0.00010842291794007977,-2.654738732173618e-05,0.9999999937275592,0.00860012199014912,0.0005519245100217987,0.0036084858185943154,0.0,0.0,0.0
1718024764.4587708,119,1609059025.4617655,-0.0025954971769072363,0.0016218520436540483,-0.00017590935177435848,-1.8143299832399345e-05,-0.0001282355770155746,-1.5067923798469917e-05,0.9999999914997095,0.0029640894824089154,0.0069753300860955925,-0.0031860907766692514,0.0,0.0,0.0
1718024764.5635972,120,1609059025.5634778,-0.002723034692110344,0.0014988279998609086,-0.0007116248480354065,-6.665294871007474e-07,-0.0001357710811028717,-1.5648712724867087e-05,0.9999999906604454,0.0011845186450335273,0.0034180164231575093,-0.004768762959728882,0.0,0.0,0.0
1718024764.6641512,121,1609059025.6675704,-0.0031882926459383624,0.0019048847005218102,-0.0016730433329271812,-2.2514195551861086e-05,-0.00016130801783777442,2.261353798815105e-06,0.9999999867338618,-0.0013222431383321646,0.0039495017849415955,-0.007654792539263179,0.0,0.0,0.0
1718024764.7676497,122,1609059025.7708263,-0.004296165534724033,0.001376760415262325,-0.0020455864936976603,2.4779877275799944e-07,-0.00015626586219919767,3.1095233276757326e-05,0.9999999873070039,-0.0053287229187197905,0.00027157357774775653,-0.005238121057296116,0.0,0.0,0.0
1718024764.8685982,123,1609059025.872822,-0.005232689209540296,0.0008999488653317679,-0.0019236333439101923,2.6092555674421407e-05,-0.00013941895682790688,6.438887006109767e-06,0.9999999899200379,-0.006921351591169874,-0.0016786882472802646,-0.0012311129656326263,0.0,0.0,0.0
1718024764.971297,124,1609059025.9754462,-0.0067487494164252424,0.0016778070839028188,-0.0019400933341225007,1.3786097664799492e-05,-0.00016334341621395098,1.8714089211795857e-06,0.9999999865626864,-0.010066867044091047,0.002870842310674933,-0.0011057090443412775,0.0,0.0,0.0
1718024765.0761945,125,1609059026.0792496,-0.00636054167611742,0.0004319016546192013,-0.0018351634845696306,6.805514830567218e-05,-0.00019087753976949727,1.8468563006555954e-05,0.9999999792965873,-0.003779681016923512,-0.003925046836134408,-9.484056959730152e-05,0.0,0.0,0.0
1718024765.177636,126,1609059026.1817498,-0.004859338223810976,8.426552629283057e-05,-0.0018335258878299726,7.563690781365155e-05,-0.0001790560660699586,-1.1493410192077685e-05,0.9999999810429431,0.00459703243102713,-0.004180634746697235,-0.0010174335225719994,0.0,0.0,0.0
1718024765.2510695,127,1609059026.2529747,-0.002866508694678951,0.0021176058766148444,-0.0005640134700240897,1.64003981138233e-05,-0.00012849886701612952,-4.7956263423342e-05,0.9999999904596341,0.012088281867154969,0.008015112947902175,0.007366768879680701,0.0,0.0,0.0
1718024765.3508956,128,1609059026.3531616,-0.002014440375216514,0.0024392843838225136,0.0006989521329881104,1.472871996857366e-05,-0.00011120260543501097,-6.346744002084823e-05,0.999999991694466,0.010568653737647472,0.006820816015382356,0.010657132434973467,0.0,0.0,0.0
1718024765.45367,129,1609059026.4569666,-0.002293860898158184,0.002349688629806852,0.0006428540774202845,4.52372102031393e-06,-0.00012420460129055502,-5.2058190961507724e-05,0.9999999909213497,0.0052225164437833356,0.003889380951939507,0.003485166006746372,0.0,0.0,0.0
1718024765.5567899,130,1609059026.560173,-0.0031657272762323683,0.002101923852038762,-6.222384422221896e-05,-7.444915655669455e-06,-0.00014253245188170622,-2.4241737878522034e-05,0.9999999895207062,-0.000786805476134295,0.0012311443322736417,-0.003117843176996928,0.0,0.0,0.0
1718024765.6595476,131,1609059026.6638765,-0.0034225602975671778,0.001630924982298226,-0.0012987532356400506,-4.271213908924365e-05,-0.00015136526901408557,-7.594552992913609e-06,0.9999999876032757,-0.0012511356716223324,-0.0006690145760430213,-0.008542006041758574,0.0,0.0,0.0
1718024765.7613692,132,1609059026.7665226,-0.0029325677709596543,0.0018179800165068463,-0.001982789969679676,-2.2552550851062396e-05,-0.0001337496972393817,-1.2620723496296017e-05,0.9999999907215594,0.0017146909839649222,0.0008598044236353159,-0.007870284608231998,0.0,0.0,0.0
1718024765.8653386,133,1609059026.869423,-0.004705574902798329,0.0014485014360979002,-0.002124018862741995,6.115550483648504e-06,-0.00014269144308424808,7.433819703103476e-06,0.9999999897732456,-0.00677431003931881,-0.00015736639946258685,-0.003890161488106888,0.0,0.0,0.0
1718024765.968927,134,1609059026.9728374,-0.005539405808585921,0.0008461687826816689,-0.0022047130783859705,5.645474208107359e-06,-0.00016625361140585625,1.4280840090857706e-05,0.9999999860619617,-0.007359373841927647,-0.0026040984118785113,-0.0017063371596639904,0.0,0.0,0.0
1718024766.0722852,135,1609059027.07606,-0.006331874163830315,0.0005588287725340088,-0.001830345302891164,4.401343333252142e-05,-0.00019191619539266137,-9.780201704628987e-06,0.9999999805676697,-0.007097213497249062,-0.003285839570328476,0.0014957431585334538,0.0,0.0,0.0
1718024766.1752715,136,1609059027.178655,-0.005538186468667782,0.00010081892587613883,-0.001428637065247262,6.266632082051338e-05,-0.00017591962070703126,-4.877997196398353e-06,0.9999999825507135,-0.0004067084045123138,-0.004797889201301531,0.0032987842713250886,0.0,0.0,0.0
1718024766.280477,137,1609059027.2832828,-0.004863545144126337,0.0006370839098188176,-0.0012800763615526342,8.346556582479598e-05,-0.00016538409768281054,-1.3050466665658666e-06,0.9999999828399495,0.002294015451424436,-0.00171819621156069,0.0021235456823113477,0.0,0.0,0.0
1718024766.3507257,138,1609059027.353423,-0.003309537771116284,0.001107332796303249,-0.0005059427865309327,7.080270717761771e-06,-0.00013440439947539498,-3.758140406848423e-05,0.9999999902364839,0.008619944944113698,0.003331011243896955,0.005936757776151384,0.0,0.0,0.0
1718024766.4510677,139,1609059027.4535656,-0.001960957926673665,0.0012255765553050315,0.0006334416336587439,2.3504695626550032e-05,-0.00011527204444470931,-8.497071831185267e-05,0.9999999894699324,0.011197324132859579,0.0028659778195085765,0.009929027428824712,0.0,0.0,0.0
1718024766.5528386,140,1609059027.557109,-0.0028131738737566226,0.002095608105162169,0.0002985274207617742,-3.8350616282793037e-07,-0.000137624731244191,-4.879085749021344e-05,0.999999989339371,0.002722774707026929,0.005724215710597577,0.0017103809378223884,0.0,0.0,0.0
1718024766.6561234,141,1609059027.6595051,-0.0029313543009119626,0.0033820458863480615,-0.0002154933783580743,-5.921415682804802e-06,-0.00013116515991432195,-4.746803484725766e-05,0.9999999902537131,0.0010607850980190786,0.0088959909340212,-0.0032860830037632323,0.0,0.0,0.0
1718024766.7610052,142,1609059027.7642024,-0.0044714189544578006,0.003220726778413361,-0.0012406595472728365,-2.416333568589453e-05,-0.00011586761314729979,-2.9849883891312947e-06,0.9999999929909613,-0.006196512485958093,0.005119131047281554,-0.007113719013558126,0.0,0.0,0.0
1718024766.8631399,143,1609059027.8663113,-0.00502230314108702,0.0033154339869166157,-0.0016162608997787099,-1.4128896069788734e-05,-0.00012584454195517573,-1.4534811141758967e-05,0.9999999918761338,-0.004905720784359568,0.003732732369054686,-0.005081150553435537,0.0,0.0,0.0
1718024766.9654634,144,1609059027.9694633,-0.00463658006908589,0.002371123394143262,-0.001832666364627473,8.804392524539259e-06,-0.00014980403094796865,-1.8306078746218765e-05,0.9999999885730626,-0.000570071473367348,-0.0015696198054587556,-0.00266607119535913,0.0,0.0,0.0
1718024767.0737503,145,1609059028.0726435,-0.0050638606133048625,0.0009500729676584458,-0.0020981117575179964,-1.507623318657009e-07,-0.0001850953796334737,7.240508125931197e-06,0.9999999828436277,-0.0017603767466524468,-0.006434797322489789,-0.0028568610452879496,0.0,0.0,0.0
1718024767.1717007,146,1609059028.1755977,-0.005323241484278115,0.00019667160351312442,-0.0019938818193699047,4.4352205665911085e-05,-0.000178239676252895,9.916159290536995e-06,0.9999999830825856,-0.0022628808289907793,-0.007535630208146285,-3.235359907219305e-05,0.0,0.0,0.0
1718024767.2749596,147,1609059028.2784286,-0.005902480182657253,0.00021664587764257432,-0.001661541110111138,7.716661038490282e-05,-0.000145609136051852,5.477993605781055e-07,0.9999999864214979,-0.00419889791453595,-0.004507815252858729,0.0019139495264703038,0.0,0.0,0.0
1718024767.3778262,148,1609059028.3814416,-0.006258483871030537,-0.0002901297995411679,-0.0014104692485280138,8.581131477028768e-05,-0.00016685107089455756,3.1645501547628997e-06,0.9999999823935636,-0.0038658901737248378,-0.005207406199640857,0.0026119885382059685,0.0,0.0,0.0
1718024767.4495814,149,1609059028.453259,-0.004002006803162603,-0.00010214237615378124,3.4514870540868655e-05,1.1773428472528878e-05,-0.00013761699136485101,-5.170420302340839e-05,0.9999999891248145,0.007149674126981025,-0.00045014166358474253,0.010520044943378496,0.0,0.0,0.0
1718024767.5542934,150,1609059028.5536344,-0.0021617622995762868,-0.00038232655638408903,0.0007284116129592866,1.8001147013562073e-05,-0.00013889495517151735,-6.131181988703933e-05,0.9999999883125069,0.012056016678562428,-0.0003208171330699949,0.008178149441088231,0.0,0.0,0.0
1718024767.6520889,151,1609059028.6564279,-0.0016581657855045866,0.0005437340770320353,0.0004629746788738282,-2.372486527893567e-07,-0.0001342691407895169,-3.969033959372381e-05,0.9999999901982107,0.008668714652706177,0.003503262308513453,0.001187802769813652,0.0,0.0,0.0
1718024767.7559721,152,1609059028.7595475,-0.0027188082928938833,0.0022865382883386918,-0.0004095470928804033,-2.438693911822036e-05,-0.00012325430184829503,-3.689810114784036e-05,0.9999999914260941,0.00015989057003908125,0.010001477300737444,-0.004497177517790221,0.0,0.0,0.0
1718024767.8622603,153,1609059028.8632205,-0.004471255255961422,0.0029280184790617192,-0.0012751515171353723,-2.8038754566416327e-05,-0.00011923971053230308,-1.7350390335481956e-05,0.999999992347344,-0.007170149913875409,0.008959036587256755,-0.00713099280996606,0.0,0.0,0.0
1718024767.9639525,154,1609059028.9665215,-0.005525516662296515,0.005310604625001468,-0.0022140324761836744,-4.044545128277926e-05,-0.00017267651690063753,-4.3634622226254675e-05,0.9999999833215045,-0.0077544488655061725,0.015553591882008755,-0.007960650475348195,0.0,0.0,0.0
1718024768.0650535,155,1609059029.068982,-0.005227686789944138,0.005331521523115695,-0.0024895137177033673,-1.1367967652694334e-05,-0.00017848289118506085,1.5882312284898003e-06,0.999999984006054,-0.0024707395235662915,0.00983043110528595,-0.004012527331775227,0.0,0.0,0.0
1718024768.1679153,156,1609059029.1718645,-0.0059466901932751625,0.004460033725925234,-0.0024147641660104808,-1.1040118538202253e-05,-0.00016715296372181028,-2.4787510614103532e-05,0.999999985661794,-0.004181727705742834,0.002641305429911198,-0.0017467693891452343,0.0,0.0,0.0
1718024768.2715044,157,1609059029.275007,-0.005937365701880211,0.0031115514612107356,-0.002000086267678038,3.559300593164769e-05,-0.00015918397538969607,-3.29243764012407e-07,0.9999999866967497,-0.0023031547156944984,-0.004110430110529595,0.0005581547774899265,0.0,0.0,0.0
1718024768.3740873,158,1609059029.3781216,-0.0061609944103734725,0.002162770287864696,-0.0017127574780653606,7.27669668818024e-05,-0.00016447460286264526,-1.6328730956102358e-05,0.9999999836932267,-0.0019616773868711915,-0.007265138836905806,0.0024500385873737936,0.0,0.0,0.0
1718024768.4777722,159,1609059029.481734,-0.006117690446446944,0.001025377394822373,-0.0014929108208630198,0.00010570649124217708,-0.0001951887480642943,-5.071918590076007e-06,0.9999999753508858,-0.0011591561768709224,-0.009429392025739305,0.0018411194857151057,0.0,0.0,0.0
1718024768.55045,160,1609059029.5536451,-0.004530160027737155,0.0006978475106892862,-0.00038321798407211594,8.911392331511916e-06,-0.00017308089750299807,-5.234932700910297e-05,0.999999983611572,0.0061286057999026845,-0.005488010130490588,0.00851946320093603,0.0,0.0,0.0
1718024768.6518376,161,1609059029.655103,-0.0036207786983735875,0.0010598702145215339,0.00013674075578658994,-1.3648569899821828e-06,-0.00013461968191471628,-2.6525129828306916e-05,0.9999999905860506,0.007555278354328168,-0.0010999600262570908,0.00615165725949985,0.0,0.0,0.0
1718024768.7550297,162,1609059029.7579055,-0.0037502812584859395,0.00263863364643621,-6.205136202060472e-05,-5.513934343403673e-06,-0.00011660895737022486,-4.978515744872858e-05,0.9999999919466958,0.003466265057817019,0.006404038970103174,0.0008843392781544782,0.0,0.0,0.0
1718024768.8633945,163,1609059029.8665793,-0.004348983743299849,0.0030959127010336696,-0.0010733136861290733,-1.0628928502721283e-06,-0.00014503627773367232,-2.261483999758394e-06,0.99999998947912,-4.965401026366849e-05,0.005384028728811532,-0.005035849896503571,0.0,0.0,0.0
1718024768.966251,164,1609059029.969794,-0.006205632061403723,0.00249705983564432,-0.0020560819454567675,-1.6068491118639276e-05,-0.0001860458953177217,1.949771628146762e-06,0.9999999825624662,-0.007337599093009297,0.0006237995808949402,-0.007365719759851413,0.0,0.0,0.0
1718024769.0693936,165,1609059030.0728164,-0.0068483887555324426,0.0036674486335927163,-0.002173294221677412,3.561228501030995e-05,-0.00019099166032960938,-1.5754250466206486e-05,0.9999999810028796,-0.006561294877979116,0.005019211483631426,-0.0034293955077910557,0.0,0.0,0.0
1718024769.1736143,166,1609059030.1768498,-0.00630875829505849,0.002157710939985665,-0.0021891359918383246,4.785243580118528e-05,-0.00017483509460558425,1.621018752483648e-05,0.9999999834400344,-0.0014761398934050015,-0.0037618867985810024,-0.0014538421912229905,0.0,0.0,0.0
1718024769.2891245,167,1609059030.2791622,-0.006460930465772805,0.0016344061809501242,-0.0021211367845375985,7.058629442992367e-05,-0.0001652964350403068,5.5318479685058435e-06,0.9999999838320338,-0.0016197879918661252,-0.004332977878101599,-0.00014148375113810893,0.0,0.0,0.0
1718024769.378134,168,1609059030.3820486,-0.006699369882041931,0.0030470848526189765,-0.00165713212107104,9.24513140602243e-05,-0.00018406733589043596,-2.3718244069297822e-05,0.9999999785047093,-0.0017611261825672758,0.002423748201566168,0.0032735545107809446,0.0,0.0,0.0
1718024769.4513972,169,1609059030.4557362,-0.004926822732613227,0.003730058344353867,-0.0006015168087005354,-1.6026079519844436e-05,-0.000152845665137233,-5.26629464818786e-05,0.9999999868039927,0.007288394079934693,0.007078174084639574,0.008613637513190681,0.0,0.0,0.0
1718024769.560898,170,1609059030.5587542,-0.0035949582360178065,0.004199701487605641,0.00010695403814790123,6.331703724278627e-06,-0.00014917774300223999,-4.1865256988295004e-05,0.9999999879766075,0.010001838178145737,0.006690140276423221,0.007969797318168645,0.0,0.0,0.0
1718024769.6581519,171,1609059030.6618514,-0.0030437781430233115,0.0024945934938952895,-0.0003568484529468083,-1.549235862620903e-05,-0.00015426483216059292,-2.0618638009656162e-05,0.9999999877686121,0.007755087398906813,-0.002448665875747641,0.0002672098499916526,0.0,0.0,0.0
1718024769.7615874,172,1609059030.7659643,-0.0035744124386564084,0.0027408082564677697,-0.001322738038516249,-2.195834515686426e-05,-0.00011921988302245996,-1.5979803109395017e-05,0.9999999925245501,0.0019233180010583325,0.000574480524690564,-0.006026930028742101,0.0,0.0,0.0
1718024769.8641589,173,1609059030.8681095,-0.003913336904097257,0.0037111454555171257,-0.0021904493501138265,-1.683191329925502e-05,-0.00015188726003447376,-1.708957102966792e-05,0.999999988177448,0.00019515959746261723,0.00432673509591252,-0.007243570305238825,0.0,0.0,0.0
1718024769.966791,174,1609059030.9712808,-0.004511647804978574,0.003954915269431296,-0.002439232629125652,-7.244064632402008e-06,-0.00018728534646439397,-9.901444011326697e-06,0.9999999823868432,-0.0018774693187876708,0.0038328492441737907,-0.0037431240867400834,0.0,0.0,0.0
1718024770.0720143,175,1609059031.0748515,-0.0070882050812207924,0.0041536378804038964,-0.002276682272289695,1.6452320659699783e-05,-0.00019635696967372273,-2.0163782072506738e-05,0.9999999803833436,-0.012579761293455666,0.00240367049088698,-0.0007606383440018601,0.0,0.0,0.0
1718024770.1743965,176,1609059031.176803,-0.007501980560246481,0.004045523213519783,-0.0024582865564829305,1.4938652520885639e-05,-0.00017229057976429345,1.1003009749110964e-06,0.9999999850457929,-0.009234455804689005,0.0007370441979649785,-0.002698798869462107,0.0,0.0,0.0
1718024770.2756093,177,1609059031.2799277,-0.006053057577277105,0.002992331090145322,-0.002174810202369106,4.297752124673727e-05,-0.00015759133784254398,6.634566052096214e-06,0.9999999866369446,0.0012237468604845946,-0.004205352190971097,0.00011921188383912616,0.0,0.0,0.0
1718024770.380971,178,1609059031.383391,-0.00619681847573842,-0.0014306081742045723,-0.0017996171770484999,0.00010065887618439186,-0.00017904479612197434,9.733216225902607e-06,0.9999999788580097,0.0003580850647585919,-0.02083238021972797,0.0028765084333944825,0.0,0.0,0.0
1718024770.450543,179,1609059031.4539027,-0.004738988211585401,-0.0010201238030139491,-0.000809820037696655,-2.478340169292408e-06,-0.00015330541043944543,-2.45560166849164e-05,0.9999999879441579,0.0074331457000292684,-0.010585820280049642,0.008592075590419346,0.0,0.0,0.0
1718024770.5517375,180,1609059031.5552037,-0.0030620971934988846,2.6521212406831706e-05,0.0003714235678431624,-4.4896027794476995e-06,-0.0001570158117903614,-3.780669254834956e-05,0.9999999869482684,0.011983380541081027,-0.0015613988180687589,0.01066219935304483,0.0,0.0,0.0
1718024770.6571107,181,1609059031.6598604,-0.0030534787858102737,0.0006249050327001905,-0.0002950044655809535,-3.0910562338212515e-05,-0.00013318397631093372,-3.8824809935361264e-05,0.999999989899602,0.006006791762571956,0.002077825780998618,-0.0002201590343502511,0.0,0.0,0.0
1718024770.7573211,182,1609059031.7617936,-0.0031535184222494616,0.003365724757171167,-0.0010072701572631576,-3.593028583339991e-05,-9.45230149830129e-05,-2.4885853389964397e-05,0.999999994577557,0.003059806706232937,0.01306529868940662,-0.004421062973086323,0.0,0.0,0.0
1718024770.863155,183,1609059031.8653603,-0.004267126336907945,0.004134727772360399,-0.0014903625341488452,-1.704101543505446e-05,-0.0001394426337439991,-1.6762462074264552e-06,0.9999999901312759,-0.0024124950725202174,0.010950732263051755,-0.0036533841939026626,0.0,0.0,0.0
1718024770.9673812,184,1609059031.9678416,-0.0042338365916113245,0.005199206618726475,-0.0020543482107013185,-2.5816609577353697e-05,-0.00018615885628229986,-1.3819142907797476e-05,0.9999999822437098,-0.0008916013076483678,0.010748388560790334,-0.004100464103372361,0.0,0.0,0.0
1718024771.0717251,185,1609059032.0709758,-0.00474413710267048,0.006092713064949803,-0.0021820367359165703,-5.576645679941028e-06,-0.0001824758617199193,-2.1437981062799573e-05,0.9999999831059397,-0.002799088068815125,0.010381774694234102,-0.003035292785598071,0.0,0.0,0.0
1718024771.1720195,186,1609059032.175686,-0.006500574743709247,0.006465511859939971,-0.002166397275281917,2.352909302077247e-05,-0.00015455963022361762,-3.204652979045735e-06,0.9999999877737191,-0.009320642587802175,0.0072643059696234115,-0.001991979068572726,0.0,0.0,0.0
1718024771.2846093,187,1609059032.2770722,-0.007014462760011581,0.00550597401787046,-0.0020830792239408696,4.588605452576523e-05,-0.00013083033884061317,-2.7404261547071385e-05,0.9999999900134517,-0.0073541008777791884,-9.977500471501036e-05,0.00011203794367978118,0.0,0.0,0.0
1718024771.3769403,188,1609059032.3813946,-0.007767600551793611,0.003664077378394896,-0.0017040486478484705,8.348368059809518e-05,-0.00018791421658606353,6.253164330546273e-06,0.9999999788398122,-0.006368477261572896,-0.00748702760295233,0.0023414936586922614,0.0,0.0,0.0
1718024771.4796572,189,1609059032.4835973,-0.007431142513500779,0.0026966498819619433,-0.0014583613258552827,0.00011314710409064075,-0.00020508935165135467,-3.688308238676929e-05,0.9999999718878665,-0.001494814994433706,-0.009730548432010228,0.002323167639032201,0.0,0.0,0.0
1718024771.5529149,190,1609059032.5536149,-0.006332359719775368,0.0028673871213492626,-0.0006251312472554497,7.911191896895038e-06,-0.00017928792872102755,-6.589855261571119e-05,0.9999999817253187,0.0040009810362887826,-0.0034402427044472133,0.006438739067130681,0.0,0.0,0.0
1718024771.6517553,191,1609059032.6552956,-0.003821440334010446,0.002961882457870183,8.396011049856427e-05,-8.900057305870423e-06,-0.00010761291798944932,-4.2060851421845205e-05,0.9999999932855695,0.01348837929860032,-0.00025206871227022786,0.005807444869873039,0.0,0.0,0.0
1718024771.7537599,192,1609059032.7584608,-0.0034218731838431262,0.002492957140620459,-0.0006374047979424052,-4.244001984434457e-05,-0.00010271815378979481,-2.583567434450545e-05,0.9999999934901741,0.009397796686037345,-0.0014962749541573344,-0.0025028457960045523,0.0,0.0,0.0
1718024771.8590996,193,1609059032.8617327,-0.004234796868689355,0.0030592878008814015,-0.0008274852288633307,-8.010748995830345e-06,-0.0001295692452536797,-2.4878496931805626e-05,0.9999999912643521,0.0018249912977972536,0.0014092640795078885,-0.0009862352469828962,0.0,0.0,0.0
1718024771.961351,194,1609059032.9654136,-0.004900910862979082,0.0028668100952382505,-0.0015305817961082698,-2.6649635658490307e-05,-0.00016009885289088022,-7.245510825910244e-07,0.9999999868288174,-0.0012064652303400009,9.923510641847932e-06,-0.004623977600430378,0.0,0.0,0.0
1718024772.0638537,195,1609059033.0680783,-0.005446300682652551,0.0028298391670146753,-0.002316270704061076,-2.9805296690771923e-05,-0.00016325707481183426,-2.1296568345289936e-05,0.9999999860026176,-0.0031569301507004296,0.0003928642850579415,-0.006745292961278004,0.0,0.0,0.0
1718024772.1668718,196,1609059033.1708503,-0.004497972287008979,0.002686314450593866,-0.0021897677280641697,9.112238296817942e-06,-0.00014377120386388772,-1.6532637534146935e-05,0.9999999894867436,0.001999612400425673,-0.0006441656983875854,-0.0019782743189890872,0.0,0.0,0.0
1718024772.2700753,197,1609059033.2735696,-0.006055273964423961,0.002861444850756219,-0.0024019609879007177,1.8581183480441002e-05,-0.00013578555340564626,1.4538338385715092e-05,0.9999999905028331,-0.0055199184095876125,-8.028382644048788e-05,-0.0024177265463645164,0.0,0.0,0.0
1718024772.3731573,198,1609059033.3766053,-0.006418704894499671,0.002095576879984043,-0.002237836564822939,3.8265496954714766e-05,-0.00016273318564488187,-1.5699188238047245e-06,0.9999999860256017,-0.003961769767478129,-0.0035813604441234906,-3.655315211645695e-05,0.0,0.0,0.0
1718024772.47691,199,1609059033.4799383,-0.005997113888149799,0.0019277685883630291,-0.001942428613601733,6.954908026962318e-05,-0.00021741397736201604,-1.3302882658151448e-05,0.9999999738585639,-0.000246015282740169,-0.003038971478157004,0.0022478167812398416,0.0,0.0,0.0
1718024772.5819035,200,1609059033.5830877,-0.006521315978524488,-5.791731582750915e-05,-0.0013431703586173844,9.856832504134698e-05,-0.0001679497644779493,2.9378842483909044e-05,0.9999999806070263,-0.0026095181442528023,-0.010830314549092529,0.0039508322757984705,0.0,0.0,0.0
1718024772.6494396,201,1609059033.6532528,-0.00459661055517131,0.001514196002649929,-0.0004095486662895807,5.53156588030089e-06,-0.00011972567521555753,-6.365460124346644e-05,0.9999999907916323,0.006662324107306345,0.0010737014909864128,0.008078192388057364,0.0,0.0,0.0
1718024772.7511883,202,1609059033.7549644,-0.003184678701446687,0.0019398302688206697,0.00018709722745231165,-1.6452052475056728e-05,-9.407096924372129e-05,-5.890018858752633e-05,0.9999999937053792,0.009929313334515183,0.00335181933962322,0.00646748960041233,0.0,0.0,0.0
1718024772.854211,203,1609059033.8582103,-0.0030247406052806036,0.001826925170302949,-0.0001969940996402927,-1.3320816216012323e-05,-0.00011471901051120857,-2.8348587622236237e-05,0.999999992929235,0.006734522258152737,0.002376522175075723,8.143520346358141e-05,0.0,0.0,0.0
1718024772.9583435,204,1609059033.9615805,-0.0033057092523493124,0.0023662722998813333,-0.0011822610136389036,-2.3347415639375807e-05,-0.0001628618439622831,-1.9934491404969104e-05,0.9999999862667706,0.003037760494305649,0.00394457900265539,-0.006014888661035614,0.0,0.0,0.0
1718024773.0621054,205,1609059034.064917,-0.004120543046226458,0.0023004548702303253,-0.0016277258177183603,-2.8886217100977333e-05,-0.00015469110478689058,-8.233730056300531e-06,0.9999999875842309,-0.0015115349346072728,0.003274011161231547,-0.0049213333368889,0.0,0.0,0.0
1718024773.1634443,206,1609059034.1677926,-0.004882112662489019,0.0019886634248609935,-0.0019851349206818666,-5.739430403826558e-06,-0.00012560511364631376,1.872745184806824e-05,0.9999999919198527,-0.004539375820486899,0.0007866937069397311,-0.004816217390069754,0.0,0.0,0.0
1718024773.2670798,207,1609059034.2709835,-0.004347933238559198,0.0014929219623170033,-0.0022586080954551464,-2.4590636352350684e-06,-0.0001334771480051258,5.547567419561185e-06,0.9999999910735194,0.00020127217026051376,-0.001654851440026664,-0.003369260253069071,0.0,0.0,0.0
1718024773.370445,208,1609059034.3743782,-0.004480379663763372,0.0030099590815971136,-0.0022348748022624283,1.470164172038689e-05,-0.0001817471834308377,-1.2479089657267738e-05,0.9999999832980531,0.000330681211361371,0.004799076189444062,-0.0009096185244340939,0.0,0.0,0.0
1718024773.4729757,209,1609059034.477204,-0.005437623724652714,0.0031665967552706314,-0.0022094087883498454,3.860885838102635e-05,-0.00019410825440930327,-2.567718681484655e-07,0.9999999804156425,-0.003541330715062862,0.0030292914709084016,-0.0009176110644444312,0.0,0.0,0.0
1718024773.5784752,210,1609059034.5802407,-0.005658477666933741,0.002592815555599352,-0.001744815553458514,7.96797216703315e-05,-0.00017765592066073356,-7.136813441357731e-06,0.9999999810192959,-0.0034889323047587535,-0.0010350274715642828,0.002577458340847471,0.0,0.0,0.0
1718024773.6801245,211,1609059034.6840475,-0.0058146678239242916,-0.00137578073724689,-0.0014491148059090693,0.00012501004525729403,-0.00015975191460694665,3.32443554689109e-05,0.9999999788733186,-0.00280491941518747,-0.01630703900766616,0.0026176569936376543,0.0,0.0,0.0
1718024773.7510805,212,1609059034.7543893,-0.004918236489174413,-0.0010494457045751998,-0.0007206549224710105,-1.0247060555438907e-05,-0.00012669211096758167,-1.617961216233302e-05,0.999999991791168,0.0030140005248064108,-0.007823692108792836,0.006719376197137408,0.0,0.0,0.0
1718024773.855493,213,1609059034.854861,-0.004379396520329083,-0.001102069018894489,0.0002492047328904148,1.136880104959904e-05,-0.0001260328091212972,-6.445360543157103e-05,0.9999999899161115,0.0053275379721105,-0.004035473358087675,0.009389621862371618,0.0,0.0,0.0
1718024773.9544086,214,1609059034.9579124,-0.004071736766773987,-0.00015938900268801766,2.9964818294433386e-05,-9.645417061608825e-06,-0.00015498698168209667,-3.3155212699677095e-05,0.9999999873933715,0.004985221120500192,0.0023542294323022324,0.002539140046542064,0.0,0.0,0.0
1718024774.0572708,215,1609059035.061247,-0.003901944385747425,0.0012840692282151745,-0.0009347771996627595,-2.1322745431475444e-05,-0.00014307413866988602,-5.142630624798987e-06,0.9999999895243467,0.003427682332505381,0.007336624681455592,-0.005188593527718932,0.0,0.0,0.0
