time,field.header.seq,field.header.stamp,field.pose.pose.position.x,field.pose.pose.position.y,field.pose.pose.position.z,field.pose.pose.orientation.x,field.pose.pose.orientation.y,field.pose.pose.orientation.z,field.pose.pose.orientation.w,field.twist.twist.linear.x,field.twist.twist.linear.y,field.twist.twist.linear.z,field.twist.twist.angular.x,field.twist.twist.angular.y,field.twist.twist.angular.z
1718026248.5673506,3,1609043644.0483356,-0.00258094067173209,0.002624176242378326,0.0007782722649824821,-0.00017046056108838,-4.06147015988736e-05,-6.29071864975235e-05,0.9999999826681641,-0.0007201359010187095,-0.0033449961749188553,0.0012067783137564752,0.0,0.0,0.0
1718026248.661554,4,1609043644.1428456,-0.0034140680103934146,0.002307649398521821,0.0008936604109525384,-8.687822970355622e-05,-6.09811480997024e-05,-6.808070857435284e-05,0.9999999920492445,-0.004733630745896996,-0.005845314802215759,0.000821492574164648,0.0,0.0,0.0
1718026248.7755606,5,1609043644.2544737,-0.0035412809748818007,0.0028597144783609908,0.0003209587668001255,-0.0002976474968668692,-1.2724418226388296e-05,-6.505604021842809e-06,0.999999955600865,-0.0010494425467511381,-0.0034879302624854364,-0.004758063867477038,0.0,0.0,0.0
1718026248.8660758,6,1609043644.3490796,-0.003825754157667354,0.005291824487542831,0.0006732276828707045,-0.00018285236985112185,-5.877614852797755e-05,-9.377083076016245e-05,0.9999999771587016,-0.0007139349405920761,0.0110455475800764,0.0001861251275312387,0.0,0.0,0.0
1718026248.9623952,7,1609043644.4427984,-0.003630275694487213,0.005272163202679842,0.001343624651043501,-0.00010363098940568025,-6.256082787391134e-05,-0.00019509527180626483,0.9999999736422966,0.0007321695472408431,0.007644618497217318,0.004245649270588165,0.0,0.0,0.0
1718026249.0724928,8,1609043644.5545394,-0.0041106334493616215,0.005508682240530193,0.00047635729704115454,-0.0002581897441936657,-1.65478483110058e-05,-3.155812871040387e-05,0.9999999660341526,-0.0017293681420390379,0.0028268500863873917,-0.004288998130921745,0.0,0.0,0.0
1718026249.1654887,9,1609043644.648283,-0.003842638212121799,0.0058288856601179315,0.00062701913265967,-0.00017498171588817586,-2.674479415286735e-05,-4.435497151898238e-05,0.9999999833493745,0.0010349724188840552,0.004286903961386649,-0.0009255776642708917,0.0,0.0,0.0
1718026249.262483,10,1609043644.742824,-0.003613761525448042,0.0061757508095813835,0.0008092455789955387,-8.934618550776874e-05,-8.302539432451889e-05,-0.0001896384271499431,0.9999999745806538,0.002208576931714934,0.0046202372995313426,0.0012514327966835065,0.0,0.0,0.0
1718026249.372167,11,1609043644.8537562,-0.004111163369518981,0.006014024797506672,1.1897858672233899e-05,-0.0002374926413603898,-3.025082237547363e-05,-8.262936551618e-05,0.9999999679272596,-0.0011216681991713905,-0.0008750034852540762,-0.004808678458844575,0.0,0.0,0.0
1718026249.4658473,12,1609043644.948105,-0.004897678803985311,0.005864772917088345,0.00032791378154110667,-0.00015386317425721943,-7.810814230543372e-05,-8.726289457062468e-05,0.9999999813052135,-0.004382437680658644,-0.0007814118908074512,-0.0003948742621175602,0.0,0.0,0.0
1718026249.5609996,13,1609043645.0435874,-0.003194075931479021,0.004716955171091282,0.0013199401666212128,-8.790551034788375e-05,-4.828346093574983e-05,-6.688927315788316e-05,0.999999992733576,0.0075858165306522205,-0.004249123708592231,0.005881428283719664,0.0,0.0,0.0
1718026249.6732178,14,1609043645.1536674,-0.00455947451160105,0.004122265748419858,0.0005196660825487965,-0.0002694039808459311,5.710559102646871e-06,-8.701127667802965e-06,0.9999999636565856,-0.0030690035481863095,-0.007426529684254086,-0.0028965249790213867,0.0,0.0,0.0
1718026249.7661426,15,1609043645.2475128,-0.0047382242826561494,0.005537858296471141,0.0006757863192229437,-0.0001661156967569776,-4.1297167705027174e-05,-9.835244341292564e-05,0.9999999805134575,-0.0014050016885035401,0.0041690002187456665,0.00020114201576000622,0.0,0.0,0.0
1718026249.8609595,16,1609043645.3440404,-0.0038341734905732654,0.005714735837649409,0.001322879259585412,-8.005778411527668e-05,-7.668536503259014e-05,-8.380383658581226e-05,0.9999999903435111,0.004140749877590282,0.0055690361992598355,0.004727461918397905,0.0,0.0,0.0
1718026249.971693,17,1609043645.453453,-0.0038976783228282415,0.005425967459254874,0.0003162863294616502,-0.00023535544994117224,-2.3335460955914273e-05,-7.803212608170787e-05,0.9999999689871267,0.0024691629313883506,0.0005651817900669117,-0.004838562626781595,0.0,0.0,0.0
1718026250.0709772,18,1609043645.5487955,-0.004454523541535181,0.006300820406570613,0.00024907103806538473,-0.00020602630865266936,-2.2719121950081154e-05,-8.475579716545668e-05,0.9999999749267273,-0.0008842833569326055,0.005014671485253288,-0.002416213207367261,0.0,0.0,0.0
1718026250.160888,19,1609043645.6442993,-0.0049815966604178225,0.007682340919760244,0.0010775120839494794,-0.00012239460287383674,-5.412876687291636e-05,-0.0001118323778144811,0.9999999847915783,-0.0031507701342543986,0.010602506221939366,0.003891746953360515,0.0,0.0,0.0
1718026250.2722137,20,1609043645.755131,-0.004098941651807615,0.006282608519581957,0.0001349990298667785,-0.0002751188155632615,-2.5951405775263592e-05,-4.501149523315112e-05,0.9999999608050625,0.0029727799457160663,-0.0009204107902700369,-0.004779994821303247,0.0,0.0,0.0
1718026250.3652809,21,1609043645.8469865,-0.0034494879796862525,0.0051332970020321845,0.0007191795060036498,-0.000145607737338376,-4.9773731296293865e-05,-6.0558836470805685e-05,0.9999999863267939,0.004508119211953884,-0.003718109855157151,0.0012788528397745177,0.0,0.0,0.0
1718026250.460403,22,1609043645.9437935,-0.003457121070597314,0.0052437464586897395,0.0013000206749217075,-9.711615434290458e-05,-6.21591999223287e-05,-0.000102402059876915,0.9999999881092518,0.0029426028810248498,-0.000693937310233875,0.004221980281732467,0.0,0.0,0.0
1718026250.5717533,23,1609043646.054741,-0.004176191080134202,0.00457763478332512,0.00040463351959194504,-0.00024931873424115486,1.5559139486669556e-06,-4.119834579000664e-05,0.9999999680702205,-0.0021095447979871886,-0.005086360317708009,-0.003911665943375374,0.0,0.0,0.0
1718026250.665129,24,1609043646.148298,-0.004595655903866731,0.005476126113811684,0.0008836669730753618,-0.0001594567821131619,-3.45661163118973e-05,-1.9119969941645418e-05,0.9999999865065714,-0.0028044054113253326,0.0031330094031353168,0.0009480634676579053,0.0,0.0,0.0
1718026250.7607331,25,1609043646.2435899,-0.004538638295758032,0.006920600436681725,0.001331941504600676,-9.829974020553328e-05,-6.661566271387785e-05,-0.0001698148896941885,0.9999999785312078,-0.0005389821081327366,0.010595319387638373,0.00367290323216739,0.0,0.0,0.0
1718026250.8720176,26,1609043646.3547957,-0.004120801923276712,0.007007392262114757,0.0006784586317328896,-0.0002721860781944156,1.7099787303317023e-05,-1.460466672944084e-05,0.9999999627045179,0.0020102113004259797,0.005099573278977079,-0.0032449203086820063,0.0,0.0,0.0
1718026250.9657898,27,1609043646.4484806,-0.005068105855495176,0.0070056361079819055,0.000911235790244513,-0.000160876044212255,-4.5931817591399806e-05,-6.023007932307481e-05,0.9999999841907511,-0.003867698012302859,0.003967147063411639,4.426417935157051e-05,0.0,0.0,0.0
1718026251.0608559,28,1609043646.5420773,-0.005165977564592565,0.00768970982634361,0.001664923155882971,-8.868062754149236e-05,-6.32768105285651e-05,-0.00013602283380107844,0.9999999848147891,-0.0024096949183538855,0.006792751269318928,0.004704112142260188,0.0,0.0,0.0
1718026251.1719606,29,1609043646.6547694,-0.004869558006600843,0.006429208732481678,0.0007440624238832126,-0.00023516615923777016,-2.672697241831325e-05,-5.601754211822504e-06,0.9999999719755807,7.002332541292599e-05,-0.0025728385708469444,-0.0034675948757947614,0.0,0.0,0.0
1718026251.2648642,30,1609043646.7477064,-0.004072876192500549,0.005467213744507298,0.0008222141066846147,-0.00015814084749848494,-3.741043808298928e-05,-6.550145086221956e-05,0.9999999846507438,0.003825392407854988,-0.003285043824839297,-0.0003172320692747606,0.0,0.0,0.0
1718026251.3599596,31,1609043646.8436756,-0.0044187714632518285,0.006427502902169624,0.0014748103099401324,-8.486987321835211e-05,-8.336464042295545e-05,-7.722215620251735e-05,0.9999999899420875,0.0004619397680924739,0.003660577468548948,0.0038810204336642987,0.0,0.0,0.0
1718026251.4721441,32,1609043646.954687,-0.0047461672831118195,0.006238728802995767,0.0005176350175542896,-0.0002643583556062184,-1.9909625490367233e-05,-5.157653081654064e-05,0.999999963529061,-0.0012422855764958733,-0.00010382517157377558,-0.00521667555716002,0.0,0.0,0.0
1718026251.5653317,33,1609043647.0484443,-0.004087722533863516,0.006775488078509,0.0007038657076382934,-0.0001418928566014226,-5.481828193958649e-05,-1.467289859968182e-05,0.9999999883230372,0.0033834405027963143,0.00431936879491707,-0.00017379778602418742,0.0,0.0,0.0
1718026251.660399,34,1609043647.1431322,-0.004378893643642109,0.006033815748780018,0.0015458103535644532,-6.558055192657398e-05,-7.543473896086191e-05,-0.00010398924818812971,0.999999989597511,-0.00044361750005945163,0.0012749299145539267,0.005807856622622372,0.0,0.0,0.0
1718026251.771435,35,1609043647.2533827,-0.004429072508034335,0.005609307238183239,0.0008062962840056106,-0.00023645580439485547,-1.4593587076402424e-05,-2.5950006450625994e-05,0.9999999716011356,-9.838497557465745e-05,-0.0010205093403225039,-0.0017066748800682085,0.0,0.0,0.0
1718026251.865014,36,1609043647.3478925,-0.003403459476507813,0.0058998621083023025,0.0011552971207403023,-0.0001550959602011466,-6.0870154421059725e-05,-8.461473676466754e-05,0.9999999825402047,0.005280029537808336,0.003105706748823189,0.0012257241130691778,0.0,0.0,0.0
1718026251.9617755,37,1609043647.4433644,-0.003925295904562217,0.007030387596416709,0.0017982998304040354,-0.00010000930111348321,-6.130699687160992e-05,-0.00011078772620009204,0.9999999869828341,0.0005011014598048742,0.007617343888126507,0.004672108975777063,0.0,0.0,0.0
1718026252.071939,38,1609043647.5539763,-0.004535106875289777,0.006418152496488802,0.0007710589338107682,-0.00021448754257628777,-2.103626760474977e-05,-1.1979129854061503e-05,0.9999999767045334,-0.0026395843851674348,0.0010016975436329748,-0.003802546232322984,0.0,0.0,0.0
1718026252.1656659,39,1609043647.648556,-0.004922177161711208,0.006937275671393758,0.0009400193684520902,-0.00017033443441167892,-5.254344251656849e-05,-9.52120267988379e-05,0.9999999795800172,-0.00317245911139959,0.00529325705834487,-0.00045044270911079624,0.0,0.0,0.0
1718026252.2612917,40,1609043647.743755,-0.0055999029267840335,0.009391757271304696,0.0019478292553419376,-0.00011575739479975346,-5.967992853894914e-05,-0.00011657288215309473,0.9999999847246462,-0.004482768675112499,0.015471466908310165,0.006205441183159797,0.0,0.0,0.0
1718026252.372004,41,1609043647.8550954,-0.006073254515456043,0.009680619662104996,0.0007478767620986256,-0.0002537257354100136,-1.087053671669555e-05,-3.131507728892971e-05,0.9999999672622228,-0.0046105072013490405,0.00916149494583363,-0.004575284764740521,0.0,0.0,0.0
1718026252.4650838,42,1609043647.9484456,-0.005858391195638697,0.010109192323927131,0.0009212686073104246,-0.00018759565905638475,-4.1447436515645914e-05,-7.9131489788436e-05,0.9999999784140912,-0.0018914328515576306,0.01025991129094618,-0.00023329457074824922,0.0,0.0,0.0
1718026252.5610447,43,1609043648.0437155,-0.005012732183974194,0.009871926555965284,0.0016235055206472561,-9.270952535644045e-05,-5.606351455528615e-05,-0.00013892539076733052,0.9999999844807793,0.003116915304806098,0.007343704284282892,0.004517586884954967,0.0,0.0,0.0
1718026252.6710734,44,1609043648.1546316,-0.004632201758695343,0.008481089362221418,0.0007834657978676146,-0.0002655592263065947,-2.0683006378241338e-05,-3.736635458899227e-05,0.9999999638271309,0.003051275170849282,-0.001924755440002859,-0.002650092361353655,0.0,0.0,0.0
1718026252.7647161,45,1609043648.2484314,-0.004990108410268243,0.008398565151538017,0.0008286553720803148,-0.00017134284943522856,-2.844179858134429e-05,-0.00012216137977087946,0.9999999774546425,0.00016098884369562848,-0.0007121534293318237,-0.0010562436877970135,0.0,0.0,0.0
1718026252.8602464,46,1609043648.3431349,-0.005235199193472451,0.008283746207584788,0.0018224316186960733,-8.773692721410834e-05,-4.448004566950519e-05,-0.00015092434875036722,0.9999999837727973,-0.0011173611855988706,0.00034950039830731875,0.006421713900003251,0.0,0.0,0.0
1718026252.971888,47,1609043648.4549909,-0.005507395909455716,0.007486411408352108,0.0008388965080459242,-0.00023464126768576126,-1.6346063691400904e-05,4.426866874885635e-06,0.9999999723283403,-0.0012566539660184446,-0.004803214859227365,-0.003600464702760562,0.0,0.0,0.0
1718026253.0656383,48,1609043648.5484207,-0.005976100216142215,0.007071163811890039,0.0008961858725915733,-0.0001620586684185883,-5.0410461827231405e-05,-5.4506527438387144e-05,0.9999999841124049,-0.003224944054816677,-0.0019784612344410377,-0.0011755723540694749,0.0,0.0,0.0
1718026253.1601264,49,1609043648.6437085,-0.005069622170495596,0.007048795049580313,0.0015721570485301972,-7.870834007479285e-05,-6.400562282074053e-05,-0.0001220109551017873,0.9999999874108013,0.0031437106700638513,0.0009695008970865065,0.004099043841649452,0.0,0.0,0.0
1718026253.2716029,50,1609043648.7546694,-0.004539608737668022,0.00824780171066239,0.0006925084210343863,-0.00022148247737665283,-6.403486041002478e-06,-9.007524285279452e-05,0.9999999713954779,0.004621819436388419,0.005173545951723404,-0.004040208944779672,0.0,0.0,0.0
1718026253.3651578,51,1609043648.8483977,-0.005144266337019472,0.009218312416278861,0.0009063262223444346,-0.000160596411872176,-4.156707154130828e-05,-8.377215215986953e-05,0.9999999827315977,-0.0005373344519958205,0.008709860787711684,-0.00016470435533431438,0.0,0.0,0.0
1718026253.466419,52,1609043648.941838,-0.00522329607027532,0.009630078029274543,0.0018171596310783487,-7.747511971700951e-05,-5.722009249714766e-05,-9.871952864417408e-05,0.9999999904889602,-0.0008766320123229459,0.00993424746772208,0.00600224269124804,0.0,0.0,0.0
1718026253.571829,53,1609043649.0537512,-0.00510966947093068,0.00936386586928928,0.0011308114719082048,-0.0002242703758141893,-1.650379036894694e-05,-6.626142381719092e-05,0.9999999725199226,-7.993817132221075e-06,0.0037122211223241538,-0.001641431848143836,0.0,0.0,0.0
1718026253.6661954,54,1609043649.1482942,-0.005891674071468282,0.008778549761212666,0.0012138891045070286,-0.000150922755675584,-3.7816674457710844e-05,-7.451054701940519e-05,0.9999999851201989,-0.0042068932857850915,0.0014570202660129268,-0.00013369281240779764,0.0,0.0,0.0
1718026253.7602842,55,1609043649.243757,-0.006106577559590091,0.009066314701764147,0.001804782236145464,-9.462449024998702e-05,-5.931789151064119e-05,-0.00011173030633913894,0.9999999875219653,-0.0033875418975593003,0.004364143250693315,0.004106335383013753,0.0,0.0,0.0
1718026253.8718102,56,1609043649.3545232,-0.006570145211068171,0.009618282813236926,0.0008983153738802462,-0.0002549181274860875,-8.011555556551116e-06,-3.0414948732978796e-05,0.9999999670137464,-0.003399615126342692,0.004066087531405951,-0.0037553628241942002,0.0,0.0,0.0
1718026253.9646354,57,1609043649.446695,-0.005922947696421195,0.009221012308995488,0.0009304295350273706,-0.00017414413264696442,-4.214068373012033e-05,-7.85111486067593e-05,0.9999999808669914,0.0009816050786837127,0.0031388581598693296,-0.0006569463227636481,0.0,0.0,0.0
1718026254.0622942,58,1609043649.5437279,-0.0055611933128243245,0.010738105693051411,0.0017362679263026014,-9.373732696940889e-05,-5.905283859709541e-05,-0.0001664822340773056,0.9999999800048704,0.0026875966719739444,0.010674664282625203,0.004467987846913865,0.0,0.0,0.0
1718026254.1709673,59,1609043649.6541324,-0.006081617639872228,0.011251219299882608,0.0008967892405763761,-0.00024907089324893744,-1.4415814840780845e-05,-6.0062991165555205e-05,0.9999999670741551,-0.0011847428077387044,0.007799796817559594,-0.0027370098658225017,0.0,0.0,0.0
1718026254.2643847,60,1609043649.748003,-0.0068943365490104986,0.01168062447685138,0.0012510825691697002,-0.00018167423794053424,-4.066775924506251e-05,-0.00011691421354477914,0.9999999758358358,-0.005174401198152273,0.007747489137187634,0.001590994288431351,0.0,0.0,0.0
1718026254.3597019,61,1609043649.8425524,-0.006367504583847566,0.011157891519372768,0.0018507183283684539,-0.00010781273447965983,-6.120942762900324e-05,-0.00013972181480160757,0.999999982553818,-0.0007469725276286953,0.004771643329195559,0.00489306174267602,0.0,0.0,0.0
1718026254.4747667,62,1609043649.953544,-0.006754664001158243,0.01169861757772266,0.0012288814206269317,-0.00023515489292174596,-1.8979531182855536e-05,-0.00010849473159866901,0.9999999662854232,-0.0014363438193412837,0.004436297232450303,-0.0021476089875495405,0.0,0.0,0.0
1718026254.5645623,63,1609043650.0466814,-0.0060513557626803135,0.011222704203119832,0.00130692585908204,-0.00015692584305513393,-3.834004239811947e-05,-0.00010608766852540656,0.999999981324863,0.0022790329364555887,0.004321673727407953,0.00024260694182824888,0.0,0.0,0.0
1718026254.659857,64,1609043650.142733,-0.005505151540548983,0.01068705687758424,0.0018297180015433118,-9.980417852657064e-05,-5.783537181279972e-05,-0.0001483304227627159,0.9999999823461404,0.0037723392899689104,0.002653446283542419,0.004045547373684117,0.0,0.0,0.0
1718026254.7710717,65,1609043650.254486,-0.007166408609259285,0.011092693508865475,0.0008208551051223612,-0.0002563375057990494,-8.878612867055654e-06,-3.650371229843158e-05,0.9999999664398654,-0.005838574533187138,0.001424506654419152,-0.004653655792562185,0.0,0.0,0.0
1718026254.864493,66,1609043650.3473492,-0.006611594872079873,0.011292496300899797,0.0009347911424932704,-0.000182080231255669,-3.54066532722753e-05,-9.740698142229534e-05,0.9999999780525187,-0.0008205105545472206,0.004348342397469186,-0.0011411952559776573,0.0,0.0,0.0
1718026254.9600732,67,1609043650.442631,-0.006597718139998883,0.010577544290328663,0.0016358382965483273,-9.629684066099663e-05,-4.917019731534161e-05,-0.00010075178355854385,0.9999999890791434,-0.0006538342479036752,0.0013869672563482866,0.0041232274587511926,0.0,0.0,0.0
1718026255.0714853,68,1609043650.5539055,-0.007344795984649251,0.010932222154272697,0.0009588153098942177,-0.00023082416432526972,-6.963701917306346e-06,-7.952007480106545e-05,0.9999999701741338,-0.0034426192875317493,0.0008027808432345476,-0.0026416930259642326,0.0,0.0,0.0
1718026255.1653073,69,1609043650.6473808,-0.007229725725546433,0.009314054250178625,0.0011449115808181097,-0.0001501063962962808,-4.5596016567298865e-05,-7.946852470838967e-05,0.9999999845369129,-0.0018605919588094732,-0.0035166117650275723,0.00013724106195502246,0.0,0.0,0.0
1718026255.2599401,70,1609043650.7425795,-0.0060062521669864205,0.008309376861309803,0.001837944249577706,-8.084554028413906e-05,-5.2156394237821676e-05,-0.000138485131525553,0.9999999857827877,0.004316659309066917,-0.003214569921949364,0.003990281371372705,0.0,0.0,0.0
1718026255.370924,71,1609043650.8541439,-0.006575433808450419,0.007570022105994365,0.0009818630770382158,-0.00024044313659120554,-7.589749735584226e-06,-5.6105203675357056e-05,0.9999999694908485,-0.0006390728381589217,-0.006339410480669739,-0.004229673336498588,0.0,0.0,0.0
1718026255.464497,72,1609043650.9480722,-0.006615373955792677,0.00812701976705412,0.0009763815593379601,-0.00016096328000697583,-3.839443248991709e-05,-7.431539397769495e-05,0.999999983546955,0.00035984717710363455,-0.0008178116556799521,-0.0015927652972691042,0.0,0.0,0.0
1718026255.559446,73,1609043651.0423713,-0.006484959229707484,0.008765555639468936,0.0017721781451396832,-6.829381670454115e-05,-7.579102727876068e-05,-0.00011774811058528554,0.9999999878635276,0.0006241229116154212,0.004147089419596347,0.004811540242911669,0.0,0.0,0.0
1718026255.6719952,74,1609043651.1536615,-0.007025356602887427,0.009142565978569479,0.0007068609543973107,-0.0002394858075474109,-1.058363421273579e-05,-3.407303721163772e-05,0.9999999706867801,-0.0016718984152561266,0.002909528012576588,-0.005213305786436959,0.0,0.0,0.0
1718026255.765095,75,1609043651.2484465,-0.006379317044902113,0.01017560310394111,0.0009618904497951329,-0.00017293265499305197,-5.8271510391932404e-05,-0.00010981459103698695,0.9999999773197413,0.002853390418474946,0.008793386043794045,0.00040445617098080686,0.0,0.0,0.0
1718026255.8603067,76,1609043651.3434105,-0.0055428745476072405,0.010350700205008325,0.0019273937117139362,-8.740836407393833e-05,-5.4833069898108326e-05,-0.0001432183914311482,0.9999999844208013,0.005293261953707456,0.00895294546079993,0.006850497749638635,0.0,0.0,0.0
1718026255.9713907,77,1609043651.454549,-0.006391409474420354,0.011659327961075614,0.0013271324071497804,-0.00022914930472640535,-7.209380618767402e-06,-8.451530128916053e-05,0.9999999701478908,-0.0015029114952444305,0.009009786892695406,-0.000492703835498624,0.0,0.0,0.0
1718026256.0643961,78,1609043651.5480628,-0.006261362234079984,0.009746535961210655,0.0014861901987192766,-0.00015771878261639606,-2.4195923750611117e-05,-0.00010305170687311133,0.999999981959843,-0.0016307261678437696,0.00019603144992383185,0.0009677830168527885,0.0,0.0,0.0
1718026256.159977,79,1609043651.6431758,-0.0069418032925175925,0.011084468780149745,0.0021961316984789145,-8.965073206990887e-05,-4.379465560873738e-05,-0.0001245858776904909,0.9999999872615659,-0.0034356790566707988,0.006882406240213796,0.004624988539593657,0.0,0.0,0.0
1718026256.2715642,80,1609043651.7539954,-0.007429685223071346,0.011075172052411233,0.0009087877455011195,-0.0002462814488020561,-2.0597856053014187e-05,-7.31303501344511e-05,0.9999999667865634,-0.0038429287233435142,0.0023753079407228556,-0.00630519326151849,0.0,0.0,0.0
1718026256.3645606,81,1609043651.8479333,-0.00745455299779659,0.010032933717761174,0.0010279461114256541,-0.00016709179722621548,-4.0418079451458655e-05,-8.305901974658626e-05,0.9999999817739547,-0.0025944903766665335,-0.0008462542938570058,-0.0010770081425442307,0.0,0.0,0.0
1718026256.461453,82,1609043651.9432423,-0.0072591596442678746,0.010024605225707984,0.001787060197218835,-0.00011296269697037904,-5.372474097300452e-05,-0.00011888958265818847,0.999999985109174,-0.00044038394543805285,0.002413096779597337,0.005263986106704539,0.0,0.0,0.0
1718026256.5717273,83,1609043652.0542643,-0.005889599221744777,0.009678492896747213,0.000979411428694707,-0.00021039358449320028,-2.6771689456988603e-05,-5.71874399133756e-05,0.9999999758737058,0.0066094954070977366,0.0008587584765115017,-0.004344752456372021,0.0,0.0,0.0
1718026256.6648397,84,1609043652.1481373,-0.005571727716877024,0.009684881618660905,0.0010925555538795113,-0.00017862944787597247,-4.663420953942046e-05,-0.00011449911253127644,0.9999999764033614,0.005334699804889992,0.002872001748440949,0.00038627072272446597,0.0,0.0,0.0
1718026256.7614126,85,1609043652.2421463,-0.005471750466245007,0.011033611109094583,0.0020644111890129897,-8.585997248205263e-05,-4.867405941936941e-05,-0.00015402483269139362,0.9999999832676247,0.0033886592772677257,0.010102640878916859,0.00681360383038823,0.0,0.0,0.0
1718026256.8725803,86,1609043652.3558586,-0.005863084342228192,0.01159663051305312,0.0009769521420555964,-0.0002283516272788397,-8.38628063368344e-06,-8.490150788332206e-05,0.9999999702884675,-0.0003770648014967703,0.006142952614255471,-0.003331466217028416,0.0,0.0,0.0
1718026256.9666545,87,1609043652.4498417,-0.005990946151762146,0.011003335363607281,0.0009663062924843765,-0.00020017754827554438,-4.188338928956828e-05,-9.656627026039892e-05,0.9999999744248411,-0.0012099789205512203,0.0040338160618977525,-0.0013444743561177534,0.0,0.0,0.0
1718026257.060779,88,1609043652.5434191,-0.005473169975357793,0.01033104871479968,0.001992140396504207,-8.423525039884311e-05,-5.184213414306052e-05,-0.0001393043100094261,0.9999999854055605,0.0018703512090136269,0.00200898580474365,0.006730375028358634,0.0,0.0,0.0
1718026257.172673,89,1609043652.6559184,-0.0053307287953159544,0.00997214999526077,0.0010786856987172778,-0.00025584591449873947,4.397653893804188e-06,-4.056557159770262e-05,0.9999999664389786,0.0017246006395581527,-0.0015249355794495266,-0.002495854558893165,0.0,0.0,0.0
1718026257.266329,90,1609043652.7498045,-0.006332091666756518,0.010330645423228303,0.001235044937347832,-0.0001836460468025432,-1.928661882957108e-05,-9.916610948888618e-05,0.9999999780341166,-0.003514470475509802,0.001845714072080984,0.0009236887412426666,0.0,0.0,0.0
1718026257.3605099,91,1609043652.8434565,-0.007038847945935865,0.01087586377821714,0.0021719804306460206,-8.169669312490319e-05,-5.9304473682281563e-05,-0.00011581675883119779,0.9999999881975509,-0.00555614349346333,0.004944044183286137,0.006446739817871917,0.0,0.0,0.0
1718026257.474019,92,1609043652.9569464,-0.0067627233996996475,0.009084105003135935,0.001014978351586518,-0.0002468191320192193,3.128800319665068e-06,-4.926784005332826e-05,0.9999999683215999,-0.001904535637562388,-0.006289444687835965,-0.00519337860641693,0.0,0.0,0.0
1718026257.56618,93,1609043653.047777,-0.006621739169273439,0.008823573234075663,0.0008088236651976602,-0.00017790656239795424,-3.853615095696159e-05,-0.00010147257050840197,0.9999999782837657,-0.0008545414026429464,-0.0028983451651096353,-0.002996111945816006,0.0,0.0,0.0
1718026257.6604462,94,1609043653.1439795,-0.005461192058228031,0.009000519828622464,0.0017009782855422516,-8.466614933543614e-05,-5.114692545178921e-05,-0.00014003468387361226,0.9999999853029586,0.0056851324009174874,0.001208458489055344,0.0048197299125372715,0.0,0.0,0.0
1718026257.7729669,95,1609043653.2539206,-0.006332740560587084,0.008942986862539802,0.0007885752586631894,-0.00024399335164554265,-7.806225334010002e-06,-5.3138158951886e-06,0.9999999701890321,-0.0012605214036845265,-0.0009009423480326343,-0.004310319467174699,0.0,0.0,0.0
1718026257.865677,96,1609043653.3492467,-0.0068337490630231805,0.009908474534340168,0.0011035283807845743,-0.0001983838851501248,-3.318394595961618e-05,-9.737149713123185e-05,0.9999999750307227,-0.0028280973450519023,0.005949041604744546,0.00011087580531427953,0.0,0.0,0.0
1718026257.9602304,97,1609043653.4419549,-0.006929853522999641,0.010669212803457269,0.002180126133269396,-6.826601477720894e-05,-4.5427261415190964e-05,-0.00017790768166221337,0.9999999808124836,-0.0024107510815901683,0.009105341343245626,0.0073325808169739486,0.0,0.0,0.0
1718026258.073739,98,1609043653.5557606,-0.006507106171751027,0.009402957140950177,0.0009980857898911606,-0.0002650161042966525,6.7986861385350895e-06,-7.103265016686896e-05,0.9999999623372997,0.00028691810284483654,-0.0014282421245051437,-0.004639155777931086,0.0,0.0,0.0
1718026258.166714,99,1609043653.6492238,-0.006231744604325171,0.010042817145049501,0.0010040172716168732,-0.00017082330621133465,-4.662985256921569e-05,-7.81521308094293e-05,0.9999999812686476,0.0019276744954475505,0.004389911902239318,-0.002458314864538899,0.0,0.0,0.0
1718026258.2594259,100,1609043653.7422755,-0.005820283606346098,0.01076771884046048,0.001990267314207204,-9.247214127676773e-05,-5.365181176700712e-05,-0.00015402882604573416,0.9999999824227519,0.003215857012462178,0.007648122380215051,0.005950538105368267,0.0,0.0,0.0
1718026258.3600378,101,1609043653.8434584,-0.00594103608758166,0.012679755929765228,0.0025294951717148226,-0.00011682155767888991,-3.2276172239082115e-05,-0.0001488288114170981,0.9999999815804774,0.0011110873149075791,0.013683492803791731,0.00612881220973803,0.0,0.0,0.0
1718026258.4701111,102,1609043653.9512427,-0.00721743666236456,0.01236013493119268,0.0013952591936270363,-0.00022345574852570754,-1.2025096854399242e-05,-0.00012266233660789894,0.9999999674384368,-0.00560674200099156,0.005771914370957719,-0.004118067249998781,0.0,0.0,0.0
1718026258.5632374,103,1609043654.0466447,-0.007671678409402216,0.012749037907891355,0.0016557663352968197,-0.00014125600303297736,-5.5289127966250876e-05,-0.00010810581343771512,0.9999999826514924,-0.004865700534966767,0.007717519677629846,0.0008731604191241204,0.0,0.0,0.0
1718026258.6604471,104,1609043654.1425946,-0.007173576575637599,0.01190550659033896,0.002231429614104784,-9.49826796620001e-05,-5.148500406453085e-05,-0.00013412724324684682,0.9999999851687325,-0.0008290952220034306,0.003361077933619926,0.0051729594332946445,0.0,0.0,0.0
1718026258.7696948,105,1609043654.2531564,-0.007163764953072849,0.011744550412605045,0.0014260387544569693,-0.00024446628232539005,4.2152908324901135e-06,-6.283879383427983e-05,0.9999999681348761,-0.000821494175476593,0.0016381581456641637,-0.0023670632386155292,0.0,0.0,0.0
1718026258.8642015,106,1609043654.3470306,-0.0062983550126893455,0.011404720684257161,0.001631688179666632,-0.00014210958774506002,-4.652014700351506e-05,-0.00010546222208154956,0.9999999832592297,0.0036904075897176754,0.002542375896620155,0.0004907452041576317,0.0,0.0,0.0
1718026258.9628081,107,1609043654.4435334,-0.00577016678206293,0.010419070888159175,0.002006023699209657,-0.00011270826127740788,-4.1218967031200536e-05,-9.843907036226882e-05,0.9999999879537961,0.003718011861675555,9.070786457767224e-05,0.0034081336461409396,0.0,0.0,0.0
1718026259.0699031,108,1609043654.551335,-0.006618237293131659,0.009484360779602803,0.0010844291442307782,-0.00020766002844428734,-1.8879524866729892e-05,-7.679157245861738e-05,0.9999999753119643,-0.0022415073945346127,-0.003998279672828481,-0.003966020720661056,0.0,0.0,0.0
1718026259.1671166,109,1609043654.6480136,-0.005974126519673767,0.009181458569615351,0.0010497356532450223,-0.0001624192836553514,-3.8749549438932514e-05,-0.00010515343889114813,0.9999999805306001,0.002091674334669016,-0.0015057004917498039,-0.0012778677540451833,0.0,0.0,0.0
1718026259.2607017,110,1609043654.741748,-0.0060682748517596145,0.010886234882601343,0.001966464627627289,-7.153223138947262e-05,-4.936657025690499e-05,-0.0001792036874477039,0.9999999801660586,0.001473751882572343,0.008029319844757724,0.005453828903571829,0.0,0.0,0.0
1718026259.37158,111,1609043654.854171,-0.006794522378885804,0.00984827410364717,0.0012375597450466514,-0.00024784414190636003,3.0531700222610146e-06,-4.307869009969909e-05,0.9999999683540916,-0.0028657645931929724,-0.001293541028997875,-0.00241538768673017,0.0,0.0,0.0
1718026259.4654233,112,1609043654.9469311,-0.007121250969605389,0.011635302767006394,0.0014871172917264384,-0.00016365446297451742,-4.2176118037554954e-05,-0.00010097807517320793,0.9999999806209089,-0.002250612316269127,0.007960012356222658,0.0013344833514569608,0.0,0.0,0.0
1718026259.5658813,113,1609043655.0426874,-0.006522878464408842,0.01092102886594343,0.002072309599890712,-9.250796132583098e-05,-6.021771558355459e-05,-0.00010388680537754834,0.9999999885118163,0.0014282054660168415,0.0037329675982927654,0.00449942900187939,0.0,0.0,0.0
1718026259.6721227,114,1609043655.154029,-0.006220503453636086,0.010901972730369771,0.001249447946714166,-0.0002261566236127418,-4.9583735073774705e-06,-6.640409132605018e-05,0.9999999722095446,0.0026567336728217494,0.0006858041155534077,-0.0032582062229992745,0.0,0.0,0.0
1718026259.765167,115,1609043655.2474477,-0.00625441400354188,0.010169687525687407,0.0015873065067018633,-0.00017847113010834826,-2.918140799321608e-05,-7.401943064137839e-05,0.9999999809088106,0.0007110765347736233,-0.0012514502443386,0.0009816003745885538,0.0,0.0,0.0
1718026259.8611312,116,1609043655.3434126,-0.005667702421448265,0.0090509739592356,0.002107398515354213,-0.00010803762479327977,-5.343103390848595e-05,-9.114218180906822e-05,0.9999999885830477,0.002716225989678848,-0.002818728038504323,0.004732999361052423,0.0,0.0,0.0
1718026259.9708374,117,1609043655.4537504,-0.006155746113145004,0.008085656057435595,0.0012685599609465995,-0.00024548031672039244,-1.3877759082392474e-05,6.686284215026566e-06,0.9999999697510555,-0.0008345503780436987,-0.005914136048728685,-0.002196716389067435,0.0,0.0,0.0
1718026260.0669303,118,1609043655.549257,-0.006349637342636723,0.007947668297713985,0.0012078223574860211,-0.00017966120926063997,-5.071621916297492e-05,-7.540915405719797e-05,0.999999979731585,-0.0016495482363433006,-0.0016225298723847943,-0.0005860626842860686,0.0,0.0,0.0
1718026260.1618977,119,1609043655.6431189,-0.006230953526821561,0.008003634486359245,0.0018437365874581083,-0.00010657239602223407,-3.553570034574876e-05,-0.00011184009876227151,0.9999999874356639,-0.0001489946645227263,0.0017971827385926404,0.004848836053815876,0.0,0.0,0.0
1718026260.2737536,120,1609043655.755771,-0.006266217794067194,0.008523000171566522,0.0007218957882834169,-0.00023905966089309347,-9.069206698931177e-06,-2.9189690819418107e-05,0.9999999709580928,0.0002739538470007513,0.0024265742854477105,-0.004963432613252223,0.0,0.0,0.0
1718026260.3666127,121,1609043655.849207,-0.006004198733068147,0.00911868439029098,0.0008257582646334901,-0.00020284787930742644,-4.783744455258546e-05,-7.707642126213286e-05,0.9999999753117691,0.0014738001626120425,0.00674902025398178,-0.000944673255118073,0.0,0.0,0.0
1718026260.4602745,122,1609043655.9430735,-0.005286495501077802,0.011065750206784731,0.0020448738202742275,-7.044765440397388e-05,-4.756628171563402e-05,-0.00010935110121619928,0.9999999904084557,0.004904330644205677,0.014492353823188754,0.0076997601515732626,0.0,0.0,0.0
1718026260.5753934,123,1609043656.0579705,-0.006545400466574221,0.011830030981295455,0.0007431129119679865,-0.0002777640402563038,1.1268168528881847e-05,-2.9370037330791912e-05,0.9999999609287819,-0.0040597221855534875,0.008034781373013033,-0.00564888622813149,0.0,0.0,0.0
1718026260.6656973,124,1609043656.1491387,-0.006367302677270846,0.011423154147615735,0.0008247715650532286,-0.00019440020039833208,-4.6680877601478014e-05,-6.244499660048526e-05,0.9999999780650382,-0.0021908066716945294,0.006713122137529502,-0.0015665171022889893,0.0,0.0,0.0
1718026260.7658482,125,1609043656.2478292,-0.006898534743679002,0.01189544785370227,0.001174929949106975,-0.00018070382038147233,-3.9904088351642086e-05,-8.873547082087978e-05,0.9999999789399026,-0.004032019598482624,0.007854825907589874,0.0012067829154372121,0.0,0.0,0.0
1718026260.8626652,126,1609043656.3417356,-0.006396897562902657,0.012219581296403659,0.0022274702655728893,-8.430437928762321e-05,-3.537043452141955e-05,-0.00015387164123202067,0.9999999839826093,0.00021240730180641315,0.008707977095903024,0.0075444651695170655,0.0,0.0,0.0
1718026260.971785,127,1609043656.453971,-0.00602958742151752,0.009441133554786865,0.001307437500510306,-0.00025075917931847573,2.4298265765261433e-06,-4.2569134430073334e-05,0.9999999676508973,0.0007015365474652848,-0.00738358940803889,-0.002807830711982205,0.0,0.0,0.0
1718026261.0603018,128,1609043656.5431309,-0.0061370908190880105,0.01023274650123193,0.002051793837765128,-9.248214733871425e-05,-3.8088203469489614e-05,-0.00015988848997780753,0.9999999822160042,0.0004784636192014438,0.001215254976621222,0.003904128228439405,0.0,0.0,0.0
1718026261.1658618,129,1609043656.6462631,-0.006990082570747658,0.011205092616546512,0.0020035047252790947,-0.00015921342803254727,-2.862668272789605e-05,-0.00010194954038935632,0.9999999817189431,-0.0036551563177343246,0.0053996369626689725,0.0016716746690171203,0.0,0.0,0.0
1718026261.2671177,130,1609043656.7490668,-0.00657605780150721,0.010168378752190515,0.0016877730817525865,-0.00018429779902891033,-1.4456208204815524e-05,-0.0001068696760311545,0.9999999772021049,8.852799247778282e-05,0.0002728309987337649,-0.0006645379172513515,0.0,0.0,0.0
1718026261.37067,131,1609043656.8526464,-0.00568891130354051,0.010326157903005569,0.0010180283482088635,-0.00021146019510467402,-2.3738300372284973e-05,-4.9265289720917847e-05,0.9999999761470043,0.004794844908700901,0.0009516156458180187,-0.003850825370616909,0.0,0.0,0.0
1718026261.4752707,132,1609043656.9550016,-0.006996157763376423,0.011033504978754277,3.332737538658482e-05,-0.00025209376033903636,-1.3225076996534451e-05,-5.2367375465241514e-05,0.9999999667657442,-0.0033602221316039998,0.002958834092220653,-0.007899297614139848,0.0,0.0,0.0
1718026261.5763154,133,1609043657.0572681,-0.006078503878896032,0.011188132931131536,-0.0006864734150427937,-0.0002762958761524754,1.7183454664682453e-07,-4.093520058572025e-05,0.9999999609924328,0.002759200518015949,0.0028181628868168707,-0.007278758348758128,0.0,0.0,0.0
1718026261.6786895,134,1609043657.1616259,-0.00765333677529708,0.011583311120426439,-0.0010118148093162327,-0.00026066930375033423,4.6815522079490527e-07,-6.225388822448824e-05,0.9999999640878723,-0.006206150351100908,0.0014087668137882326,-0.004860149230538969,0.0,0.0,0.0
1718026261.7823005,135,1609043657.2648797,-0.0073454447594250155,0.01046173970086016,-0.0011115611065521127,-0.00023760072294188211,1.245350283250502e-05,-5.5053311823911394e-05,0.9999999701799683,-0.0025438973985070223,-0.004333313170271837,-0.0034943967687617633,0.0,0.0,0.0
1718026261.8913877,136,1609043657.3679676,-0.0068469562082210875,0.010308575797808344,-0.001541058094813042,-0.00022552286811963914,2.789173320604315e-05,-3.774659916480989e-05,0.9999999734683396,0.001492585876266965,-0.005050370028503589,-0.004625002325958953,0.0,0.0,0.0
1718026261.9942796,137,1609043657.4737146,-0.007060824767345361,0.008308517358462022,-0.001880002471112793,-0.00019207431725227898,3.874629567419297e-05,-0.00011526191626787766,0.999999974160435,-0.001210675169211494,-0.013832111725125848,-0.004107255969271349,0.0,0.0,0.0
1718026262.0602708,138,1609043657.5428436,-0.00612605828887611,0.007941286141958668,0.0006108867547669504,-8.994019352523055e-05,-8.883130338325708e-05,-0.00013136430261982178,0.9999999833815896,0.003312052000563,-0.004827605808117754,0.015066326504387238,0.0,0.0,0.0
1718026262.1600955,139,1609043657.6422853,-0.004500940946725541,0.008810882039665471,0.002703358466151816,-4.132212459053545e-05,-5.621947319796028e-05,-9.941096861234692e-05,0.999999992624655,0.0108350290454104,0.002829063756582386,0.019796750442039827,0.0,0.0,0.0
1718026262.2629564,140,1609043657.746328,-0.00463780400594681,0.00935530668236076,0.00315389261280805,-0.0001520106093700204,-3.086703143024568e-05,-7.916181965174808e-05,0.9999999848367023,0.00522182356933125,0.004712050315816478,0.010212527838724903,0.0,0.0,0.0
1718026262.3774776,141,1609043657.8558152,-0.0052106140374067874,0.009455279096355301,0.0014644699772523046,-0.0002524913801865164,-4.057190674093945e-06,-2.4300183406350374e-05,0.9999999678205705,0.0001327593626721732,0.0026180107073459323,-0.00607448509454544,0.0,0.0,0.0
1718026262.5035648,142,1609043657.9564874,-0.006074711172267622,0.010005055306288306,0.00022433625560400587,-0.0002820849213565569,-5.831625957179149e-06,-1.1665370839670054e-05,0.999999960129003,-0.003966244607026579,0.004296762225637505,-0.009402663858320715,0.0,0.0,0.0
1718026262.5778723,143,1609043658.0610592,-0.007084541425823818,0.009744730273199977,-0.0009729286734723992,-0.00026681782151816386,9.392810030754912e-06,-8.317937636393153e-05,0.9999999609006066,-0.00722044962053151,0.0009813029601422971,-0.01198816269933124,0.0,0.0,0.0
1718026262.6808443,144,1609043658.163617,-0.007382248913937827,0.00989168314182835,-0.0014159405193037405,-0.0002597282608246852,-7.408339560070561e-06,-5.137252936834568e-05,0.9999999649236043,-0.004785831659262357,-0.0005928680405039627,-0.007126718584590479,0.0,0.0,0.0
1718026262.7855113,145,1609043658.2661073,-0.007297271580222337,0.009367021464412638,-0.0015818851782882792,-0.00025060822164853274,8.2366637109228e-06,-8.713658813097274e-05,0.9999999647674457,-0.0025938280442114707,-0.0032592487881523587,-0.004993904405437831,0.0,0.0,0.0
1718026262.8863122,146,1609043658.3685668,-0.007130254369895035,0.009190211095782958,-0.0017124237857300527,-0.00022878222890251876,2.3779154950084065e-05,-3.2590395209983464e-05,0.9999999730155543,-1.133048114547756e-05,-0.003770979204129475,-0.003497080555739827,0.0,0.0,0.0
1718026262.989046,147,1609043658.4716573,-0.007450613078696581,0.00933373215349512,-0.0017878044613313627,-0.00021233099748089,2.9477841838906198e-05,-8.32631087043956e-05,0.999999973556929,-0.001357260393326405,-0.0037220280332434827,-0.0023683024131900595,0.0,0.0,0.0
1718026263.059287,148,1609043658.5411594,-0.006561579630462969,0.010368758868177334,0.0007122244532515493,-7.014850538852215e-05,-8.876976741387088e-05,-0.00013171508123290795,0.9999999849251258,0.003243673683710921,0.009050911417579134,0.016580716680045262,0.0,0.0,0.0
1718026263.1655588,149,1609043658.646332,-0.006162906631253988,0.010683357452804552,0.0024732775139436093,-0.0001454706184482745,-4.161219327220131e-05,-0.00011226438043797371,0.9999999822517159,0.003677109788242997,0.008603886809661516,0.01769459077296388,0.0,0.0,0.0
1718026263.2722673,150,1609043658.7539892,-0.005204742259459676,0.01019892750325666,0.0021099006576587543,-0.0002442459741341456,-1.9238893104225467e-05,-8.63762810735586e-05,0.9999999662564525,0.006219563358910805,0.003316457347029075,0.004589374503714267,0.0,0.0,0.0
1718026263.3737411,151,1609043658.8560967,-0.006006737436619441,0.009410756874496704,0.0008565523142674454,-0.0002584119338199866,-1.4156732892336776e-05,-6.82607211777373e-05,0.999999964181666,-0.0015558920032227742,-0.0011969552366743932,-0.005037577319442626,0.0,0.0,0.0
1718026263.4764512,152,1609043658.9600646,-0.005953403595129444,0.009248883771772595,-0.0003924660364827156,-0.0002580564018396497,4.175601160401996e-06,-2.4025223270016212e-05,0.9999999664061225,-0.0005255595723780925,-0.0015679548271782112,-0.009949585359666998,0.0,0.0,0.0
1718026263.5800462,153,1609043659.0621548,-0.00537337122560031,0.009205777789815081,-0.0013696296186992388,-0.00028207791208108784,-8.53388426789995e-07,-2.781976071562415e-05,0.9999999598286913,0.002463792372837272,-0.0012751251612983195,-0.01073326424654594,0.0,0.0,0.0
1718026263.6851761,154,1609043659.166575,-0.005945986584209103,0.009580659037352347,-0.0018976271019438226,-0.00023734670009602747,2.1969699345747043e-05,-8.201251699733997e-05,0.9999999682289112,-0.001322716205220694,-0.0008033978795593398,-0.008238241466046629,0.0,0.0,0.0
1718026263.7888486,155,1609043659.2693303,-0.0071089916373613254,0.00936155828033158,-0.0019948524698211343,-0.00022584024693644137,2.300547911261431e-05,-0.0001006040179726453,0.9999999691728804,-0.006423157455390774,-0.0040329903664881525,-0.004073812813060409,0.0,0.0,0.0
1718026263.8888187,156,1609043659.3706334,-0.008036029058393868,0.01058645556677815,-0.0016646526397850845,-0.00020930149633634646,3.3282349154717716e-05,-7.233509843622361e-05,0.9999999749264006,-0.00730691790875272,0.0006359530549690587,-0.0008448697943036813,0.0,0.0,0.0
1718026263.9604435,157,1609043659.4426448,-0.007089659331435405,0.011408399837466925,0.0008820609378006833,-9.116653210528041e-05,-9.11340258083598e-05,-0.00016376537872004622,0.999999978282076,-0.00019709740463900224,0.011064061500663096,0.01705485172167434,0.0,0.0,0.0
1718026264.0630276,158,1609043659.54442,-0.0061606264895047195,0.012207222501105423,0.0026288356434633364,-0.00013841937462746813,-5.349386433866099e-05,-0.000141061207483294,0.9999999790401087,0.004345987749661796,0.011866051842577163,0.017767582468493345,0.0,0.0,0.0
1718026264.1657217,159,1609043659.6473904,-0.006332825435592056,0.012076178336933852,0.0026519882545335905,-0.0001959120887412726,-2.3292286402634773e-05,-0.00014189916662583966,0.9999999704702734,0.0012194043864112007,0.006755133667241669,0.008250496487502743,0.0,0.0,0.0
1718026264.2709916,160,1609043659.7489586,-0.006725008150502226,0.012091183052172343,0.0019504677227196847,-0.00020614754202482474,-2.822134546521346e-05,-9.262335838313152e-05,0.9999999740638293,-0.0014275328953849494,0.004695227470728969,-0.0003535406251773711,0.0,0.0,0.0
1718026264.3719635,161,1609043659.8538344,-0.007583036198625082,0.010728596227174142,0.0010209236550174153,-0.00024597231089784047,-1.0152727673133416e-05,-5.791791629819639e-05,0.9999999680200289,-0.0054080820340061675,-0.0038747115905399076,-0.005352245706901731,0.0,0.0,0.0
1718026264.4759243,162,1609043659.9550924,-0.006818320808874452,0.009257729782314844,0.00029903950881056266,-0.0002564597192092948,-1.9952680965688e-05,-5.106993443705786e-05,0.9999999656110818,0.000685939659682065,-0.0075397857433755315,-0.006713778891430226,0.0,0.0,0.0
1718026264.5828652,163,1609043660.0659807,-0.0076016031459292125,0.008089585104968624,-0.001197747560754694,-0.00026668061095286305,7.939054015593232e-06,-5.080983584588707e-05,0.9999999631183917,-0.003507747034475369,-0.011389990604350983,-0.012014277839916689,0.0,0.0,0.0
1718026264.6862428,164,1609043660.1682007,-0.007094931117344878,0.007921242079082852,-0.0019223701717979405,-0.0002658207883154501,1.4604948135385785e-05,-3.8483743651788515e-05,0.9999999638225017,0.0014166224053929629,-0.009116833460274696,-0.009851311062584205,0.0,0.0,0.0
1718026264.7894042,165,1609043660.2727878,-0.006801720929756658,0.008001827385499129,-0.001957562485849831,-0.00016712416075090444,3.5081885661292086e-05,-8.670165319105004e-05,0.9999999816607996,0.0026639481229136877,-0.006936621439140259,-0.004685637728022401,0.0,0.0,0.0
1718026264.8712776,166,1609043660.3433537,-0.007253947412773384,0.009379188763335943,0.0006588328007360631,-9.597771359416258e-05,-9.636559985686628e-05,-0.00012219032401229767,0.9999999832857365,-0.0006767489594057883,0.0074760849608817475,0.015314125915750522,0.0,0.0,0.0
1718026264.9612875,167,1609043660.4435513,-0.005731681941880229,0.009288663240822932,0.00282634320999489,-0.00010999232312196797,-4.5634703460046e-05,-7.312087832884147e-05,0.9999999902362487,0.007166521890210291,0.005620827859265562,0.019777258762018905,0.0,0.0,0.0
1718026265.0639873,168,1609043660.5455549,-0.005625382352365784,0.010672413657586699,0.0029990619001359826,-0.00017204758817218203,-1.8114036287276372e-05,-0.00014043564046177902,0.999999975174668,0.0046767244484129545,0.01000704516055793,0.008875921748198779,0.0,0.0,0.0
1718026265.167659,169,1609043660.6486328,-0.00619489512489658,0.01124115771808725,0.0023802252185225335,-0.00019518519342523997,-2.3879873161617164e-05,-0.00011109774495520414,0.9999999744948894,-0.0008142058755202892,0.0088251310815494,0.0005250067974871282,0.0,0.0,0.0
1718026265.2713535,170,1609043660.751948,-0.007070020067606378,0.010678654524516697,0.0013769006360853395,-0.00021871443572600585,-1.6880236520883585e-05,-8.553383233438938e-05,0.9999999722815058,-0.0047542754464958625,0.0025716604257429313,-0.005566303317419144,0.0,0.0,0.0
1718026265.3754604,171,1609043660.8573656,-0.008091861456504656,0.010466046433475056,0.00013441883226668157,-0.00027421295191842144,-1.6297760894840004e-05,-3.449535074127224e-05,0.9999999616758527,-0.007192837454041064,-0.0006562450385609712,-0.010137600918138168,0.0,0.0,0.0
1718026265.476641,172,1609043660.9588091,-0.0075895389548146725,0.009448759596740384,-0.0006986097127359512,-0.00027930600524959785,-1.2529445536024018e-05,-5.028611045788625e-05,0.9999999596512351,-0.0017009338626631908,-0.004218237906295568,-0.009732516093165645,0.0,0.0,0.0
1718026265.579861,173,1609043661.0631413,-0.007889943404485142,0.008914203404651726,-0.001187354059635054,-0.0003027120549572178,4.642175206479724e-07,-7.882576564603242e-06,0.9999999541515279,-0.002519063336170519,-0.005014232214925962,-0.006886376752019352,0.0,0.0,0.0
1718026265.6853156,174,1609043661.166125,-0.0075984756158549134,0.008767365622654922,-0.0013046155449595186,-0.00026181002990236397,7.357614062010861e-06,-3.027361573583824e-05,0.9999999652424385,0.00030323782445487463,-0.005332391948593739,-0.004043544407675257,0.0,0.0,0.0
1718026265.7872286,175,1609043661.2693498,-0.007474775012665064,0.008793316388455687,-0.0015335114694551577,-0.00022526292654558583,1.4949303955581487e-05,-8.692140927434298e-05,0.9999999707388983,0.0013226610006278968,-0.005297250918684903,-0.0034036021357013286,0.0,0.0,0.0
1718026265.8951974,176,1609043661.3720996,-0.006978553062255074,0.008030943719996192,-0.0014264285331466269,-0.00019851246595252176,2.6964132033955e-05,-8.251906392392118e-05,0.9999999765281683,0.0032107697382047677,-0.007276291428566272,-0.002076681483522014,0.0,0.0,0.0
1718026265.9596894,177,1609043661.4407754,-0.006586169061484803,0.008545710102060124,0.0007544658397420958,-7.8978741777662e-05,-0.00010122495969910101,-0.0001173667577449894,0.999999984870454,0.003514923784035785,0.0030960253879556113,0.014668119271072241,0.0,0.0,0.0
1718026266.0614352,178,1609043661.5424612,-0.005662179715930766,0.007359647814590296,0.002521054343861616,-0.00011261166238074944,-5.004477800966336e-05,-0.00010064552013469325,0.9999999873423056,0.005931630702979274,-0.0011773885466861513,0.017444623415165224,0.0,0.0,0.0
1718026266.1653862,179,1609043661.6462762,-0.005678798528254963,0.007034347736928141,0.0028264458000824277,-0.00015201542965245017,-2.2508980611038942e-05,-5.187601358629346e-05,0.9999999868467658,0.002880414808695998,-0.000516852064043558,0.009494884792657395,0.0,0.0,0.0
1718026266.2688982,180,1609043661.7504997,-0.005616020734680822,0.008287238299803991,0.002148361696466204,-0.00020901888751582035,-1.9416660580932397e-05,-2.4074911003120587e-05,0.9999999776772465,0.002731313072375551,0.005233226910240403,-0.00025197939609770265,0.0,0.0,0.0
1718026266.3745446,181,1609043661.854223,-0.0056294780368719025,0.008820933454915353,0.0008973618458818236,-0.00025864542894519707,-3.7930056288509382e-06,-1.1081869425353427e-05,0.9999999664826718,0.0014699860758283275,0.004995702150373531,-0.007868421978463738,0.0,0.0,0.0
1718026266.4732032,182,1609043661.9548109,-0.0061023491583406956,0.008814963621673673,0.00011691206667009374,-0.0002457005562156602,2.4139418200706645e-06,-4.155659385566439e-05,0.9999999689492276,-0.0017125003186744736,0.002880037204665744,-0.007474135446050764,0.0,0.0,0.0
1718026266.5772295,183,1609043662.0588868,-0.007305576307756897,0.008776688343298509,-0.0006551044276469587,-0.00028437516654105353,-5.0058425233138255e-06,-8.137727115017084e-05,0.9999999562417212,-0.006794506011449738,0.0006947700929654387,-0.007367994556271785,0.0,0.0,0.0
1718026266.6801643,184,1609043662.1610153,-0.008506008655382815,0.008079290872868081,-0.0011585927373620282,-0.0002805339004837027,-4.35985854005283e-06,-3.0725951212682075e-05,0.9999999601688173,-0.009260060393051703,-0.003506258125306234,-0.006505812661843384,0.0,0.0,0.0
1718026266.7866411,185,1609043662.2687824,-0.008673133068588988,0.009475988854233872,-0.0013119067936595023,-0.00023053910377306816,2.2142314353659093e-05,-6.913610251800003e-05,0.9999999707908184,-0.004749534382577649,0.0014689467678841899,-0.004050265271170758,0.0,0.0,0.0
1718026266.8897607,186,1609043662.3717844,-0.007471905848435547,0.009384793532079298,-0.0013301910034091537,-0.00017431244005274436,3.7692582885110923e-05,-0.00010200297872593441,0.9999999788949167,0.003220060000884542,-0.0008251986315936661,-0.0022886542527171794,0.0,0.0,0.0
1718026266.9600782,187,1609043662.4412186,-0.006551663380257476,0.010147877750004166,0.0010818805202013023,-7.51780782552335e-05,-8.317727341305957e-05,-0.00013679783975486346,0.9999999843580739,0.0063427595684701545,0.009322148192121089,0.014690970313825233,0.0,0.0,0.0
1718026267.0602946,188,1609043662.542914,-0.006210578548894089,0.011045059494040634,0.0027105727903886006,-0.00013379249505985605,-4.0460107627571944e-05,-0.00011494095530304517,0.9999999836255614,0.005067489967671594,0.011363031042208994,0.016016354108049434,0.0,0.0,0.0
1718026267.1713264,189,1609043662.6473904,-0.005773945144564821,0.010658255171145018,0.0030155600985440068,-0.000160485280474104,-2.956183010543735e-05,-0.0001174466589743119,0.9999999797884261,0.004342022284731486,0.0047684890390134035,0.008301532974089015,0.0,0.0,0.0
1718026267.2677772,190,1609043662.7496653,-0.006271128417262242,0.008898646545591598,0.00206574475223472,-0.00021222133158560661,-8.644460116680864e-06,-6.872531799337258e-05,0.9999999750821037,-0.0010073412626131059,-0.004660919456241151,-0.0014924681244904998,0.0,0.0,0.0
1718026267.3704405,191,1609043662.852924,-0.006443894548153397,0.007965170659075309,0.0008574739556634647,-0.00023084086216919263,-1.63005731645515e-05,-5.1062522819140526e-05,0.9999999719197018,-0.001218470560971555,-0.006826387488893361,-0.00861752038002051,0.0,0.0,0.0
1718026267.4731119,192,1609043662.9555295,-0.006554539408895888,0.008178097764063563,-0.00015813019487094022,-0.00026237791124062565,-1.550388357120132e-05,-1.5148078261985618e-05,0.9999999653439965,-0.0003885587086915262,-0.0027262377403884583,-0.009324135579112101,0.0,0.0,0.0
1718026267.5854416,193,1609043663.0598512,-0.006740172862451994,0.008531763860759406,-0.0007521036806446228,-0.00026149164718846415,-2.1879060136767433e-06,-4.3063318093467844e-05,0.999999964881439,-0.0005944052444512238,-0.001596056451534762,-0.007958559045934826,0.0,0.0,0.0
1718026267.6798537,194,1609043663.1608722,-0.007247843782107789,0.008454720043329103,-0.001111776709007653,-0.0002715098546983284,-3.3560272585505995e-06,-8.267625777662853e-06,0.9999999631013887,-0.0032843184114117246,-0.0013166268732526468,-0.005486349326914107,0.0,0.0,0.0
1718026267.7820005,195,1609043663.2647827,-0.007732921539815255,0.00923051450009311,-0.0011023499267742163,-0.00022989556602787762,1.2589847499823445e-05,-4.95814079082625e-05,0.9999999722656014,-0.004076393172181808,0.0005189513953759075,-0.002224245881250877,0.0,0.0,0.0
1718026267.8876843,196,1609043663.3688169,-0.007527163511220123,0.009196011019107227,-0.0011433224244623917,-0.0002036299912142673,2.261856895809027e-05,-8.326555048800807e-05,0.9999999755450351,-0.0007915610616939764,-0.001293519460002399,-0.0012510220964588802,0.0,0.0,0.0
1718026267.990711,197,1609043663.471638,-0.007131034265647981,0.00795429623258874,-0.0013172062388279923,-0.00026999277762731956,1.61572394527478e-05,-1.042039772646884e-05,0.9999999633671266,0.0015920278487176489,-0.008251959465317754,-0.0018252472072979268,0.0,0.0,0.0
1718026268.0600352,198,1609043663.5427673,-0.006919451738566526,0.008631259695031179,0.0011609651691506647,-9.073985579204728e-05,-8.814760739503384e-05,-0.00011836867085943196,0.9999999849925651,0.002322668387236538,0.0029884998782094014,0.017081684986002755,0.0,0.0,0.0
1718026268.1618187,199,1609043663.6452546,-0.0070502251699790216,0.010175193063522018,0.002875569099862208,-0.00015051999769434652,-3.569545018515358e-05,-9.861157008635973e-05,0.9999999831726595,0.0009787647715919126,0.0093625274923409,0.017231857462264227,0.0,0.0,0.0
1718026268.2635834,200,1609043663.7473621,-0.006051503011161077,0.010759718845706168,0.003157825490466771,-0.00016357286037771483,-2.241418981231915e-05,-0.00011066946622382969,0.9999999802468938,0.005473233940314319,0.009540957265351648,0.009385616566695731,0.0,0.0,0.0
1718026268.3664706,201,1609043663.8487215,-0.005823281880623043,0.00966990572271742,0.002253064698496531,-0.00019401299348511603,-1.3013122401951907e-05,-3.742175144816757e-05,0.9999999803946122,0.003129803947361714,0.0017779890220234063,-0.0014500927060859536,0.0,0.0,0.0
1718026268.4707408,202,1609043663.9537194,-0.007022100522058587,0.009719813743750203,0.001049064112794187,-0.00023255780389815642,-1.8329902638299842e-05,-6.73567675883295e-05,0.999999970521971,-0.004305315337192863,-0.00014682037027147717,-0.007698558401248183,0.0,0.0,0.0
1718026268.5738692,203,1609043664.0568922,-0.006982282960274795,0.009209038261079898,6.299944458008711e-05,-0.0002701858391823827,4.301583076240779e-06,-3.971577023364989e-05,0.9999999627018796,-0.0021879481945980377,-0.0031620311880126203,-0.009139079007891184,0.0,0.0,0.0
1718026268.6778147,204,1609043664.1598089,-0.007375986006892768,0.008324062340855285,-0.000723191443107904,-0.000277791565241109,-9.420690404910843e-06,-2.397995350702905e-05,0.9999999610840253,-0.0032981464697015234,-0.006092806187202617,-0.008329086948058916,0.0,0.0,0.0
1718026268.7794738,205,1609043664.2628417,-0.0069745523528317735,0.008020602859030704,-0.0010942381077554606,-0.0002805347982524494,-5.557081808809438e-06,-4.292596888971615e-05,0.9999999597133502,-2.1077816236163716e-05,-0.004807408304724292,-0.0057891872192799045,0.0,0.0,0.0
1718026268.883484,206,1609043664.365678,-0.007579368925224868,0.009088350267730187,-0.001191037264107338,-0.00023987617702977938,9.444268036700167e-06,-4.346523851466845e-05,0.9999999702404971,-0.002198956610431598,0.00022838628386145487,-0.0036381860365591917,0.0,0.0,0.0
1718026268.987376,207,1609043664.4694254,-0.0067495347203657095,0.008771960439031308,-0.0014290437645630286,-0.00023871510426045156,2.3212114545981848e-05,-4.1974394736523506e-05,0.9999999703572219,0.002755252618638726,-0.001999272839720144,-0.0033058258460117998,0.0,0.0,0.0
1718026269.090034,208,1609043664.5715559,-0.007313731083670162,0.009235762434370192,-0.0013152962470430142,-0.0001798966202082785,4.0663073145641515e-05,-7.714789582036386e-05,0.9999999800159605,-0.0009655688326747555,-0.0013911327834067184,-0.0012844573435883246,0.0,0.0,0.0
1718026269.159991,209,1609043664.6425564,-0.006455699347263098,0.0100328444117231,0.0010854119218214346,-0.00010727556429558059,-6.805785214977422e-05,-0.00014615869646676224,0.9999999812488584,0.0033852322936714675,0.009431905349185948,0.01585357018572419,0.0,0.0,0.0
1718026269.2609005,210,1609043664.7442577,-0.0053522581942763514,0.01067853326324404,0.002864320594035782,-0.00013500587103377224,-3.4672384660166135e-05,-0.00012497993968390724,0.999999982475627,0.007051445371141723,0.009739079271335327,0.01789820121248645,0.0,0.0,0.0
1718026269.3648162,211,1609043664.8461545,-0.0054931060055052805,0.01097913652261108,0.0031898354065998794,-0.00016050193531172034,-7.568403658074867e-06,-0.00013359989903434977,0.999999978166457,0.0028537202145213674,0.007566335036784583,0.009076271727239071,0.0,0.0,0.0
1718026269.4681664,212,1609043664.9490523,-0.00548400774615906,0.01075812256450744,0.0025131038286858843,-0.00018188604235381257,-8.06112759728873e-06,-9.345523688895807e-05,0.9999999790593015,0.0011452950196307035,0.004145178388672873,-0.00015094994068166022,0.0,0.0,0.0
1718026269.5713122,213,1609043665.054052,-0.005678296269809273,0.009162136220683946,0.0012371457173711979,-0.0002372071689385093,1.3688017950727983e-05,-6.903559344624792e-05,0.9999999693897408,-0.000719136141111332,-0.004364762536014194,-0.007606599694313097,0.0,0.0,0.0
1718026269.677914,214,1609043665.1585858,-0.005989884548799647,0.0076617844655310595,1.0637980947234105e-05,-0.0002919579493236363,1.0430615494647325e-05,6.58960593428692e-06,0.9999999573041656,-0.002172977309982859,-0.008978678313947823,-0.010789516635750144,0.0,0.0,0.0
1718026269.7771533,215,1609043665.2581024,-0.005922124040188706,0.006727782875617591,-0.0005740641409711629,-0.00026697952249210723,1.1840299793973957e-07,-2.2563664897840952e-05,0.9999999641063994,-0.0009129922951612575,-0.008961758726992305,-0.007875849506423869,0.0,0.0,0.0
1718026269.8804424,216,1609043665.3634188,-0.006525056387517747,0.0078024713284031615,-0.0009632420101456212,-0.0002591914826428899,6.1703339155938916e-06,-3.828932057345062e-05,0.9999999656578136,-0.002617953372292206,-0.002497491159358302,-0.006021594820692547,0.0,0.0,0.0
1718026269.9841955,217,1609043665.4662926,-0.006692369489822665,0.007841314973510009,-0.0011102868633334347,-0.00021991869262918772,2.7657550066277517e-05,-5.523343673997588e-05,0.9999999739100467,-0.001845264395180097,-0.002393939200936106,-0.003460555094375857,0.0,0.0,0.0
1718026270.0854397,218,1609043665.5691657,-0.006756631562136921,0.00759775587786224,-0.0012314444694043337,-0.00021885501707009353,2.891491289794752e-05,-7.201112420648097e-05,0.9999999730404017,-0.0009908182837429951,-0.004169234455194631,-0.00295200334846929,0.0,0.0,0.0
1718026270.161847,219,1609043665.6449223,-0.005990418240147312,0.008725512182912756,0.0010472970170170382,-0.0001207945434424974,-6.783184110053739e-05,-0.00012369123416968908,0.9999999827539979,0.0030173644089897477,0.007861530747373856,0.01372338451463294,0.0,0.0,0.0
