time,field.header.seq,field.header.stamp,field.pose.pose.position.x,field.pose.pose.position.y,field.pose.pose.position.z,field.pose.pose.orientation.x,field.pose.pose.orientation.y,field.pose.pose.orientation.z,field.pose.pose.orientation.w,field.twist.twist.linear.x,field.twist.twist.linear.y,field.twist.twist.linear.z,field.twist.twist.angular.x,field.twist.twist.angular.y,field.twist.twist.angular.z
1718025778.7097206,0,1609043643.7481055,-0.0013651764134394555,0.00171174032082154,-0.7506787505913511,-0.00019282382342045965,-6.625659672006915e-05,-3.490580458245959e-05,0.9999999786053103,0.0013637125878922564,-0.011985284920890328,-0.0033576317396450317,0.0,0.0,0.0
1718025778.8022525,1,1609043643.8434863,0.00445814586715454,0.008363838020297752,-0.7672352468799278,-0.00041928499789723963,0.00012218851866583228,0.00012277820797827106,0.999999897097778,-0.011287011544405963,-0.012843585594904162,-0.0008144142283171827,0.0,0.0,0.0
1718025778.914045,2,1609043643.9554763,0.0047854238254294015,0.0075447176630955,-0.7539154947600605,-0.0006197957940767557,-5.7973159119109147e-05,7.369603678121727e-05,0.9999998035305698,-0.007922415138807119,0.011904995407021075,-0.007553851594828434,0.0,0.0,0.0
1718025779.00954,3,1609043644.0483356,0.007252353124078867,0.0060532931401747715,-0.7495487570749436,-0.0005094962787793309,4.814280120157859e-05,9.726947470557085e-05,0.9999998643172209,0.008009102185128259,0.0024742798684825986,-0.0014544785637504573,0.0,0.0,0.0
1718025779.1022167,4,1609043644.1428456,0.006074502133953684,0.006210176524339442,-0.7578289437885112,-0.000627025757866174,7.821666184070985e-05,0.00011184477266432066,0.999999794105777,0.011090085849577089,-0.0016108622624180075,0.0009628745717795814,0.0,0.0,0.0
1718025779.2133849,5,1609043644.2544737,0.040912606084886644,0.08363680874767297,-0.8605649640648173,-0.0006816966388339819,-7.76984190670751e-05,9.503709685102939e-05,0.9999997601102687,0.007005354205009978,0.006612466874693659,-0.0018437437915563948,0.0,0.0,0.0
1718025779.3071406,6,1609043644.3490796,0.03622540822403859,0.08986512191566759,-0.8603911292201227,-0.0006136474291789804,-1.6521273673485322e-05,0.0001129586204904314,0.9999998052020949,0.02812871406613775,0.05293548809044909,0.0032879289939234035,0.0,0.0,0.0
1718025779.4038217,7,1609043644.4427984,0.0003046568445413487,0.01819253832249967,-0.7558210713923079,-0.0004669948161361999,1.2705050650539594e-05,6.383752419016073e-05,0.9999998888395892,0.0282215925124439,0.05406978378997565,0.006079599065578211,0.0,0.0,0.0
1718025779.5131862,8,1609043644.5545394,0.009294888392119602,0.017111220880518942,-0.7496333943297451,-0.0006420953237162835,0.00016615514343391925,0.00023446111233669725,0.9999997525669927,0.014392367189242281,0.03768338517456546,-0.002568077572423128,0.0,0.0,0.0
1718025779.6065927,9,1609043644.648283,0.011561578164050132,0.019678864613612977,-0.7565675443738472,-0.0006130651815640431,0.00016705574016518453,7.400788492973184e-05,0.9999997953831244,0.0036028054721260715,0.028879871011460237,-0.0004729345227358298,0.0,0.0,0.0
1718025779.7034376,10,1609043644.742824,0.009338647948162908,0.0178249385791773,-0.7567464899094087,-0.00039698690829913095,6.746505153105341e-05,7.42072216735935e-05,0.9999999161715685,-0.00010340330417185932,0.004608302075714124,0.007006745381417993,0.0,0.0,0.0
1718025779.8137112,11,1609043644.8537562,0.005801258160444187,0.015841446342430593,-0.7569700200829176,-0.0006547375023832604,2.7021759735671998e-05,0.0001297934522332706,0.9999997768711162,-0.005571060410532476,-0.00869488275728684,0.0005210916850155291,0.0,0.0,0.0
1718025779.9077737,12,1609043644.948105,0.00571239269029673,0.015989559284606825,-0.7594412508669067,-0.0005107372428962776,6.543317455457038e-05,0.0001667659438795174,0.9999998535275311,-0.006210184651824852,-0.009983988327032628,-0.0011001684237564235,0.0,0.0,0.0
1718025780.0027118,13,1609043645.0435874,0.00542778810743383,0.01666333983059334,-0.7616332566460788,-0.0006721058174417479,0.00011290282517167496,0.00010121832388309122,0.9999997626407559,0.0027908578045970824,-0.0036105301732068957,0.0024043343134847873,0.0,0.0,0.0
1718025780.1139781,14,1609043645.1536674,0.007590726939380737,0.015231887201537784,-0.7620180504494775,-0.0007425724534290999,6.950193750722895e-05,0.0001659079093212542,0.9999997081150538,-0.002395969798806976,-0.01796081700602499,-0.0019034469715166836,0.0,0.0,0.0
1718025780.2077172,15,1609043645.2475128,0.003509469159142271,0.016894721307262002,-0.7609371312834164,-0.00034759375867344556,-4.2565132721131594e-05,9.599315468657477e-05,0.9999999340760475,-0.005575579365676312,0.006341696346540492,0.0025048179183410763,0.0,0.0,0.0
1718025780.3015752,16,1609043645.3440404,0.006179061480560027,0.018057259681221356,-0.7569590681504109,-0.0004470128837647321,-0.00014133203158689055,6.686011157683203e-06,0.999999890080009,0.0004622817980244661,0.017752374166632546,0.0032796730296472546,0.0,0.0,0.0
1718025780.412873,17,1609043645.453453,0.011395886980118102,0.02283766542377408,-0.7568496364509794,-0.0008334240843267975,-9.05095641836058e-05,6.160101921680149e-05,0.9999996467087479,-0.0020904054332198077,0.00984772196151253,-0.005231273719435221,0.0,0.0,0.0
1718025780.5066607,18,1609043645.5487955,0.007362744232264978,0.0239539406336367,-0.7418060159769503,-0.0007982422417261452,-0.00017641606071497093,9.219441389923787e-05,0.9999996615933819,-0.006346383240579635,0.0007003809936308499,-0.005001055699279848,0.0,0.0,0.0
1718025780.603493,19,1609043645.6442993,0.012259638990704298,0.016714856810575215,-0.7474119519843774,-0.0005883734690127082,-0.00017792125812548173,6.157545530885742e-05,0.9999998091845528,-0.0020659404754977103,-0.0016903964046858706,-0.004105845171811242,0.0,0.0,0.0
1718025780.713696,20,1609043645.755131,0.010612176744139099,0.015402028125992812,-0.7477841351698877,-0.0006986948628621153,-1.9519297320507e-05,0.00010439993752031706,0.999999750272534,0.0014042734622947512,-0.006495398297521892,-0.003552932028757595,0.0,0.0,0.0
1718025780.8061366,21,1609043645.8469865,0.0069090574301470436,0.017706862232399437,-0.7587813677027451,-0.0005615698736987444,-0.0001526188031472581,5.068712353857149e-05,0.9999998293887776,0.007552830608788642,-0.006746066357322572,0.002058142499985599,0.0,0.0,0.0
1718025780.9017398,22,1609043645.9437935,0.008701115201175495,0.017082770716796262,-0.7599193397696513,-0.0005705393360927769,-0.0001003503524100283,6.90758624710378e-05,0.9999998298215799,0.005559876436717582,0.0008624586665362099,0.003963849906131818,0.0,0.0,0.0
1718025781.013032,23,1609043646.054741,0.008877392344671761,0.013672267921502886,-0.7529528430475994,-0.0009621901968758528,4.5657131587010467e-05,0.00013811543992344895,0.9999995265146718,0.00043916084134908075,-0.003369042034577523,-0.0015023212087767347,0.0,0.0,0.0
1718025781.1061134,24,1609043646.148298,0.011664790865171762,0.015223469337811149,-0.7489687564211644,-0.00038951566109046986,-6.637468086769336e-05,7.70943067640006e-05,0.999999918964203,0.0033714437493623404,-0.0015349029370952175,0.002891794555841165,0.0,0.0,0.0
1718025781.201812,25,1609043646.2435899,0.009893525041142642,0.015174725844800473,-0.7525886415468784,-0.000460905288854586,-9.767939921657775e-05,3.769043066206452e-05,0.9999998883022304,-0.0016027223353141978,0.007222362414968113,0.008072869530219797,0.0,0.0,0.0
1718025781.3125975,26,1609043646.3547957,0.045794606008923974,0.08646947017925753,-0.8491880770173823,-0.0006677448255105476,9.163959101710707e-07,0.00020155140229746456,0.9999997567464873,0.0017974961241594154,-0.009174390252955042,0.0015316901494489997,0.0,0.0,0.0
1718025781.4071443,27,1609043646.4484806,0.04528573017892135,0.08500260964498053,-0.8482383926227302,-0.0006923929108767985,-5.519963403961636e-05,0.00017412488014726052,0.999999743612755,0.0007338861458879705,-0.008369174628469972,-0.00495178995671749,0.0,0.0,0.0
1718025781.5016932,28,1609043646.5420773,0.0036504340249780753,0.013471001543085625,-0.7551187007449798,-0.0003955914377881834,-0.0002313675855299611,4.629732005853436e-05,0.9999998939164971,-0.0009718577188721918,0.013936571854190671,-0.003744253784300787,0.0,0.0,0.0
1718025781.6132379,29,1609043646.6547694,0.0067939456605275415,0.016242025577553616,-0.7526324777063808,-0.0006086983465016825,-0.00024979546553448675,0.0001702715296065433,0.9999997690480469,-0.0018155877364637691,0.007362185625004078,-0.002310641985898158,0.0,0.0,0.0
1718025781.707098,30,1609043646.7477064,0.010197408155593671,0.013968651342451763,-0.7464689851686411,-0.00046690572657829773,-0.0003553229136835245,0.0002072472996681402,0.9999998063965906,-0.0004043910923451669,-0.0007392528647477709,0.003971546094264226,0.0,0.0,0.0
1718025781.8019502,31,1609043646.8436756,0.011002774827349307,0.015056883763317284,-0.7481805747235047,-0.0007285854675889124,-0.00036244329252384466,0.00010344859917146138,0.999999663548171,-0.00355333817069578,0.0009140647066584428,0.0009719793717916296,0.0,0.0,0.0
1718025781.9137225,32,1609043646.954687,0.008133402906562563,0.019030059402362288,-0.755284759511205,-0.0012386400801496053,-0.0005768286536224723,0.0002216481677203973,0.99999904195531,-0.012026192427174273,0.01083776942393885,-0.010940483459642528,0.0,0.0,0.0
1718025782.0066297,33,1609043647.0484443,0.005794838753754582,0.01726853967948857,-0.7505258560917155,-0.0009216164520136732,-0.0003170559290403196,0.00010714284862811006,0.9999995193094118,-5.849324967755615e-05,0.01587565185961856,-0.00514504624359885,0.0,0.0,0.0
1718025782.1013675,34,1609043647.1431322,0.006076710640917294,0.016644776499055554,-0.7561652179701928,-0.0007779539911857325,-0.00042208723895945907,4.593357937876381e-05,0.9999996072599467,-0.00301003945665952,0.01098708796836776,-0.0017722699564459792,0.0,0.0,0.0
1718025782.212867,35,1609043647.2533827,0.008090446301133852,0.02129627116407235,-0.7550971970769645,-0.0007847029991589255,-0.0002304080655758433,0.0001867554401550651,0.9999996481377998,0.005846191506932905,-0.0031505758151920086,0.006919459137208433,0.0,0.0,0.0
1718025782.3064668,36,1609043647.3478925,0.008247299295270296,0.020698669010562783,-0.7491749379707939,-0.00050591954779483,-0.0003268976591594636,0.00016876967941861475,0.9999998043500404,0.008969472021483363,-0.010261458898342304,0.007876686003259465,0.0,0.0,0.0
1718025782.4028547,37,1609043647.4433644,0.00623935130110583,0.012979170320956804,-0.7505159415111062,-0.0008704687285392712,-0.0002428951488532648,7.691539693826579e-05,0.9999995886849911,0.010996258677180754,-9.719803641980093e-05,0.006022665506374673,0.0,0.0,0.0
1718025782.5129712,38,1609043647.5539763,0.01044489132320262,0.009622806237330667,-0.7433779652133237,-0.0007306687485350084,-0.00010754055080574261,0.00018637995780803034,0.9999997099103134,-0.0007426825279207693,-0.010471379468267917,0.000487226932183029,0.0,0.0,0.0
1718025782.6067817,39,1609043647.648556,0.011858707216854357,0.014065405085238711,-0.7460603595283639,-0.0007369472674009625,-9.110439047255991e-05,0.00012331462245992092,0.999999716701064,0.0020894486263649224,0.003940337803035208,0.0004799625719555006,0.0,0.0,0.0
1718025782.7024906,40,1609043647.743755,0.005847732924626786,0.016759335929269054,-0.7505216550587771,-0.00026639058260129547,-0.00026653107021787825,7.831246539125437e-05,0.9999999259321934,-0.0023705747804672996,0.016965706366682848,0.00201276382907288,0.0,0.0,0.0
1718025782.8137717,41,1609043647.8550954,0.006560384332917538,0.017334693441300862,-0.7577190087195546,-0.0006991046423170451,-0.00011995862159620072,0.0001964075961250177,0.9999997291432996,-0.0020441812579812036,0.0006536188964259872,-0.002178445829486751,0.0,0.0,0.0
1718025782.906261,42,1609043647.9484456,0.009120653715808103,0.01679680700284075,-0.7549429625786803,-0.0006892152090088162,-0.00018634561741351488,0.00010705081040639988,0.9999997393988761,-0.0006809003720327335,0.010832663391437684,0.002880515568267213,0.0,0.0,0.0
1718025783.0017543,43,1609043648.0437155,0.013727084612765632,0.014644870046921867,-0.7515873408894995,-0.0005308343513297959,-0.000361340882662587,0.00011387346228915535,0.9999997873402184,0.004775229328783609,0.005538721549439515,0.0035876615066189337,0.0,0.0,0.0
1718025783.113518,44,1609043648.1546316,0.00777743292383352,0.008132703790749742,-0.7404903674001182,-0.0006757231519679565,-0.000291616282664696,0.00021152753769835108,0.9999997068070849,-0.0005399692723289237,0.001355589411902267,-0.0037187455695502003,0.0,0.0,0.0
1718025783.2064812,45,1609043648.2484314,0.005964666580809075,0.009171885709662967,-0.7411104201909245,-0.000624032212237574,-0.00012413065315086786,8.700951709275972e-05,0.9999997938023351,-0.00047254810255500186,-0.0044431435491580655,0.000162069135317933,0.0,0.0,0.0
1718025783.302922,46,1609043648.3431349,0.010635679101431804,0.011433477873620892,-0.7449931763492909,-0.0002280159059620364,-0.0003340659359587487,9.549086994788117e-05,0.9999999136450877,0.002162765707801477,-0.0033302492819640107,0.005098866000794135,0.0,0.0,0.0
1718025783.413297,47,1609043648.4549909,0.005173206915492579,0.0094763650084502,-0.7495112371351267,-0.0006713688439770246,-0.0003448630789246625,0.000270307701138758,0.9999996786334843,-0.005448405656876794,-0.015036721957146663,-0.0021300050566779383,0.0,0.0,0.0
1718025783.506922,48,1609043648.5484207,0.005576698153978349,0.01578786598963487,-0.754585323276773,-0.00045899109732818014,-0.00040430982650625845,0.00022641761188888157,0.9999997872978756,-0.006151742909847869,-0.001676319514796465,0.0031310332141159586,0.0,0.0,0.0
1718025783.6013947,49,1609043648.6437085,0.008645399655871463,0.018327520061962563,-0.7582227706888085,-0.0003927997903338605,-0.00044522989269592467,0.0001974523632603081,0.9999998042455942,0.0017824875941595307,0.0012594825835403893,0.004391833059426103,0.0,0.0,0.0
1718025783.7131102,50,1609043648.7546694,0.010818097614457988,0.016513259220894836,-0.7551448608083661,-0.0006666357004668385,-0.0002472732660066726,0.00017759417273339063,0.9999997314565031,0.0012064166288892825,-0.004837121252813331,7.587307989449787e-05,0.0,0.0,0.0
1718025783.8064861,51,1609043648.8483977,0.00846031735277181,0.016236962689787398,-0.7526611377620704,-0.0004581758940746461,-0.0002881630321712807,0.00018299562933607688,0.9999998367747421,-0.00055873398045475,0.004293908201995051,0.0004982185083594451,0.0,0.0,0.0
1718025783.9072862,52,1609043648.941838,0.007034624146217665,0.018600804697655834,-0.749923396400236,-0.0009376557185829826,-0.00017468002790495772,0.00018496879657276197,0.9999995280374779,0.001977736851177401,0.018091819380385635,0.0025769865185588173,0.0,0.0,0.0
1718025784.012578,53,1609043649.0537512,0.007170860348513055,0.022326861831750658,-0.741141784174233,-0.0005056755206575917,-0.00020133458042350479,0.00019619434805052906,0.9999998326321982,-0.0037006359147257186,0.005458606127137668,0.0008676459335033003,0.0,0.0,0.0
1718025784.1074586,54,1609043649.1482942,0.009205081129127426,0.018225738603771573,-0.754096290687875,-0.0006112912061781085,-0.0002458078626997163,0.00015244624374380426,0.9999997713308202,0.002574313578004662,0.005342733509558162,0.0012852657251125885,0.0,0.0,0.0
1718025784.2018824,55,1609043649.243757,0.01926949521764816,0.014340132257916064,-0.7430128934687941,-0.0003993405058424642,-0.00021359562574305453,0.00015071555024108276,0.999999886094436,-0.0010008486009205524,0.0016378842546032196,0.002438404140478042,0.0,0.0,0.0
1718025784.3123744,56,1609043649.3545232,0.015662375824163695,0.015760496308264867,-0.7513312994496076,-0.0005365981104818287,-0.0002978394440108678,0.00023248517651311347,0.9999997846523614,-0.0012591891514240577,-0.005685092306813811,-0.007055538548470125,0.0,0.0,0.0
1718025784.4071255,57,1609043649.446695,0.011847549885782457,0.017867940275210888,-0.7542113593789322,-0.0003644810537253535,-0.00022322419009004435,8.738356305172016e-05,0.9999999048443101,0.0037216268275168845,0.00400624296915479,-0.005444868906195366,0.0,0.0,0.0
1718025784.5032232,58,1609043649.5437279,0.007430168943956716,0.014906436560159192,-0.7504544255113792,-0.0005480042446715359,-0.00023292618923652166,0.00017217340432205294,0.9999998078965068,0.0054302277606674484,0.005932042892520038,0.004257764732193681,0.0,0.0,0.0
1718025784.6119835,59,1609043649.6541324,0.005670500330453937,0.015498978719094822,-0.7602004576093727,-0.0005072922614640834,-0.0003708470564491822,0.0002607500597816278,0.9999997685681845,-0.001469058178594918,-0.0031424124139071636,-0.002824251309844918,0.0,0.0,0.0
1718025784.7062342,60,1609043649.748003,0.007894108461793491,0.01645352619781104,-0.7613513223099608,-0.00032809319726984944,-0.00026651984469371206,0.0001843655690859413,0.9999998936656721,-0.0016444102852199698,-0.0015600517646727132,0.0013306513285600368,0.0,0.0,0.0
1718025784.8015661,61,1609043649.8425524,0.009501495520056441,0.01603837925249314,-0.7573655751367265,-0.00021251304301033933,-0.0003454086198408048,0.00010485700471245839,0.9999999122680426,-0.00018911308450966194,0.006408519377670514,0.0037970210398123516,0.0,0.0,0.0
1718025784.9126294,62,1609043649.953544,0.008331450182524465,0.016598178605685836,-0.757635172199331,-0.00046632863251585676,-0.00017628894295324818,0.000175223163635425,0.999999860378315,-0.004923555842901461,0.010868459808877112,0.00552774051482659,0.0,0.0,0.0
1718025785.006515,63,1609043650.0466814,0.008526700237893214,0.019456365450510535,-0.7610723330278375,-0.0006648993561989225,-0.00019276307957487106,0.0001944604114877101,0.9999997414681568,0.0023196655802557456,0.018869906729201365,0.0018283537664681498,0.0,0.0,0.0
1718025785.1010513,64,1609043650.142733,0.006699776133631533,0.01904955567229882,-0.764554067815907,-0.0007383141995822348,-0.0005582700165854089,0.0001969424951182581,0.9999995522200871,-0.007719494253026704,0.0024741242907455885,-0.008951849122700278,0.0,0.0,0.0
1718025785.2130368,65,1609043650.254486,0.007535452792064532,0.016850734358643548,-0.7603432743652588,-0.0010522528820077132,-0.0003484078865822547,0.00028243386344501,0.9999993458032456,-0.008444631739540236,-0.003472755490064603,-0.011126416632482485,0.0,0.0,0.0
1718025785.3068557,66,1609043650.3473492,0.00966551500236256,0.01584835358078407,-0.7553365854130465,-0.000573702143471129,-0.0002651866949915977,0.00014047557510243086,0.999999790404212,-0.0036408893871968427,0.0025624327819664745,0.0032957969212643115,0.0,0.0,0.0
1718025785.4017518,67,1609043650.442631,0.012631933492007414,0.014503611291860698,-0.7534206474518957,-0.00038696332864034366,-0.000433871002990085,0.00011930935915115662,0.999999823890284,0.009335779373870638,-0.002496237616924301,0.0076435633619590035,0.0,0.0,0.0
1718025785.5132382,68,1609043650.5539055,0.006856791382529957,0.016277271438726593,-0.7595556851497086,-0.0008491232873677033,-0.00035580816656755634,0.00022095557390892933,0.9999995517843061,0.0043255353130703155,0.000827797228321177,0.000547734070135769,0.0,0.0,0.0
1718025785.6062412,69,1609043650.6473808,0.011702222984573213,0.017109476461233498,-0.7574664529585976,-0.0008661180407623205,-0.0003364363573614067,0.0001446713918154271,0.9999995578600483,0.0046791041623622,0.002360630842721883,-0.0006024235944943104,0.0,0.0,0.0
1718025785.7031863,70,1609043650.7425795,0.00879258591561323,0.013554410925174173,-0.7517369302026393,-0.0005044816238163101,-0.00031258625237166177,0.00013236713776959132,0.9999998151335101,0.003837223979168974,0.00361737794294701,0.0008671597235756477,0.0,0.0,0.0
1718025785.8118505,71,1609043650.8541439,0.0026740908524635373,0.011935147386314312,-0.7508754306382326,-0.0005008631612897661,-0.00019651148072862137,0.00012732051886987195,0.9999998471543904,-0.003080563055813744,-0.009800652532636673,0.0021930154017856377,0.0,0.0,0.0
1718025785.9059904,72,1609043650.9480722,0.005937309397092401,0.01526000430390101,-0.7547182581486753,-0.0004805747985672326,-0.00029134300196745756,0.00018878595588238777,0.9999998242634692,-0.0023714881449714426,-0.003282937949661775,0.0018702168104144888,0.0,0.0,0.0
1718025786.001356,73,1609043651.0423713,0.003403079697591324,0.014996521782531908,-0.7524952722617633,-0.00025959568052420133,-0.0003904654462125014,9.055375940210339e-05,0.9999998859734046,-0.0002908537844521918,0.012660491755543664,0.004669615900029749,0.0,0.0,0.0
1718025786.1122274,74,1609043651.1536615,0.007853446338669781,0.016508362060817183,-0.7573596726861883,-0.0009350858902754602,-0.000280833992552664,0.0001881768229956428,0.9999995056679366,-0.007575487872024271,0.005746503974734819,-0.004590267310973519,0.0,0.0,0.0
1718025786.20656,75,1609043651.2484465,0.030773467555727768,0.021255371795438228,-0.7468780871571965,-0.0006368010799128611,-0.0005236166189409773,0.0001738468911094705,0.9999996450435703,-0.0016990528821468785,0.013329880134925271,-0.005808316581119289,0.0,0.0,0.0
1718025786.3007517,76,1609043651.3434105,0.01034618517816906,0.022203394166079735,-0.7582011980344924,-0.0006132054563793505,-0.00048089013685849067,5.5281486113739134e-05,0.9999996948337979,0.0061979890375112425,0.015105103083381545,-0.0012622380369025172,0.0,0.0,0.0
1718025786.4128008,77,1609043651.454549,0.006811136188608376,0.02107209179083298,-0.7540442308540721,-0.0012656561753907314,-0.00038153724743923814,6.43559544748791e-05,0.9999991242006522,0.0014372414671789116,0.020659421514403555,0.0009085148222758256,0.0,0.0,0.0
1718025786.5060642,78,1609043651.5480628,0.01152395002856943,0.017792961694262643,-0.7548779389873003,-0.0008259190107696197,-0.0003327889736149983,8.398421536113977e-05,0.9999996000278825,-2.35752128240241e-05,0.005906896986161583,0.0018653349618448856,0.0,0.0,0.0
1718025786.601479,79,1609043651.6431758,0.0017608564750997827,0.01990293369117059,-0.7475527754515982,-0.0005841281433841049,-0.0002786944284156373,6.342424190641261e-05,0.9999997885505175,0.002466102757288264,0.0049599461309024345,0.0037328576468777354,0.0,0.0,0.0
1718025786.7125378,80,1609043651.7539954,0.01724611712353295,0.016621889945573738,-0.7264854273436839,-0.0009672832576892649,-0.00031482518711213657,0.00027923724600258614,0.9999994436372189,0.0011694487833278843,-0.014949639181699292,-0.0026460111277876244,0.0,0.0,0.0
1718025786.805505,81,1609043651.8479333,0.021624853679489235,0.014409531913980159,-0.7445494865968026,-0.0006212015482816827,-0.00025034458731018096,0.0001817721187576926,0.9999997591975238,0.007650667750276869,-0.017511694074175948,0.0054387711116705316,0.0,0.0,0.0
1718025786.9024198,82,1609043651.9432423,0.021439571965769684,0.013956702807221673,-0.7402149883808469,-0.0008988984139735835,-0.00020806299490750695,0.00013925452027363635,0.9999995646497017,0.007319207930851477,0.005722880319398143,0.0031550741552034177,0.0,0.0,0.0
1718025787.01257,83,1609043652.0542643,0.007186835392254068,0.014276719526183188,-0.7553789805255573,-0.0009789683992955458,-0.0001221329535216944,0.00021512389458833874,0.9999994902129234,0.002425477681093461,-0.0016907746389583193,-0.004166585791704919,0.0,0.0,0.0
1718025787.106562,84,1609043652.1481373,0.008000077912515786,0.015456975170150104,-0.758036279689269,-0.0006791501096257758,-0.00038480880039373614,0.00017354945870263783,0.9999996802788909,-0.0016510943672499267,-6.754799022898675e-05,-0.00046759221615985105,0.0,0.0,0.0
1718025787.203043,85,1609043652.2421463,0.012074856597721005,0.022596743510985458,-0.7622069281816863,-0.0004033588517008212,-0.00020222100031994642,9.204395665385532e-05,0.9999998939680922,-0.004202673847028942,0.019486307936122948,0.006683875092145488,0.0,0.0,0.0
1718025787.3137488,86,1609043652.3558586,0.009265852084435009,0.023297098265436116,-0.765627925988803,-0.0010693179261164452,-0.0002890066624456723,0.00022675408315001258,0.9999993608082404,-0.009924892112677546,0.0014712755739366458,-0.0029505704942290106,0.0,0.0,0.0
1718025787.408439,87,1609043652.4498417,0.0021416294028801836,0.017444614823576576,-0.7570389259087168,-0.0007182198196156421,-0.00018998342638401627,0.00015465527702856707,0.9999997120741162,-0.005702705782791608,-0.0006718553592985261,0.00029958082809434594,0.0,0.0,0.0
1718025787.5015736,88,1609043652.5434191,0.00840181581741304,0.012673203385450103,-0.745663487212619,-0.0015468213573115543,0.00011883539359482672,0.00021844666888815086,0.999998772750683,0.012624164616021073,4.7126041621873356e-05,-0.0018261183436781177,0.0,0.0,0.0
1718025787.6146429,89,1609043652.6559184,0.01088898727367271,0.014899621257910424,-0.7521841083680073,-0.0008066375245456169,-0.0008058345474206721,0.00027220807764569014,0.9999993129344289,0.0009856352848764613,-0.009222063457342316,-0.015668820976738468,0.0,0.0,0.0
1718025787.708729,90,1609043652.7498045,0.008715661506228878,0.012426964665642406,-0.756363780911186,-0.000648247560746098,-0.00023242606488559626,0.0002125524176844803,0.999999740287304,0.0031972813300283776,-0.006214866315568692,0.001455622704887513,0.0,0.0,0.0
1718025787.8015802,91,1609043652.8434565,0.011216280203071183,0.010540066211737382,-0.7472152167985734,-0.000982136442028736,-0.0003083538799492152,0.00013906754828366658,0.999999460492901,-0.006796675675610248,0.004739594964500894,0.008833998898049557,0.0,0.0,0.0
1718025787.914832,92,1609043652.9569464,0.01021030886977721,0.015289420668395337,-0.7495812113686622,-0.0012400649971476075,-0.0003344817252332128,0.00022628860264161326,0.9999991495767522,-0.006712297346500934,-0.0001740963228694116,0.00013953511880717556,0.0,0.0,0.0
1718025788.007353,93,1609043653.047777,0.006658793505280371,0.017333970517808304,-0.7558150699052631,-0.0007352125405031621,-0.00045796117539536555,0.00018384171454602306,0.9999996079680669,-0.006024630690220331,0.011553182202907419,0.003306670865069122,0.0,0.0,0.0
1718025788.1017263,94,1609043653.1439795,0.007945520674772989,0.019199255164796522,-0.7554227771096242,-0.00151803630396997,-2.841797756893441e-05,0.00011069223545215252,0.999998841252033,0.005303421148028409,0.019735506940667835,0.0066071099622824515,0.0,0.0,0.0
1718025788.214509,95,1609043653.2539206,0.007782210459885068,0.02065295800061013,-0.7571345464260744,-0.0007596065605025661,-0.0004883473129726527,0.00019591706409114953,0.9999995730655394,-0.0019530134793320653,-0.0006464537849862131,0.0025718094130709294,0.0,0.0,0.0
1718025788.3072782,96,1609043653.3492467,0.00696875516828104,0.01865557617043271,-0.7582030667472627,-0.000802984843517274,8.714801714185957e-05,0.00021967076830934018,0.9999996496825883,0.004530682597447209,-0.012013830922266575,0.004772605797900894,0.0,0.0,0.0
1718025788.401771,97,1609043653.4419549,0.011369254306617765,0.01630220668542916,-0.7589870923549734,-0.0008392078139729376,-0.00026383132293735846,0.00012602884660624098,0.9999996051199166,0.005089852321512425,-0.015446551398156483,0.0048199097047572255,0.0,0.0,0.0
1718025788.5145757,98,1609043653.5557606,0.010215019981264426,0.01263518516272796,-0.7530792517607102,-0.000912386955338434,-0.00018474778965375653,0.00023452721774853809,0.9999995392075253,0.003343581068765446,-0.012991845035403897,-0.0017356207476714879,0.0,0.0,0.0
1718025788.6080794,99,1609043653.6492238,0.0008069655147203885,0.013212609432910605,-0.7554181836831658,-0.0011978413026042804,-0.0003269625052040251,0.0003317104800787862,0.9999991741195947,-0.003901632184266997,-0.0035907493603377014,-0.009122007661624434,0.0,0.0,0.0
1718025788.7009535,100,1609043653.7422755,0.0038957104658060315,0.016263129077409143,-0.7591495559411864,-0.0005229524529069222,-0.00016191145614726058,0.00029551580128687246,0.9999998064878824,0.005229440230076434,0.006869144495603423,-0.004036745075285626,0.0,0.0,0.0
1718025788.8012848,101,1609043653.8434584,0.005548149312523452,0.014073157286068536,-0.7527824969692172,-0.0004987577268786891,-0.00015377916987308795,0.00016374748047602705,0.999999850389708,-0.0015656407835962973,0.004698690631224854,0.005055310714409654,0.0,0.0,0.0
1718025788.9113054,102,1609043653.9512427,0.012056367653614009,0.013332921002243743,-0.752890821402696,-0.0004815974951780557,-0.00024768226369147907,0.00023683938826781983,0.9999998253122018,-0.0033113110592354477,-0.0020321011610121794,0.003978943344239648,0.0,0.0,0.0
1718025789.0047421,103,1609043654.0466447,0.00981518455413732,0.011300544577289556,-0.7474686796622213,-0.0007014305483951348,-7.000277283995119e-05,0.00014473513355667996,0.9999997410732264,0.0008332775534219462,0.008680058567556487,0.00579859565732258,0.0,0.0,0.0
1718025789.1012304,104,1609043654.1425946,0.012793692688790773,0.013708179821205395,-0.7495420343292121,-0.0006362135806364582,-0.00015761054219592287,0.00014831194658418604,0.9999997741973473,0.0044226982882032365,0.006879412210853531,0.007627647309254332,0.0,0.0,0.0
1718025789.2113757,105,1609043654.2531564,0.008953034137372251,0.014885989683621316,-0.7536064000212708,-0.0005755362686530889,-5.085376505779341e-05,0.0002749962798065116,0.9999997952744414,-0.0008530656830828967,0.007062606594980952,0.005677014611643806,0.0,0.0,0.0
1718025789.3057468,106,1609043654.3470306,0.0064872263300382186,0.014729555492639084,-0.7571017588267497,-0.0005611202287818968,-0.00022371851969841817,0.0001374786300490468,0.9999998080968415,-0.0011950035247396032,0.008358287273768557,0.002056673343960185,0.0,0.0,0.0
1718025789.404184,107,1609043654.4435334,0.010034962514540002,0.017501844100675273,-0.7582993540737016,-0.0003792881430428967,-0.0003964586313217383,0.00014308428952550253,0.9999998392439488,-0.008111147602665607,0.006962398361329777,-0.0009879890659539158,0.0,0.0,0.0
1718025789.5111248,108,1609043654.551335,0.014849192245176732,0.01637263496942245,-0.7511817530858943,-0.0007768611464278157,-0.00021506062441946708,0.00022086611717937892,0.9999996507268519,0.0010845787352188226,-0.005553420581578082,-0.0060011835784225245,0.0,0.0,0.0
1718025789.6082757,109,1609043654.6480136,0.012126600245415186,0.014925082988505747,-0.7586611523901513,-0.0006406263647084408,-0.00015784982329274428,0.00026309320958246157,0.9999997477315868,0.0020590995331255463,-0.006952227778870997,-0.005131960975213762,0.0,0.0,0.0
1718025789.701885,110,1609043654.741748,0.002915476887013582,0.01081010183434352,-0.754320461234503,-0.0005394065396644324,-0.00021439135977495318,0.00020940668918557513,0.9999998096128555,-0.002546198769765358,0.0030391909706854146,0.0008133266980214979,0.0,0.0,0.0
1718025789.8128262,111,1609043654.854171,0.027042556749072875,0.013093714550789701,-0.7363791057962051,-0.0006862933723152243,0.00011011304868316578,0.0002851734128422551,0.9999997177762739,-0.00039205356532382883,0.004426942897631052,0.002847694800650227,0.0,0.0,0.0
1718025789.906326,112,1609043654.9469311,0.033284543059336924,0.020641318230399476,-0.7409554263668836,-0.0009821519531220432,-0.0001387642999116447,0.00011998770172919954,0.999999500862346,-9.694870692373713e-05,0.024239762237801783,0.001457006600224626,0.0,0.0,0.0
1718025790.0029383,113,1609043655.0426874,0.0072098798660435726,0.019028586571540433,-0.7544774773781868,-0.0006792116682816864,-6.220216979281244e-05,0.00015065978298091774,0.999999756051975,-0.0030106177992772387,0.012638938296145073,0.004769151002654758,0.0,0.0,0.0
1718025790.1140573,114,1609043655.154029,0.004935194847103384,0.016949665593873398,-0.75680110097452,-0.0005460845079562845,-0.0002942345163683165,0.00029239426568102223,0.9999997648616388,-0.0016237211373356553,-0.012464489360475159,-0.004481814168630984,0.0,0.0,0.0
1718025790.2068503,115,1609043655.2474477,0.012444860519759977,0.013676070321794175,-0.7515032862161309,-0.00032587244125046927,-8.610518939999294e-05,0.00018444737228416963,0.9999999261860945,0.00799846175870713,-0.0067592726969584755,-0.004011835364847822,0.0,0.0,0.0
1718025790.3015985,116,1609043655.3434126,0.007741472746175814,0.012462966339239578,-0.7538941209922658,-0.0003092888008069169,-0.00039104379987625414,0.00013245712803602226,0.9999998669401274,0.00010270805237628817,0.0030132189916240275,-0.00031230906230902966,0.0,0.0,0.0
1718025790.412238,117,1609043655.4537504,0.038416196481274076,0.08913230483379679,-0.8619228154235304,-0.0005138619060244895,-7.550620928723258e-05,0.000213372063290605,0.9999998423585363,-0.0008842976511377494,-0.0009949019062710702,0.004256805019562301,0.0,0.0,0.0
1718025790.5083466,118,1609043655.549257,0.05056369804553986,0.08950580088124954,-0.8515094993134137,-0.00036403847511625283,-0.0001843952114634652,0.0002130308722112473,0.9999998940461056,-0.0048024568670825855,0.0010426826895136069,0.004023742262851312,0.0,0.0,0.0
1718025790.6040123,119,1609043655.6431189,0.013206454474236845,0.013828712530681252,-0.7516499479987541,-0.00035146637234505533,-0.00040836183321376967,0.00014424652113908265,0.9999998444524497,-0.006980876573383109,0.003400890367885896,0.0029736528035260554,0.0,0.0,0.0
1718025790.7148328,120,1609043655.755771,0.00926476325811736,0.014806811219118959,-0.7542997731639712,-0.0007745180130316982,-0.00010732727458668493,0.00026233482623951254,0.9999996598915033,0.0061248192188632965,0.00975838459447532,-0.001414995381414588,0.0,0.0,0.0
1718025790.8081827,121,1609043655.849207,0.010000033840409383,0.018244963186974453,-0.7599653838893561,-0.0004147136400321928,-0.0004022426313733146,0.00019286798983812113,0.9999998145076732,-0.0002691224886663757,0.011143455200568645,0.0007075499089780031,0.0,0.0,0.0
1718025790.9006708,122,1609043655.9430735,0.010092717290474236,0.018547971774645202,-0.759967751082543,-0.0002101659393595782,-0.0003860880595507092,0.00016579969690194544,0.9999998896383583,0.009186526108614033,0.01054649492259033,0.006548566917070327,0.0,0.0,0.0
1718025791.0165567,123,1609043656.0579705,0.011683947616351553,0.01569561791489466,-0.7540391026523392,-0.00021463916807483354,-0.00021926669108601887,0.00028492468923831593,0.9999999123350204,0.0039180673454854015,0.001355461862782687,-0.0018499563307863192,0.0,0.0,0.0
1718025791.1100454,124,1609043656.1491387,0.014053630748303484,0.019888716188841797,-0.7551914967800334,-0.0008931640441961634,6.614417434779561e-07,0.000113394816031882,0.9999995946994917,-7.885061347593291e-05,0.020314514863688314,-0.002471352453690464,0.0,0.0,0.0
1718025791.2070816,125,1609043656.2478292,0.004514512409795696,0.016524620520740017,-0.7512960184908073,-0.0003834256688450434,-0.00046737402716174947,0.00017335574273976594,0.9999998022470004,-0.00653280266295397,0.01285343847261149,-0.0026012094914978122,0.0,0.0,0.0
1718025791.3016355,126,1609043656.3417356,0.010016287379324718,0.018410642134960353,-0.7525158248114217,-0.00020405543638560663,-0.00032699765015009835,0.00010397331717888343,0.9999999203117178,-0.0034597114542442345,0.002871415352364114,0.002943923801868578,0.0,0.0,0.0
1718025791.4134395,127,1609043656.453971,0.010839840672662202,0.01789323389085575,-0.7516274489903481,-0.0003982098727967737,-0.0002407141753050348,0.0002088984856475141,0.9999998699234832,-0.002769286992945272,-0.002125030230483805,-0.0010706960855410607,0.0,0.0,0.0
1718025791.5012524,128,1609043656.5431309,0.00812723050550189,0.016688052380428583,-0.7571112888845466,-0.0008157243325365869,-0.0002705858499065489,0.00017021109391476111,0.9999996162025626,-0.0007876655737191797,0.0022850006945300825,0.003991328511470844,0.0,0.0,0.0
1718025791.606103,129,1609043656.6462631,0.00990704046302753,0.01605958720659704,-0.7561453919339257,-0.000447935775090169,-0.0003486618284264939,0.00015777295656563614,0.9999998264480561,0.00032741566369620765,-0.003990502465173954,0.00598034569319287,0.0,0.0,0.0
1718025791.7094402,130,1609043656.7490668,0.007457997938770401,0.017490715351146095,-0.7544955909287672,-0.0003437223437770398,-0.0003253387448277708,0.00020530810208969452,0.9999998669290969,0.0020227480713811865,-0.0023375580874857443,0.0009425745343065233,0.0,0.0,0.0
1718025791.8116634,131,1609043656.8526464,0.006885102467705491,0.016415826168749953,-0.7538319683722444,-0.0005104485448037182,-0.0001578167654320203,0.00023974314142262426,0.9999998285296625,0.002970442397909229,-0.002003147777706136,-0.0012882272908427178,0.0,0.0,0.0
1718025791.9164233,132,1609043656.9550016,0.00845494507543169,0.015218020424370569,-0.7509636108865009,-0.0004217277893454531,-0.0002880371477918864,0.0002243424999029269,0.9999998444253343,0.0004751231614636619,0.0038642614673959977,-0.0021449423699594792,0.0,0.0,0.0
1718025792.0171945,133,1609043657.0572681,0.0070978815855703165,0.018871379217021055,-0.7590313048934685,-0.0005471052118885541,-0.0005337299521750707,0.00016582448991548767,0.9999996941551738,-0.013884671794826357,0.0040651811638050305,-0.010635210253406911,0.0,0.0,0.0
1718025792.120062,134,1609043657.1616259,0.011121286782823384,0.01919475642173985,-0.7559372770851724,-0.0009823553309296267,-0.00032492325369663306,0.0001667846337806162,0.999999450792723,-0.0034726576214742805,0.0027857354005137946,-0.006024104958766712,0.0,0.0,0.0
1718025792.2233708,135,1609043657.2648797,0.006520887191035783,0.013211557480517196,-0.74558019437951,-0.0005087622204974968,-0.000449363012562463,0.0001490033054218737,0.9999997585159109,-0.0035865984911257437,-0.005593437176065669,-0.003975641953379154,0.0,0.0,0.0
1718025792.330384,136,1609043657.3679676,0.004185080420363164,0.010949563550468534,-0.7529811117522097,-0.0006173326863237877,-0.0005954106795454015,0.00017630490988421662,0.999999616651444,0.0014391867559760316,-0.013046758438906719,-0.004833705761624159,0.0,0.0,0.0
1718025792.432462,137,1609043657.4737146,0.005225327466078787,0.014556238359939543,-0.7648214545535342,-0.00040409456967138116,-0.0005843646707311581,0.0001884341882361026,0.9999997298589871,-0.002413432511390994,-0.019480628909530256,-0.005302102164294642,0.0,0.0,0.0
1718025792.5011399,138,1609043657.5428436,0.006171112422523742,0.011532438625573547,-0.7555006433234932,-0.0003883594685908317,-0.00025335876512581933,9.52444779760809e-05,0.9999998879573583,0.0069209763415029185,0.0005775312012817006,0.007612699303970244,0.0,0.0,0.0
1718025792.6016681,139,1609043657.6422853,0.004926992665152935,0.014289048046674413,-0.7588544545803478,-0.00031378542869304934,-0.0005144240470755328,0.00017232863537992553,0.9999998036046936,0.011780585460175696,0.012924577972878734,0.01145780562265592,0.0,0.0,0.0
1718025792.7049904,140,1609043657.746328,0.0051510315624221014,0.014560797100286436,-0.7552959619143762,-0.0007635692415733643,-0.0001293556189876604,0.00016386075631914421,0.9999996866893358,0.013880066178930239,0.014988512441332279,0.010577891501748671,0.0,0.0,0.0
1718025792.8200936,141,1609043657.8558152,0.005915498540976857,0.015544819192337137,-0.7551649486809855,-0.0011757543535345037,-0.00016238243742959277,0.00015798653315150275,0.999999283136683,0.006687324184588715,0.014481516373271266,0.0038369711667063525,0.0,0.0,0.0
1718025792.942211,142,1609043657.9564874,0.0040464898018852825,0.016631569402187806,-0.7599121789829049,-0.0014506200183098423,-0.0004169591069577056,0.0002443980605047223,0.999998831057433,-0.012914342585876416,0.002275821842040119,-0.006760267488913416,0.0,0.0,0.0
1718025793.0194664,143,1609043658.0610592,0.0075614355248581,0.015764896754592632,-0.7584018052787505,-0.0006994851529669297,-0.0005228210657279721,0.00026436453129052796,0.9999995837449269,-0.006219114079014521,-0.0043950821087462314,-0.012852305318659937,0.0,0.0,0.0
1718025793.122258,144,1609043658.163617,0.008527246883717862,0.015555449056338395,-0.7569290129199324,-0.0008888333312585232,-0.00037900137372634144,0.00019275857500395977,0.9999995145885716,-0.008728083191974356,-0.004967994527591725,-0.002502049437449916,0.0,0.0,0.0
1718025793.2265306,145,1609043658.2661073,0.006142653891196916,0.016080927363460385,-0.7616623598042594,-0.001088196186199311,-6.526364796118655e-05,0.00020116911997277375,0.9999993855501513,-0.0011236878507509453,-0.01313320505846431,0.0002916211209863847,0.0,0.0,0.0
1718025793.3277645,146,1609043658.3685668,0.00036141418725714816,0.015569373989789827,-0.7648043957707715,-0.0005693671643526941,-0.00019483459664507006,0.00017816489184695064,0.999999803058861,0.0019120177066425143,-0.006225320702729593,0.0042908943725963,0.0,0.0,0.0
1718025793.43091,147,1609043658.4716573,0.00595746325037534,0.01203830343575437,-0.7550812468760705,-0.0004978861700333878,-0.00017464942537384257,0.00019338807390049088,0.9999998421039732,0.0022613193325365898,-0.009085424536414645,0.0009090252022856439,0.0,0.0,0.0
1718025793.5007422,148,1609043658.5411594,0.009989209855013288,0.014480942071691302,-0.7483560945530918,-0.000938104172863454,-0.00035385982648347946,0.00011905015710139099,0.9999994902852817,0.0017432569716051747,0.013103368616114188,0.005077626106306118,0.0,0.0,0.0
1718025793.6069546,149,1609043658.646332,0.009796434979471356,0.014254216519611021,-0.7521503624030084,-0.000690632906050943,-0.00028803527288481367,0.00019498120913066094,0.9999997010220444,0.004725316910178063,0.010171342345503355,0.007591777830794561,0.0,0.0,0.0
1718025793.713932,150,1609043658.7539892,0.0059436368326110526,0.014015653230746336,-0.7546941798279162,-0.0003992623667502766,-0.00024337009847632803,0.00014486718054936438,0.9999998801870111,0.003908868495290904,0.004276840291145732,0.0076644854563529905,0.0,0.0,0.0
1718025793.8153195,151,1609043658.8560967,0.005225630309795362,0.01484663605442196,-0.7599568559967386,-0.0006316329524805963,-0.0003043714650096818,0.00015903892878397168,0.9999997415521782,0.002292194217578367,-0.0028303274514015165,-0.0029010687141982783,0.0,0.0,0.0
1718025793.9186306,152,1609043658.9600646,0.007745144123503498,0.015683795571948142,-0.7600104466060708,-0.0007790663044811458,-0.0003564370561152508,0.00021167906185155775,0.9999996106000595,-0.003088164292628673,-0.0007715500281682899,-0.013777911494842634,0.0,0.0,0.0
1718025794.0209584,153,1609043659.0621548,0.002465236534236144,0.01615717619332251,-0.762474913404818,-0.0009006314842570923,-0.0004493082229250569,0.0002134024793528191,0.9999994707220645,-0.0032138764963692557,0.006387025060081838,-0.007288621372658494,0.0,0.0,0.0
1718025794.1276143,154,1609043659.166575,0.0027304235427096438,0.016534599885763796,-0.7664031945250368,-0.00048633927167756225,-0.000607334974584562,0.0002359886289451486,0.9999996694637875,-0.006787673137369142,-0.008654310196083238,-0.008546267491787635,0.0,0.0,0.0
1718025794.2286022,155,1609043659.2693303,0.0041824560217423945,0.01711084324812512,-0.7632869927740137,-0.00047707249394317167,-0.0003125328888208364,0.00024355896991052367,0.9999998077019979,0.0010010479390751602,-0.014808354912845205,-0.0005879839338947708,0.0,0.0,0.0
1718025794.3309321,156,1609043659.3706334,0.011608641837015732,0.019046427021268034,-0.7624754009462156,-0.0008117512834064665,-0.0002833588741547589,0.000177174485644894,0.9999996146883163,0.0006289825841700838,-0.012709545312923353,0.003623179655070002,0.0,0.0,0.0
1718025794.403018,157,1609043659.4426448,0.014461625974378885,0.02099395858494047,-0.7668780240160806,-0.0004969873944242945,-0.00041984779669801826,0.00020543021576251895,0.9999997672648531,0.008513458753010156,0.005592662508344728,0.008726436269748013,0.0,0.0,0.0
1718025794.5047781,158,1609043659.54442,0.006613257031420395,0.012526310432597304,-0.7430265638165595,-0.0007773282611544583,-0.0003131029328537488,0.00023213832468973786,0.9999996219194801,0.010397100256546193,0.015633450103317834,0.009387298125943438,0.0,0.0,0.0
1718025794.6078486,159,1609043659.6473904,0.011707502118678183,0.01833670726315531,-0.7525412229177788,-0.000874113435908411,-0.00024870526964010256,0.00015174160439914634,0.9999995755228362,-0.002193812321566629,0.00910412320810118,0.002405101912846124,0.0,0.0,0.0
1718025794.7121103,160,1609043659.7489586,0.012865158027269147,0.017252267138449177,-0.7521687145926519,-0.0007072977097507667,-0.00041613044324787207,0.00021379753645264665,0.9999996404279332,0.0016445106936278128,0.005589182297760805,0.0011294234760626418,0.0,0.0,0.0
1718025794.813677,161,1609043659.8538344,0.007959016188445252,0.01616045220473957,-0.7555969805525004,-0.0005564290727560323,-0.00047395296308758015,0.00021364666306892903,0.9999997100551363,-0.0060852560534581076,-0.0018447304144665493,-0.004605624055318668,0.0,0.0,0.0
1718025794.9179404,162,1609043659.9550924,0.006699694939253633,0.015402823737270886,-0.751502512562947,-0.0007824353702925951,-0.0001267701087045085,0.00024954217536034176,0.9999996547263962,-0.0038359890023470563,-0.009600141295690996,-0.004534560884587429,0.0,0.0,0.0
1718025795.025687,163,1609043660.0659807,0.011798454029566757,0.016028393500061144,-0.7523229518365798,-0.0011475163835877162,-0.0002960789611943788,0.00012118530153203309,0.9999992904284981,-0.0011049008605384767,0.0028256178366004112,-0.007090632474467246,0.0,0.0,0.0
1718025795.1281013,164,1609043660.1682007,0.011692439857206739,0.014468872306409988,-0.7578687909569697,-0.000351340452342763,-0.0003401022265309516,0.00025430401171878237,0.9999998481098936,-0.0037184406848308794,-0.00828150784118269,-0.007945535421248226,0.0,0.0,0.0
1718025795.2312398,165,1609043660.2727878,0.006695566903503158,0.012548617737951167,-0.7535451416269128,-0.000676414127011208,-0.0003967837258783916,0.00018358711929389703,0.9999996756611231,-0.0008799698912999297,0.00018390608396425152,-0.004128824001432841,0.0,0.0,0.0
1718025795.3132908,166,1609043660.3433537,0.00419225080843535,0.014536526537021966,-0.7561469453457639,-0.0005235689516626133,-0.0005396859046959835,0.00011024067143858568,0.9999997112307834,-0.004338659323674239,0.013042794763795424,0.00932160505743722,0.0,0.0,0.0
1718025795.4022496,167,1609043660.4435513,0.008529566165465899,0.018748273940673965,-0.7600377653611092,-0.0007786512089119511,-0.0004005537859625118,0.00019442900252334861,0.9999995977280695,0.0009367895268612052,0.008148104745656751,0.010440183059046374,0.0,0.0,0.0
1718025795.505576,168,1609043660.5455549,0.010549838731715246,0.022249484135382896,-0.7640331377270136,-0.0007754978338088324,-0.0005227486222700372,0.00017692014893180605,0.9999995470180102,0.002787842511026103,0.010817317779799537,0.008113723896649874,0.0,0.0,0.0
1718025795.609158,169,1609043660.6486328,0.006007888959278589,0.016145186284198587,-0.7583804476119647,-0.00029161291047108347,-0.0004458486067694314,0.00015145895757180872,0.9999998466205343,0.0010424634730459132,0.0019785188558619927,0.00028436223536403883,0.0,0.0,0.0
1718025795.7124186,170,1609043660.751948,0.002840730192340885,0.013872031579032374,-0.7582755698369354,-0.0006134478031652134,-0.0005943715780836965,0.00025748296192867426,0.9999996020532822,0.0029676101489839977,-0.004140641349568226,-0.0007712961340226285,0.0,0.0,0.0
1718025795.8180387,171,1609043660.8573656,0.00532296694452228,0.014258542335967572,-0.7573004965631537,-0.0006723487551706941,-0.0003295433765015168,0.00023410704797265243,0.9999996922710442,0.001601473780375323,-0.004386486547346148,-0.002033014089225487,0.0,0.0,0.0
1718025795.9184213,172,1609043660.9588091,0.007801528086525667,0.018902015600510396,-0.7658781711442054,-0.0008176202936557071,-0.0006923334465785341,0.00018437133218738932,0.9999994090891476,-0.0012880449874325627,-0.0025791647349962944,-0.010759018429717469,0.0,0.0,0.0
1718025796.0216799,173,1609043661.0631413,0.005901792016972574,0.01741224276774646,-0.7649100142982888,-0.0005878113035248921,-0.00045031896378325265,0.00023980154816318473,0.9999996970929027,-0.004816963627664127,-0.0019361347796954483,-0.009484733188551954,0.0,0.0,0.0
1718025796.1268215,174,1609043661.166125,0.010828913202555444,0.01304684622580921,-0.7476879176957053,-0.0008318328243339593,-0.00022347336778567433,0.00020555974646682448,0.9999996079294111,0.004497597486586533,-0.002824794665879723,-0.00300897954566323,0.0,0.0,0.0
1718025796.2284591,175,1609043661.2693498,0.008118440611917514,0.012597097661952921,-0.7504882472575857,-0.0007775653200961338,-0.0004027493309854245,0.0002693065690285232,0.9999995803294623,-0.0007896077503128877,-0.011706737008178088,-0.001146304656439279,0.0,0.0,0.0
1718025796.337061,176,1609043661.3720996,0.007374629894996833,0.013206445385754294,-0.7581300069548254,-0.0007736676235743891,-0.0004701349703080086,0.0003206873659551655,0.9999995387854488,-0.0008185589212987681,-0.0092490724534498,-0.004333398410163178,0.0,0.0,0.0
1718025796.4006565,177,1609043661.4407754,0.009094742060469993,0.015326511222743991,-0.7574485201753723,-0.00058998004515832,-0.00031513178184666403,7.211074602542851e-05,0.9999997737077377,0.005433183449653811,0.00983686075901157,0.009695488519807357,0.0,0.0,0.0
1718025796.5027995,178,1609043661.5424612,0.004822489619969195,0.01420978785018313,-0.7537476409109138,-0.0007931434887517042,-0.000522863988019287,0.00016022262150752666,0.9999995359325656,0.003863993218705536,0.0006288275625635342,0.011277264824460596,0.0,0.0,0.0
1718025796.6061456,179,1609043661.6462762,0.00557827729709596,0.012071582474516061,-0.7553990826339672,-0.0007634995994480066,-0.0004091489198715069,0.00022905851971459347,0.9999995985987671,0.010368422718275226,0.005827686569078571,0.010422899901745197,0.0,0.0,0.0
1718025796.7104921,180,1609043661.7504997,0.04062456435853635,0.08772571553225245,-0.8554636682514145,-0.00065610188440365,-0.000445831229148693,0.00021797198141673078,0.9999996616264551,0.00280362086586162,0.006551036477502019,0.0028765031564828465,0.0,0.0,0.0
1718025796.814622,181,1609043661.854223,0.04360677532383531,0.09162549540511997,-0.8568481713594257,-0.0003728774486972533,-0.0003552351227649668,0.00018308246442310964,0.9999998506255909,0.0016680674494727987,0.004842383452336837,-0.005275726080438414,0.0,0.0,0.0
1718025796.9147027,182,1609043661.9548109,0.007448867025272254,0.015589749828125016,-0.7556883332313479,-0.0005643969444588799,-0.0003847446622442916,0.0001873185154773813,0.9999997491696608,-0.002793883572466448,-0.0002615266577806856,-0.004572645933031808,0.0,0.0,0.0
1718025797.0177,183,1609043662.0588868,0.008333923294878256,0.015312116731490348,-0.7585024311638657,-0.0008059860977130262,-0.0003468276741074881,0.0002692951925273562,0.9999995787884367,-0.013999987684715345,-0.004374798065405721,-0.0010957857564020726,0.0,0.0,0.0
1718025797.1220214,184,1609043662.1610153,0.006103302401304812,0.01676196073067803,-0.7628553145941771,-0.0007933948433889147,-0.0004568822367676654,0.00022903480763779153,0.9999995546630401,-0.005233275477358345,-0.002921095490612102,-0.0008697355286079204,0.0,0.0,0.0
1718025797.2277977,185,1609043662.2687824,0.0016086033808802927,0.014000250809235622,-0.761665840017879,-0.0009455362709375355,-0.00030060416324477447,0.00017646018462161804,0.9999994922299105,-0.0024809788538052158,-0.0012902470880395223,-0.0009125486321524827,0.0,0.0,0.0
1718025797.3304532,186,1609043662.3717844,0.009183325787433022,0.014992053172738185,-0.7582782252275785,-0.0005494296858738656,-0.00042871730696954235,0.00015326052837151194,0.9999997454198073,0.0031167118651099003,-0.0025007153767466796,-0.003479197377536489,0.0,0.0,0.0
1718025797.401218,187,1609043662.4412186,0.007522151977554219,0.015171390756951047,-0.7602082347273794,-0.0004130912151736475,-0.0005141922760565665,0.00011603325734685359,0.9999997757490808,0.011704558081333173,0.005457356131216444,0.0008092630305708481,0.0,0.0,0.0
1718025797.501749,188,1609043662.542914,0.007708077652956095,0.015625555829949195,-0.7554951714357432,-0.0007195210797829991,-0.0004135054884499658,0.00011360451264375796,0.9999996491982485,0.010448734877275698,0.0209127550964623,0.009211402943629491,0.0,0.0,0.0
1718025797.6128433,189,1609043662.6473904,0.010489796233886375,0.017375549213022656,-0.757352143146709,-0.0005246054926321493,-0.00020435769356961524,0.00010457234957004752,0.9999998360457935,0.005679084154359111,0.010471603571000684,0.0071995636373408285,0.0,0.0,0.0
1718025797.708978,190,1609043662.7496653,0.004982519474925312,0.01659090456170744,-0.757057934437549,-0.0005432884910597716,-0.0003294703583514839,0.0001543297423066289,0.9999997862345817,0.0014728220817225232,-0.0050745852231641325,0.0023712412361877643,0.0,0.0,0.0
1718025797.812291,191,1609043662.852924,0.0013889512589756125,0.013585217542492646,-0.7557566472364614,-0.0004944897301772975,-0.0005725115447871219,0.00020065467344823043,0.999999693724013,-0.008864250642608963,-0.012372234899408517,-0.006492021138025271,0.0,0.0,0.0
1718025797.9147933,192,1609043662.9555295,0.010405804236757962,0.011975335545058745,-0.7521233664661033,-0.00039516752380694853,-0.00041110253729382797,0.00026102402477898426,0.9999998033518659,0.0025947536656740367,-0.001255866438974483,-0.004524930681687648,0.0,0.0,0.0
1718025798.0258744,193,1609043663.0598512,0.008581217302087324,0.008883376366211101,-0.7426194707650898,-0.0010532703551110545,-0.0007146173788133431,0.0002694392940347874,0.999999153672646,-0.007047387299206741,0.003998066263933262,-0.010617823227818474,0.0,0.0,0.0
1718025798.121704,194,1609043663.1608722,0.004889188839539248,0.0161853908725574,-0.761632198759538,-0.0006214618176323104,-0.00039434123513382944,0.00017788866143718398,0.9999997133178604,-0.012764797267085584,0.0018296994419138503,-0.005349380300832629,0.0,0.0,0.0
1718025798.2235346,195,1609043663.2647827,0.005239269704740268,0.016216535805178775,-0.7570255243970756,-0.0006145184733957746,-0.00032454953547131793,0.00014920243849307884,0.9999997473865959,-0.0044803056005522975,-0.005105370994345642,0.005730052299173017,0.0,0.0,0.0
1718025798.3293982,196,1609043663.3688169,0.0076831123687052996,0.014683946152129427,-0.754079158359453,-0.0007076386194166771,-0.0003040792881013361,0.00018414024476213413,0.999999686437811,0.006757387144899519,-0.007619642587631423,0.0033950268778386167,0.0,0.0,0.0
1718025798.4327862,197,1609043663.471638,0.006692271575061411,0.01692974534038545,-0.759324488219735,-0.0007956462888237985,-0.000422977992132257,0.0002170853907691238,0.9999995704551643,0.004619096510814692,-0.004880058856391019,-0.004331297218347201,0.0,0.0,0.0
1718025798.5013273,198,1609043663.5427673,0.004820791450563983,0.015664100767504054,-0.7565051383277136,-0.0005321581769076502,-0.0003238516871962805,7.725720001348796e-05,0.9999998029795116,0.008987868216420627,0.005238876302837788,0.0054258033781417764,0.0,0.0,0.0
1718025798.6032703,199,1609043663.6452546,0.007549330151528829,0.012823260051741819,-0.7540604738743444,-0.0005866953777306687,-0.00047143682819980403,0.0001400141913402488,0.9999997069658841,0.0048322236508422465,0.01365854825166848,0.003028703215442654,0.0,0.0,0.0
1718025798.705027,200,1609043663.7473621,0.0148728313591351,0.01816134894766698,-0.7574444089337841,-0.0003306910862111726,-0.00045714945859447447,0.00012727317649366925,0.9999998327296337,0.0027136833468808597,0.008503643534836444,0.0033564647457444913,0.0,0.0,0.0
1718025798.808685,201,1609043663.8487215,0.04705712081529402,0.09072672564195339,-0.856437108588872,-0.0005359099734279811,-0.0003457592252344381,0.00013281267024650096,0.9999997878058936,0.005215853844533468,0.001490202619987677,0.0036760563782892797,0.0,0.0,0.0
1718025798.9117763,202,1609043663.9537194,0.03757338860165175,0.08582830581379117,-0.8555444969898025,-0.0005741758763769352,-0.00043324839643884145,0.00018844840677496993,0.9999997235524944,-0.005238716786915777,-0.0036038326095834262,2.7709072466473254e-05,0.0,0.0,0.0
1718025799.0153358,203,1609043664.0568922,0.0040525062390236784,0.008963408043882905,-0.7502734968284818,-0.000530506959123957,-0.0004390703023457848,0.00015662556948955198,0.9999997506239909,-0.006109182618644115,-0.005211520864287162,-0.004467737595898587,0.0,0.0,0.0
1718025799.1202314,204,1609043664.1598089,0.006811334728028231,0.011867771651837004,-0.7515472992834368,-0.0005828436712775513,-0.00029590347848950017,0.00019990968014589564,0.9999997663852137,0.0017830748583507628,0.0029077704184294513,-0.001038611491119956,0.0,0.0,0.0
1718025799.2216449,205,1609043664.2628417,0.00988715042049918,0.013423832761530615,-0.7563637963177919,-0.0005793269268953732,-0.00042485032657547207,0.00020365180670553777,0.9999997212041755,0.00013040647521989296,-0.0048067299766267,-0.003208747470238358,0.0,0.0,0.0
1718025799.3252473,206,1609043664.365678,0.002715049620046578,0.014450416682002523,-0.7437871983935392,-0.0005795233125484857,-0.00039594612345290105,0.0002879633851612178,0.9999997122281893,-0.0030011502725681774,-0.006676896771365301,-0.0033432151329351517,0.0,0.0,0.0
1718025799.4292316,207,1609043664.4694254,0.004431296474579338,0.01679111878657267,-0.7526621001417382,-0.0003236207341025629,-0.0005324428401235056,0.00019603016409534138,0.9999997866731737,0.009558030462104005,-0.0054281284837076355,-0.008676577828702762,0.0,0.0,0.0
1718025799.5309668,208,1609043664.5715559,0.007664754665295278,0.01480547193638233,-0.7596481540783334,-0.00047799962560099316,-0.0007519409468193099,0.0001376811652362217,0.9999995935724393,-0.0060486824932749084,0.00029540494086825915,-0.0053162258050799705,0.0,0.0,0.0
1718025799.6007736,209,1609043664.6425564,0.008165281387510132,0.01738474459268905,-0.7621655379108454,-0.0006190937412263839,-0.0008142380770210882,5.1082532549239424e-05,0.9999994755647857,-0.0014496068042873815,0.01641777792233456,0.003859849823960482,0.0,0.0,0.0
1718025799.702157,210,1609043664.7442577,0.008593482354703542,0.019882739095340864,-0.7629613065333193,-0.0006327042796272136,-0.0006866320118194343,8.33314022478674e-05,0.9999995606387183,-0.00019930443524525257,0.020295210267489545,0.009865167123831054,0.0,0.0,0.0
1718025799.8063588,211,1609043664.8461545,0.007148702121737855,0.015329548746786695,-0.7552409929184466,-0.0005271627011123817,-0.0007407652223896948,0.00013342011999254656,0.9999995777826212,0.006051363404955684,0.011037675285082177,0.008487393206005212,0.0,0.0,0.0
1718025799.9094203,212,1609043664.9490523,0.009347313501919127,0.014073013735687964,-0.7531942827677067,-0.0007342990810962116,-0.0002973121767303132,0.00012882221027565242,0.9999996779075204,0.0032112063724551074,-0.0006312541857432102,0.007342141737858123,0.0,0.0,0.0
1718025800.0127635,213,1609043665.054052,0.010682561399726285,0.017985058403408773,-0.7620143163468739,-0.0006304904316097832,-0.0004243207393836317,0.00020971530746769266,0.999999689226548,-0.00010411206341799347,-0.005692607540676397,0.0008534194449697332,0.0,0.0,0.0
1718025800.1197662,214,1609043665.1585858,0.005033276698203413,0.0060844371393231345,-0.7426817536426732,-0.0008444944774790537,-0.0003955316702820872,0.0002595267494606813,0.9999995315147,-0.0013800758853802324,-0.005885133937616268,-0.010346901418412234,0.0,0.0,0.0
1718025800.21859,215,1609043665.2581024,0.008639214175843549,0.012449792682859338,-0.7533871340752558,-0.0005802937609750465,-0.0004870095576040458,0.00015300771861073318,0.9999997013346841,0.0029088858455821216,-0.0008812619594172795,-0.002742754628998087,0.0,0.0,0.0
1718025800.3223224,216,1609043665.3634188,0.007343147587602884,0.013855246227092393,-0.7533310369540429,-0.00036132605203111003,-0.0005070242814587992,0.00024200209662859294,0.999999776902387,-0.0035101012363864745,-0.008881844650737714,-0.0013277854294236674,0.0,0.0,0.0
1718025800.425788,217,1609043665.4662926,0.005602515609846138,0.010613808143737214,-0.7446275209545031,-0.00041360829312495247,-0.0003513423511416857,0.0001218970576354308,0.9999998453138957,0.0015698850053500702,-0.0037008205876908253,0.0003786097911052087,0.0,0.0,0.0
1718025800.5272615,218,1609043665.5691657,0.009534802018376861,0.010039997074166557,-0.7470760167405684,-0.0004004112248589393,-0.0003799693314415776,0.00012787056869645468,0.9999998394716125,-0.0022443660804997777,-0.0064616824032795485,-0.001743291138023648,0.0,0.0,0.0
1718025800.6028552,219,1609043665.6449223,0.010501765008117454,0.012453553923893315,-0.7506783528009828,-0.0007342244794225485,-0.0005168421631164661,0.0001321214899554064,0.9999995881661544,0.002007230323144386,0.008467346745213556,-0.00020895083530177584,0.0,0.0,0.0
1718025800.7068558,220,1609043665.746296,0.011159918065797237,0.012424138249990141,-0.7498296019784417,-0.0008399206230634771,-0.0007796677839500993,0.00016168560186072018,0.9999993302543929,0.0021459907066864203,0.008823153027305616,-0.003000777987493231,0.0,0.0,0.0
