time,field.header.seq,field.header.stamp,field.pose.pose.position.x,field.pose.pose.position.y,field.pose.pose.position.z,field.pose.pose.orientation.x,field.pose.pose.orientation.y,field.pose.pose.orientation.z,field.pose.pose.orientation.w
1718608626399758137,1,1718608626399758484,0.0,0.0,0.0,-0.0060382054753935046,-0.025676093048424244,0.023866222290969467,0.9993671406214854
1718608626414477790,2,1718608626414478075,1.3431684888573372,-2.5047377025188235,0.42660619760670637,-0.005795945490675524,-0.02564487267944759,0.023770368043562747,0.9993716611572482
1718608626424557767,3,1718608626424558122,2.4274261652587903,-4.526582240703677,0.7700641928870198,-0.005674909105101696,-0.02561975004584579,0.023697559776501797,0.9993747292556864
1718608626439218752,4,1718608626439219305,3.353745579600396,-6.235576863688571,1.0385109639467407,-0.0056024227479625965,-0.025615651672388533,0.02361190738776968,0.9993772706432057
1718608626485587957,5,1718608626485588456,4.126387489137356,-7.66099424524166,1.261502701864772,-0.005733857362392172,-0.025623987987207584,0.023560654179036605,0.9993775211070314
1718608626486517007,6,1718608626486517199,4.776457554099424,-8.862835805121597,1.4499557388429565,-0.005941484104438096,-0.025615401483983627,0.023771919233952547,0.9993715254245467
1718608626498197898,7,1718608626498198130,5.328583247959482,-9.883496701172064,1.609095991120922,-0.005950349304050464,-0.025623796167496497,0.02386114155857019,0.9993691311705842
1718608626507567952,8,1718608626507568094,5.800238106224918,-10.755309019806953,1.7441404267468392,-0.005928320581921196,-0.0256293909068519,0.02392897849030522,0.9993674966323611
1718608626518683028,9,1718608626518683384,6.204909430190709,-11.503215723835996,1.8591210209666562,-0.005892307090507786,-0.025642073036970452,0.023972012341042598,0.9993663529616347
1718608626536606122,10,1718608626536606870,6.553239807873809,-12.146930562423794,1.9585093181824018,-0.0057923575519196096,-0.0256108718726896,0.024004847054675302,0.9993669492002389
1718608626551042648,11,1718608626551042866,6.853809647974297,-12.702333404309945,2.0433992099676264,-0.005750584248934047,-0.02558165528025504,0.024005490588727047,0.9993679232972773
1718608626586455897,12,1718608626586456375,7.113647256450148,-13.182405460519696,2.1159189291676697,-0.005752035654346107,-0.025543660775700996,0.024033618138359233,0.9993682107607719
1718608626588066901,13,1718608626588067235,7.338588610678927,-13.597936950711933,2.177843188329584,-0.005804849197768251,-0.02552194652085926,0.024077895509785025,0.9993673943647539
1718608626588638847,14,1718608626588639041,7.533527899284212,-13.957981333256956,2.230658800164905,-0.0058800314676857035,-0.025514230836116352,0.02415034996572073,0.9993654035693419
1718608626611342669,15,1718608626611342991,7.702605926947196,-14.270175587313211,2.275627806513258,-0.005936190295426271,-0.025521746948779057,0.024211901394267977,0.9993633903182231
1718608626618712891,16,1718608626618713230,7.849324815281142,-14.54100310557564,2.3138233596300486,-0.005893467581994351,-0.025545591862227598,0.024198268061155385,0.9993633641469497
1718608626623765140,17,1718608626623765559,7.976709467315987,-14.776052185607824,2.346177186794711,-0.005832609280529762,-0.02555735606769303,0.024148721354163516,0.999364618883803
1718608626638844059,18,1718608626638844447,8.087557061903322,-14.98153237079352,2.3711096606450486,-0.005731714220201135,-0.025519521000722255,0.02403172579002804,0.9993689897407986
1718608626679789104,19,1718608626679789331,8.183856031575782,-15.159990423116941,2.3919621216554408,-0.005753996704042411,-0.02547363529857161,0.02388285068100547,0.9993736012472784
1718608626710136796,20,1718608626710137028,8.26753655270285,-15.314771009758154,2.409155586989513,-0.005881409382262682,-0.02544763951145224,0.023800742755589396,0.9993754806434144
1718608626721290512,21,1718608626721290758,8.340255350267416,-15.449197544993677,2.4233024895901014,-0.005855124650975203,-0.025445698729619676,0.02378604459001877,0.9993760343405502
1718608626730883070,22,1718608626730883486,8.403443413662028,-15.56597144310279,2.434806681598424,-0.0058039693296592434,-0.025440637489549042,0.023767138336548303,0.9993769114000168
1718608626740843855,23,1718608626740844097,8.45855537319936,-15.667421998006464,2.4440148745057515,-0.0057410805853902415,-0.0254356444709535,0.02373948072668104,0.9993780591142107
1718608626765656266,24,1718608626765656682,8.506475697297557,-15.755571248469998,2.4512557010455476,-0.005687933371961415,-0.025427469790516227,0.023705027817398982,0.9993793888459902
1718608626766966524,25,1718608626766966802,8.548147651910465,-15.832162022081885,2.4567823786874934,-0.00567844170047257,-0.025388713297074525,0.023704336368871252,0.9993804445626724
1718608626773328796,26,1718608626773329204,8.584371887950212,-15.898708485464592,2.460810788647703,-0.005723011059299586,-0.025353030546360386,0.02373941923463513,0.9993802634437668
1718608626788693257,27,1718608626788693534,8.613543642786318,-15.952001721655623,2.4633616499481548,-0.005847657623697148,-0.0253249798970554,0.023858407714428993,0.9993774195342127
1718608626799615134,28,1718608626799615456,8.638925335790404,-15.998270450729475,2.464821000520984,-0.005940702831344876,-0.02534690164116959,0.02396069129836831,0.9993738679290982
1718608626813355626,29,1718608626813355876,8.660989156340108,-16.038434691806085,2.4653555871240087,-0.005973334061089046,-0.02536680220404905,0.0240456242517267,0.9993711285505902
1718608626830446012,30,1718608626830446251,8.680153014645747,-16.07328800258665,2.4650489153205477,-0.005901820414070979,-0.025360447951074633,0.02406380852575179,0.9993712770110801
1718608626840178462,31,1718608626840178669,8.695705938056637,-16.105245384737252,2.4595906728339587,-0.0057369566756645075,-0.02536079774331333,0.024054429742338665,0.9993724539308132
1718608626849688744,32,1718608626849688950,8.709256924039558,-16.132985613818796,2.454133098768449,-0.005674177571720787,-0.025350808163411277,0.02406534091392685,0.9993728031125537
1718608626866183353,33,1718608626866183879,8.721026837264258,-16.15705950524609,2.4486281262305596,-0.005678824783820837,-0.025259405918011738,0.024099089809346757,0.9993742778519492
1718608626898620502,34,1718608626898620755,8.731278120027145,-16.177944253568768,2.4431250246733143,-0.005921597783145593,-0.0253179340970755,0.024228303499193256,0.9993682635556834
1718608626910226256,35,1718608626910226561,8.740197611500378,-16.196024017186097,2.4376110140747587,-0.005938358922957815,-0.025320300202996946,0.02424296117662267,0.9993677486913017
1718608626920362535,36,1718608626920362748,8.747973911298985,-16.211665969683025,2.4321223663118374,-0.00582286609463738,-0.0253403870357872,0.02419085188213859,0.999369181884521
1718608626936253731,37,1718608626936254089,8.741270283704608,-16.20932964518893,2.4181895170590577,-0.005697085991068552,-0.025290198638747888,0.02411467024587291,0.9993730193190907
1718608626949115951,38,1718608626949116179,8.735442462310644,-16.207266984521766,2.4053511197628437,-0.005624423084590663,-0.02523637293900699,0.024008945705302036,0.9993773370814294
1718608626974302552,39,1718608626974302804,8.730372234927472,-16.205438220533974,2.3934873929478613,-0.005684692506144706,-0.025242611976074514,0.023934852627698313,0.9993786157615272
1718608626987127713,40,1718608626987127985,8.72720534938118,-16.202118034243572,2.400627343635297,-0.0059141166684221706,-0.025255936680774763,0.023898619834155414,0.9993778148710484
1718608626997249864,41,1718608626997250248,8.724446256833932,-16.19916769020352,2.4061019082382726,-0.005950529092270435,-0.025235658358665883,0.023897461448403063,0.9993781386877787
1718608627012753745,42,1718608627012753949,8.722047344605109,-16.196562192053882,2.410164534245421,-0.0059255112956660425,-0.025322922667581363,0.02390710191826929,0.9993758494086827
1718608627022859325,43,1718608627022859548,8.719976466183706,-16.194254032972403,2.41303803624254,-0.005821810101237589,-0.02537337689408396,0.02386284432192299,0.9993762369263157
1718608627033247563,44,1718608627033247820,8.718176272567305,-16.19220988561805,2.414864147864309,-0.005669351587931654,-0.02535194681916079,0.02380550246943103,0.9993790248435419
1718608627043182185,45,1718608627043182503,8.716209606366625,-16.190387523685477,2.4157291859980754,-0.005564509183994395,-0.025359992700725822,0.023747765360565762,0.9993807836096008
1718608627074033686,46,1718608627074033987,8.714495864454271,-16.188772262115588,2.415799797732186,-0.005731380884492211,-0.025277655016995148,0.023784899562191604,0.9993810434377945
1718608627075297892,47,1718608627075298093,8.712987604809992,-16.187340003888128,2.415173742852984,-0.005882006487204287,-0.025290280077380666,0.02385473017620231,0.9993781844634756
1718608627089926238,48,1718608627089926558,8.711658977677796,-16.186064159399983,2.4139416227123975,-0.005997438028853632,-0.025370415383723796,0.023935139363468694,0.9993735447088835
1718608627098835570,49,1718608627098836277,8.710526068182585,-16.182677740802202,2.4114862068982292,-0.006008520529750468,-0.02544688351823663,0.023976483544898862,0.9993705429104233
1718608627114118527,50,1718608627114118750,8.70953923226391,-16.179641381937326,2.4087110856918406,-0.005801502121292453,-0.02543288643190495,0.024088131146516596,0.9993694375948999
1718608627142746178,51,1718608627142746387,8.723488232100493,-16.194997589836575,2.4044366904403818,-0.005806881169969152,-0.025412221063003244,0.024150062972502145,0.9993684373693953
1718608627192664477,52,1718608627192664842,8.735630641792849,-16.208321410228056,2.400105506392471,-0.005737680351190539,-0.025486288037120712,0.02416624821241792,0.9993665596734825
1718608627203774036,53,1718608627203774276,8.74909355845195,-16.222840900974628,2.3853188888475803,-0.005901752002522957,-0.025451740089273887,0.0242731904940882,0.9993638929203749
1718608627204491789,54,1718608627204492062,8.760763930973969,-16.23541347119939,2.3718251593999566,-0.0060347536052061486,-0.02553702642909331,0.024303774693519103,0.9993601795977919
1718608627205296927,55,1718608627205297119,8.77092415266883,-16.246310064269917,2.359514390950711,-0.006036922461997554,-0.02562120785363521,0.024279665699976492,0.9993585978560479
1718608627216103625,56,1718608627216103903,8.779792658578707,-16.255707934384485,2.348247522798907,-0.005879513712633902,-0.025632121630325803,0.024247006591993157,0.9993600493968923
1718608627247483443,57,1718608627247483847,8.787458226919235,-16.26585719416351,2.3394671278389314,-0.005691982608779236,-0.025525401394497427,0.02415355397633071,0.9993661296281477
1718608627252578832,58,1718608627252579123,8.794075112260124,-16.2746617005219,2.33121085715592,-0.005757225315968477,-0.025556611359993178,0.024090495396806067,0.9993664803284088
1718608627279199514,59,1718608627279199714,8.79983582668686,-16.28232311506768,2.3234780528638694,-0.005794034308195401,-0.025592487167184038,0.024054422844674475,0.9993662184147725
1718608627290317269,60,1718608627290317562,8.802163794398794,-16.285743815072117,2.3159727579750298,-0.005939517757893919,-0.025511112588310934,0.023990305633553616,0.9993689861602264
1718608627314000939,61,1718608627314001154,8.804251031535,-16.288673439613017,2.308944352315974,-0.0058602782905471575,-0.025575346841705954,0.02368271127275266,0.9993751487599914
1718608627342341851,62,1718608627342342050,8.806468266363332,-16.286858986764166,2.3100957531255384,-0.005714086296153205,-0.025260979071394057,0.02344315663218151,0.999389639010368
1718608627365858351,63,1718608627365858682,8.80845499645254,-16.285225791190516,2.310603169451526,-0.00570781038695871,-0.02545183414828043,0.023637809703538612,0.999380247449135
1718608627440427636,64,1718608627440427965,8.810175728171075,-16.283982740179155,2.308891439858253,-0.005516850188208587,-0.02542120870563027,0.0246710023221234,0.9993571274356168
1718608627446572070,65,1718608627446572353,8.811738835474298,-16.282856370049956,2.3069282347125046,-0.005505681781169476,-0.02543511527325488,0.024646985434051596,0.9993574277945676
1718608627500064433,66,1718608627500064675,8.813175389618237,-16.28182219363481,2.3047335205427313,-0.006095679020561679,-0.025357689672952217,0.024938268582870144,0.9993487444490123
1718608627522290959,67,1718608627522291437,8.816479265996207,-16.283380071167688,2.29900379710109,-0.006125941816679092,-0.02545459359001029,0.0249870938762076,0.9993448762272451
1718608627523117648,68,1718608627523117896,8.819427202273893,-16.284637108132593,2.293597597101706,-0.005976198459259933,-0.025625285562514147,0.02490487219062857,0.9993434730526755
1718608627538001604,69,1718608627538001899,8.819177395558459,-16.287161074754728,2.290909495511091,-0.005869770922404932,-0.025537273063887218,0.024685273090637706,0.9993518053049285
1718608627556899629,70,1718608627556899890,8.818842477254435,-16.28930943289864,2.287968117227683,-0.005856463599106798,-0.025518854702986146,0.02450009958011713,0.999356910722753
1718608627576210553,71,1718608627576210848,8.818616485184442,-16.291157748099817,2.2849907016530553,-0.005797559476936746,-0.025647236197485945,0.024352532129141635,0.9993575745239743
1718608627587038804,72,1718608627587039103,8.818052178503542,-16.290477892512865,2.28180366715318,-0.005887500054192329,-0.02543015968360578,0.0242086203184696,0.9993660925926267
1718608627597586079,73,1718608627597586880,8.817595400219048,-16.28983555917486,2.278556124862704,-0.005919915796057912,-0.025598036718551067,0.02421479738377831,0.9993614654872309
1718608627611427403,74,1718608627611427899,8.81721866490674,-16.289228228148087,2.2752922034620893,-0.005892031000879171,-0.02557526947428588,0.024191197443608262,0.9993627847424811
1718608627621521642,75,1718608627621521883,8.816775473564665,-16.288628564353896,2.2718685161651493,-0.005780650953579127,-0.025526738418217638,0.024173575211738667,0.9993651024334216
1718608627636683064,76,1718608627636683292,8.81677104071235,-16.288370390910497,2.269797156911287,-0.005603203394804849,-0.02572284195115285,0.02409272946749656,0.9993630370893645
1718608627662498218,77,1718608627662498625,8.816810131295483,-16.288106460335484,2.267575842749645,-0.005608962262216922,-0.025684788269477715,0.024040197435381855,0.9993652485959079
1718608627713328392,78,1718608627713328622,8.815267212697972,-16.287886196238546,2.2621293331970245,-0.005867622583850317,-0.026095430369095285,0.024362218630336586,0.9993453266126144
1718608627723514328,79,1718608627723514674,8.81394737998345,-16.287634299064486,2.2569903521790255,-0.005871315253767413,-0.026105935580829253,0.02446493968153268,0.9993425211162684
1718608627733567753,80,1718608627733568102,8.812673342788898,-16.28736647722544,2.251994030920253,-0.005794582449473696,-0.02604498353658424,0.02451711904357806,0.9993432806201372
1718608627743614120,81,1718608627743614448,8.811551063901483,-16.287485319911205,2.247198307889204,-0.005658928595564757,-0.026174136559340776,0.02453418186428827,0.9993402648861766
1718608627757062664,82,1718608627757062911,8.810684031209806,-16.2875064912405,2.242673208483745,-0.005642896325995386,-0.026260514780893467,0.02457434041579778,0.9993371027224123
1718608627794216351,83,1718608627794216596,8.809968926432138,-16.287426354985715,2.2383224084836595,-0.005707072356823611,-0.026318957093354838,0.024642397704724355,0.9993335249344908
1718608627837597770,84,1718608627837597994,8.777136976509457,-16.243460871285055,2.2390234704633203,-0.005791925275660733,-0.02657823598647397,0.024718006714934324,0.9993243072784175
1718608627845718732,85,1718608627845719033,8.748505392052618,-16.20525039475932,2.2391473704995493,-0.00581059650518135,-0.026480257468702497,0.024676050951274876,0.9993278368193769
1718608627871897499,86,1718608627871897856,8.72371235837781,-16.171959709008014,2.238887935874855,-0.005717536540954709,-0.02663261648570527,0.024543181382320423,0.9993275968183121
1718608627891239047,87,1718608627891239361,8.702126218901139,-16.142960285906227,2.23834733743284,-0.0059886959614437905,-0.026570699385978704,0.024381035275416567,0.999331625924908
1718608627926522294,88,1718608627926522521,8.683459072755326,-16.117686765493293,2.2375318166575795,-0.005902331425233648,-0.026730984668683865,0.024318606028995927,0.9993293863102374
1718608627941515784,89,1718608627941516026,8.667320047172808,-16.09566153522384,2.2364751112311136,-0.005868434041370611,-0.0267037212157913,0.024292523317421315,0.9993309492185278
1718608627976187573,90,1718608627976187947,8.653188541937844,-16.076525445443462,2.2350854067928143,-0.005809629204539507,-0.026639351018476354,0.02428800557729294,0.999333120621396
1718608627991769863,91,1718608627991770083,8.65761105888868,-16.082735023769573,2.2222701358982047,-0.00594948031383309,-0.026686384622365614,0.024155634796927727,0.9993342513230196
1718608628014508756,92,1718608628014509000,8.661562254567055,-16.088015467600744,2.210845563483061,-0.005878032161855284,-0.026835169536873676,0.02418004898090289,0.9993300994391755
1718608628036375385,93,1718608628036375509,8.663300751596697,-16.093948660562962,2.196171034428989,-0.005943858419100415,-0.02668914335176547,0.024252177693422434,0.9993318728287262
1718608628078114482,94,1718608628078115173,8.66483245133248,-16.099062975137596,2.183072182388445,-0.0057253539871098096,-0.026643617222399538,0.024378044662264575,0.999331300881481
1718608628119403712,95,1718608628119404034,8.665918174659286,-16.105206820464254,2.1762605045433245,-0.00597207890716279,-0.026319451214949267,0.024621769397494244,0.9993324718195677
1718608628121494534,96,1718608628121494707,8.666899584932406,-16.11043770989662,2.170005693203331,-0.005838130899686879,-0.026414857422950976,0.024615141791482914,0.9993309093235876
1718608628142735140,97,1718608628142735435,8.667774544975149,-16.11492664779567,2.1642402601702377,-0.005867759969186068,-0.026302439224083894,0.024610084600817702,0.9993338255156522
1718608628149472473,98,1718608628149472763,8.668407756851892,-16.11882280550402,2.158814943497916,-0.005863901883800404,-0.02614151749993678,0.02462328482328588,0.9993377454904868
1718608628202672753,99,1718608628202673121,8.68684209114745,-16.143379918052926,2.159029245172687,-0.0060531111536184,-0.02594405443645241,0.024556968753878933,0.9993433950201408
1718608628267567829,100,1718608628267568227,8.70176158027251,-16.164508711548205,2.1622845740076686,-0.005679786407265372,-0.025988402501214727,0.02442370800534183,0.9993476999768761
1718608628279843569,101,1718608628279843813,8.714731188461396,-16.182800172003272,2.1648012587701437,-0.005770800516948659,-0.025887116259273,0.024384464568830082,0.9993507657278619
1718608628299034795,102,1718608628299035147,8.726050453354137,-16.19878770737823,2.1668131918887052,-0.005840179764742583,-0.0257819285600031,0.024311370267899018,0.999354862766845
1718608628299388251,103,1718608628299388412,8.735771090476955,-16.21268712183708,2.1681678916219775,-0.005973421691649002,-0.02571042880456254,0.02434041610790087,0.9993552102369174
1718608628306125952,104,1718608628306126293,8.744136903299669,-16.224735694334957,2.1689466635971746,-0.005900661229514575,-0.025832489981864847,0.02434120604248918,0.9993524755294242
1718608628315209304,105,1718608628315209572,8.751495208343783,-16.23506207304394,2.169379648564351,-0.005849008214913545,-0.025982386326622725,0.024331196171233093,0.9993491369869456
1718608628336460057,106,1718608628336460422,8.757670727689877,-16.243920449561102,2.1692155304455616,-0.00596059365321472,-0.02599338134519699,0.024346503224262434,0.9993478189450836
1718608628357257237,107,1718608628357257812,8.763061765732601,-16.25151702001277,2.1688006269401567,-0.005798555044840769,-0.02614067128240867,0.024314461460945562,0.999345710466684
1718608628373350947,108,1718608628373351386,8.767753308879875,-16.258065012324746,2.1681516813966786,-0.005838532571274556,-0.026140945279343193,0.024321452142731268,0.9993453004257263
1718608628392740262,109,1718608628392740772,8.774650646181904,-16.26222739629047,2.1661972984021993,-0.0057520757031021994,-0.026335091226300088,0.024405836099719254,0.9993386471859687
1718608628397922784,110,1718608628397922982,8.780685099718749,-16.265727948321935,2.1642247040707963,-0.005890560724026064,-0.026377444737352276,0.024450430322585922,0.9993356333887653
1718608628412022047,111,1718608628412022409,8.785797742677051,-16.26877080809683,2.16213988714291,-0.005994630203807673,-0.026442886094136503,0.02453297068609031,0.9993312621613754
1718608628422350151,112,1718608628422350542,8.79027423997183,-16.271294075512685,2.1600780924364917,-0.005827290632588043,-0.026638165586011644,0.02454732043830076,0.9993267132811946
1718608628432717171,113,1718608628432717484,8.79422561775985,-16.273330810584046,2.1580443767735566,-0.0057733797157184215,-0.026668638849509273,0.024538506761178382,0.9993264298889049
1718608628443487432,114,1718608628443487774,8.797570008511215,-16.275111803519767,2.155969293935046,-0.005804576081887617,-0.026659323095795166,0.02452529068195464,0.9993268221685783
1718608628473321036,115,1718608628473321328,8.800544547814656,-16.276537237007165,2.153966316812185,-0.005510139379070983,-0.026837314034800597,0.024436925050067178,0.9993258896043462
1718608628518100459,116,1718608628518100837,8.784191160269895,-16.255313185730586,2.1430313943167736,-0.0060610008881622395,-0.02691233571723344,0.02432418483406243,0.9993234333721165
1718608628535237048,117,1718608628535237301,8.773138707731668,-16.2367728128224,2.1457749461628692,-0.005893279601299054,-0.02708710080722077,0.024207017506479668,0.9993225598018096
1718608628545860738,118,1718608628545860976,8.763611814981033,-16.22053800568633,2.147936498177428,-0.0058322794736005296,-0.027071887195215135,0.02414697183876496,0.9993247826361804
1718608628588309316,119,1718608628588309755,8.755209125796444,-16.206469977244883,2.149483096804291,-0.005829440587259731,-0.02700099421951519,0.024091989452680117,0.9993280442266239
1718608628617241916,120,1718608628617242126,8.749206503303444,-16.194263204916982,2.146027582671918,-0.00574151396510972,-0.02712165236118735,0.02408222914390487,0.9993255211541671
1718608628618566864,121,1718608628618567086,8.743874887306799,-16.18370261363201,2.1427118737090636,-0.0057996702068192464,-0.02708398536165328,0.024088950698009714,0.9993260449006074
1718608628619631301,122,1718608628619631469,8.73923204267103,-16.174482911036545,2.139570524715724,-0.0056407208013778114,-0.02722150016319888,0.02407392424107065,0.9993235804129417
1718608628620815321,123,1718608628620815562,8.735294461258185,-16.16633080106439,2.136672812043825,-0.005584352761879277,-0.027238071511739795,0.024071354902333506,0.9993235073477048
1718608628637177182,124,1718608628637177496,8.73175643990393,-16.160511993379174,2.1347999176246697,-0.005659582591490012,-0.027096532440674226,0.02408297187495982,0.9993266520614026
1718608628648403645,125,1718608628648403959,8.728720480760465,-16.155371661880437,2.1329702819808256,-0.005510472454160975,-0.02715683052179934,0.024088763521100152,0.999325709026525
1718608628659083862,126,1718608628659084323,8.72614867798422,-16.15078396096536,2.131178275638213,-0.005581309843545349,-0.027057568623896303,0.024116884159324673,0.9993273301871811
1718608628692046402,127,1718608628692046694,8.740700573172386,-16.166495665172434,2.1298022338443934,-0.00585104705399181,-0.0269456335395137,0.024339377632395125,0.9993234175070621
1718608628739358799,128,1718608628739359140,8.753825958001002,-16.181562984607652,2.1243881248717296,-0.005965031271888407,-0.026541041451029396,0.02447123475217232,0.9993303508801903
1718608628768813242,129,1718608628768813650,8.7652928347986,-16.19451511892166,2.119521842492812,-0.005575776120429949,-0.026342075076552278,0.024482244532704082,0.9993375933607007
1718608628785389824,130,1718608628785390026,8.771886329020958,-16.205663921682532,2.1226136020793698,-0.005655051787461865,-0.02618220873233233,0.024492795136226507,0.9993410905799844
1718608628799466780,131,1718608628799467082,8.777495106326747,-16.215386454525227,2.1250233413025095,-0.005795041309693558,-0.026016686828806597,0.024529595710621514,0.9993437088594415
1718608628811755572,132,1718608628811755897,8.782356370902079,-16.223778590190268,2.12689486699784,-0.005822172934393353,-0.02598089366549754,0.024547433718496173,0.9993440443433383
1718608628822122381,133,1718608628822122761,8.786449517538319,-16.231097296321398,2.1282450763148573,-0.005813294049604682,-0.025927731371416678,0.024560490346334667,0.9993451559257052
1718608628837141609,134,1718608628837141935,8.788104257239233,-16.235239820754316,2.120378204762729,-0.00555723670559168,-0.026016304167678223,0.024476492681734477,0.999346371556756
1718608628864457382,135,1718608628864457598,8.789565726871725,-16.238733230074235,2.1133641690238942,-0.005644127112852952,-0.025922543620630015,0.024440161242786477,0.9993492102762663
1718608628866128137,136,1718608628866128365,8.790717447520262,-16.24180018418223,2.106998087713202,-0.005771471232722891,-0.025712661646737967,0.02441381309696366,0.9993545491370501
1718608628935275181,137,1718608628935275606,8.778349267484263,-16.228666517336276,2.10135374730019,-0.005736838309610894,-0.0257682174348548,0.024372796393250233,0.9993543187740836
1718608628963741440,138,1718608628963741743,8.767180936348868,-16.21648960113526,2.0967270341468343,-0.005838863472702756,-0.02563143486905699,0.024330220787712912,0.9993582828877347
1718608628970494321,139,1718608628970494830,8.7575114360818,-16.205812355900186,2.0925449425721867,-0.005572449037679622,-0.025687043026728185,0.024296105289138795,0.9993592061416378
1718608628985469410,140,1718608628985469701,8.749177580005473,-16.19643380749936,2.0887521707578056,-0.005566445072255737,-0.025610757499245056,0.024313248226464156,0.9993607805743883
1718608628986856357,141,1718608628986856604,8.742017847317111,-16.18968055225201,2.086954129533451,-0.0055825619265414805,-0.025674939842882685,0.024428873135927738,0.9993562240881424
1718608628997370135,142,1718608628997370328,8.735840607826173,-16.183722243637117,2.085220563882509,-0.005762871648885442,-0.02571017591097037,0.024478472040394,0.999353081033702
1718608629007872322,143,1718608629007872549,8.730363621012973,-16.178591991924463,2.0834872137673726,-0.005949427907895313,-0.025766020783449757,0.02452259533327508,0.9993494678032685
1718608629017693866,144,1718608629017694086,8.725544104011004,-16.174124579967955,2.0817578926619777,-0.005868200664346038,-0.02591578823076987,0.024537982275931302,0.9993456977278518
1718608629039581112,145,1718608629039581447,8.736073570306818,-16.187675488019007,2.087428154296463,-0.005897399190336009,-0.026077867031066147,0.024561999923050006,0.9993407195214653
1718608629048671373,146,1718608629048672194,8.745091793216137,-16.199494435507045,2.092145913174704,-0.005880444698036693,-0.026025797825526113,0.024551767529259774,0.9993424282641498
1718608629079725265,147,1718608629079725503,8.75300753864385,-16.20960865851248,2.096147388493728,-0.005624924721044748,-0.026109339067212238,0.024572325413357646,0.9993412147305523
1718608629088861163,148,1718608629088861427,8.76428186253817,-16.218352518823362,2.093252354941116,-0.00591450550657647,-0.026055659814421612,0.024659571900051972,0.9993387947687982
1718608629114458797,149,1718608629114459024,8.774022901294842,-16.22594272008481,2.0905489515413,-0.005951243214287875,-0.026177442515124126,0.02470164647077525,0.999334354892898
1718608629133405533,150,1718608629133405844,8.782365969902433,-16.232566810420924,2.087986941682238,-0.005836359308967397,-0.026202969401093495,0.024686133736298514,0.999334746771939
1718608629135942024,151,1718608629135942255,8.78965242302828,-16.238198003383193,2.0856506308614184,-0.005585994334696418,-0.026335344465004136,0.02461421944186782,0.9993344717863333
1718608629149186959,152,1718608629149187577,8.794910066339416,-16.24296468021088,2.0860567730396635,-0.005566054960673998,-0.026339609202180064,0.02458093131549039,0.9993352899977636
1718608629188917472,153,1718608629188917844,8.799292458089166,-16.245200987099537,2.08380622803361,-0.0059250392511793985,-0.026444192779704553,0.024467201722064694,0.9993332550345723
1718608629196692549,154,1718608629196692860,8.802972830228718,-16.247198258433887,2.0816541579719274,-0.006103049663518867,-0.02649195936622324,0.024482345872297355,0.9993305477239912
1718608629211839511,155,1718608629211839834,8.806228192266587,-16.248779847274545,2.0797108804756457,-0.0059994588089258265,-0.026740550349421008,0.024434372192920724,0.9993257281370013
1718608629221964136,156,1718608629221964520,8.809084921030902,-16.250040488451475,2.077918148539835,-0.006052103387321304,-0.02673477505625867,0.024411896356911537,0.9993261145209505
1718608629240197018,157,1718608629240197436,8.790005382593176,-16.23010787579338,2.0748313792042063,-0.005893965831623818,-0.026658278231709714,0.024339126834364726,0.999330878274777
1718608629269304124,158,1718608629269304449,8.77347818167144,-16.212735072958978,2.0720353250280157,-0.005673615393914868,-0.026561646091519998,0.024296388463854804,0.9993357666734861
1718608629321978192,159,1718608629321978468,8.759057814888841,-16.19767263551237,2.0662247397446416,-0.005603192903702845,-0.026535842527797386,0.02432427939719348,0.9993361710267628
1718608629323612393,160,1718608629323612553,8.74658311295849,-16.184504656489363,2.0610579572025136,-0.0057953646783248615,-0.026496134178491726,0.024418607021077073,0.9993338282340846
1718608629324734805,161,1718608629324735021,8.735649188176168,-16.173152160893842,2.0564165659041116,-0.005943492189236909,-0.02647641898600896,0.02447853473445968,0.9993320146355402
1718608629325644952,162,1718608629325645163,8.72610147138488,-16.16327907592516,2.0522230889132986,-0.005838583278528004,-0.026535455387486306,0.024493159957016356,0.9993307088586834
1718608629327246544,163,1718608629327246835,8.71791638401941,-16.154547268141084,2.048556551999517,-0.005804948589183567,-0.02652380652229082,0.024501430210261774,0.9993310113156184
1718608629338473880,164,1718608629338474165,8.710810554388221,-16.146941795766754,2.045258967537176,-0.005980763198787546,-0.02635682949371008,0.024530681131267395,0.9993336748523166
1718608629348721959,165,1718608629348722240,8.70452836155603,-16.140418937535312,2.0422522541219585,-0.0059990115155331225,-0.026150718602878528,0.02449849832164516,0.9993397697266801
1718608629386109929,166,1718608629386110315,8.699110832474393,-16.134637605623485,2.039542225588341,-0.005777868039311013,-0.026007566650015145,0.024476314119293293,0.9993453521005633
1718608629392889727,167,1718608629392889971,8.678574613136277,-16.11101315938371,2.037159740492318,-0.006083328472271982,-0.025309304513667114,0.02457090544318783,0.999359146065835
1718608629414441741,168,1718608629414441959,8.66074125016377,-16.090536845361772,2.0349754072968054,-0.006223902512724298,-0.02485795667956377,0.024653086204194402,0.9993675852096853
1718608629438521895,169,1718608629438522184,8.645218477186251,-16.070072164947394,2.033743472230933,-0.006001801536262999,-0.024471021538697613,0.024702069624806887,0.9993772837319362
1718608629485210915,170,1718608629485211222,8.63185112607141,-16.052250268585738,2.0326498128004395,-0.005961758004342747,-0.024217474879663435,0.024727187717889135,0.9993830784736726
1718608629486838634,171,1718608629486838833,8.618650283838548,-16.036729227680933,2.0348332864187,-0.005965736965697141,-0.023563257581278738,0.02478566312407113,0.9993972452324023
1718608629487960250,172,1718608629487960461,8.607208525615412,-16.02318727904127,2.0366142671231495,-0.005909954301690187,-0.02333328543860116,0.02482544106310777,0.9994019850424627
1718608629489154734,173,1718608629489154983,8.597354739851081,-16.011390411388557,2.038127050531082,-0.005983553848047751,-0.023057172156756168,0.024854412390596395,0.9994072353551376
1718608629491961313,174,1718608629491961487,8.588780085594617,-16.001171431388208,2.039327177908972,-0.006075170328299829,-0.022748500002073666,0.024865293758767892,0.9994134856101492
1718608629519966279,175,1718608629519967303,8.581359626478513,-15.992235530501965,2.04026521593667,-0.006003495341998991,-0.02213279558351356,0.024968883099250026,0.9994251609200725
1718608629521380660,176,1718608629521380874,8.574956590646291,-15.984439312188965,2.041012259422539,-0.006036726523813662,-0.021851412104671175,0.02500219732436028,0.9994303196575848
1718608629537959784,177,1718608629537960158,8.570666372587983,-15.979016036787044,2.047031790286563,-0.006016493602590875,-0.021415557098806763,0.025069202509579558,0.9994381975912325
1718608629549282976,178,1718608629549283331,8.566919475581624,-15.97425564816687,2.0521528941932683,-0.005925585344901846,-0.021221005677105637,0.025082833341565598,0.9994425485378996
1718608629576740019,179,1718608629576740374,8.563677391025987,-15.970113927467125,2.0565106980753267,-0.005968268941049367,-0.020784987309178153,0.02509789709802269,0.9994510791577853
1718608629593714861,180,1718608629593715257,8.597200007209665,-16.009629660542867,2.0601206811471373,-0.005846731989856494,-0.020025397533490877,0.02522278817526707,0.9994641615062192
1718608629599058506,181,1718608629599058733,8.626278415295683,-16.043907978362842,2.06315682234911,-0.005828642077410027,-0.019820197706178197,0.0252608331177841,0.9994673966691545
1718608629614279323,182,1718608629614279780,8.651481104843317,-16.073637847670764,2.065666931351447,-0.005805594642462975,-0.019455398680118963,0.0252619935629919,0.9994746691208678
1718608629639927689,183,1718608629639928117,8.675746835368393,-16.100592755296553,2.063017258698574,-0.005584543150933649,-0.01888551607275086,0.02532132338312814,0.9994853579430707
1718608629714503331,184,1718608629714503724,8.696746253081923,-16.12395908769518,2.0606129814622403,-0.005469834809220417,-0.018599422347798038,0.025358140058558496,0.999490423730142
1718608629730007219,185,1718608629730007567,8.715750485642776,-16.14218151582893,2.0568549942326806,-0.005780507099167005,-0.017469243335618785,0.0253657315325595,0.9995088748674398
1718608629736918648,186,1718608629736918993,8.731489344039154,-16.157105921539607,2.053368126673959,-0.0051898044980735,-0.01728017860340849,0.025401799682735024,0.9995144871034058
1718608629773909173,187,1718608629773909474,8.74509873852724,-16.17004307658401,2.0502184265406633,-0.005109303434475245,-0.017159980993425684,0.025429437822054386,0.9995162698839744
1718608629834759324,188,1718608629834759611,8.753216957921207,-16.18035811546607,2.057028284948765,-0.006590141820886118,-0.016829384251056262,0.02536962145182147,0.999514744345426
1718608629836651771,189,1718608629836651970,8.760223542478922,-16.189557812619988,2.062836559621304,-0.00634243723265912,-0.01687034312326698,0.0253461063770668,0.9995162529465819
1718608629838705967,190,1718608629838706165,8.766245318819468,-16.197478760066033,2.067730126280951,-0.006191203139176509,-0.016912385188920773,0.025274754488077672,0.9995182974895849
1718608629891778479,191,1718608629891778700,8.76990979901624,-16.204305294060013,2.068110255460776,-0.006573728940653566,-0.0170689025220132,0.025400011600191615,0.9995100189919153
1718608629897311375,192,1718608629897311600,8.773055891926354,-16.210174217430946,2.0683417068301786,-0.00660090205634369,-0.017001156700669946,0.02539710934734769,0.9995110682727233
1718608629911220653,193,1718608629911220848,8.77576650416297,-16.215199957122962,2.0684326769375865,-0.006820499993400403,-0.01688190387207493,0.025338458255425446,0.9995131037834032
1718608629921175168,194,1718608629921175493,8.778101347967002,-16.219566344693355,2.068406822015434,-0.00688462490731916,-0.016797277407321114,0.025292449554640474,0.999515255214803
1718608629937345660,195,1718608629937345993,8.77855231830597,-16.224596803082363,2.0680607566028986,-0.00681954197656526,-0.016688354901473287,0.02529883005224456,0.9995173644594174
1718608629946670293,196,1718608629946670674,8.778903005522068,-16.228926212170514,2.0675888790317787,-0.00669488851149413,-0.01661648555481347,0.025342143373364292,0.99951830730851
1718608629971322810,197,1718608629971323267,8.779198606396236,-16.232657822916796,2.0670960013445345,-0.006553153967232706,-0.01662528327115928,0.025508174649990355,0.9995148769054222
1718608630013742181,198,1718608630013742520,8.781327238644437,-16.235772205959442,2.0635843501915323,-0.006844470323081212,-0.016621843823035918,0.025692524674464208,0.9995082599507475
1718608630014638799,199,1718608630014639022,8.783161561299174,-16.238460849575603,2.060453863802074,-0.007126878868242457,-0.01657540146566247,0.025687843277231316,0.9995071777489214
1718608630015755606,200,1718608630015755770,8.784731418161783,-16.240788886369995,2.057611902346258,-0.007460014411767252,-0.016524618453483682,0.025739224568351322,0.9995042658681168
1718608630018002596,201,1718608630018002897,8.786074089203158,-16.242810430564955,2.0550074850547713,-0.0077640639691848755,-0.016503922063058514,0.025821114916951115,0.999500180035834
1718608630038469798,202,1718608630038470120,8.788127605386467,-16.24459587592673,2.0540787759917016,-0.007889683945910884,-0.016342050615144467,0.02603769002647725,0.9994962375952252
1718608630083339327,203,1718608630083339583,8.789876764365825,-16.246104192153386,2.0531749671088084,-0.00792491495295944,-0.01636200514602232,0.02613322697744529,0.9994931390251437
1718608630089730381,204,1718608630089730629,8.791235513049848,-16.247038034223177,2.0507391016505663,-0.00888955595608817,-0.015236956110228633,0.026568377465212456,0.9994913367719924
1718608630115396546,205,1718608630115396779,8.792386278153678,-16.247853352729756,2.048433283817346,-0.009340549232119525,-0.01501595972725716,0.026916368104110175,0.9994812575639404
1718608630136056286,206,1718608630136056495,8.796387764590513,-16.248810321547094,2.0467369722144433,-0.009219003593304959,-0.014853806766675874,0.02722004727817493,0.9994765847299569
1718608630145818573,207,1718608630145818885,8.79982074731365,-16.24960586437411,2.0450284946534634,-0.009229857440765965,-0.014685505947336835,0.02736771655491516,0.9994749390241177
1718608630165798999,208,1718608630165799350,8.802779440775183,-16.250285669865352,2.0433543278023505,-0.009506115192892078,-0.014491750101092502,0.027594944882156008,0.999468929967259
1718608630183305657,209,1718608630183306085,8.805326919730089,-16.250848548810712,2.041755232828957,-0.009914873469160583,-0.014205262093591874,0.027671612903437483,0.9994669517559174
1718608630185120112,210,1718608630185120349,8.807596261665413,-16.251282043049432,2.0400523429819417,-0.010727324921740028,-0.013956215471003827,0.02769070912503234,0.9994615416202383
1718608630191523131,211,1718608630191523388,8.80953177102295,-16.25160699491525,2.0383905127270756,-0.011449249335995292,-0.013642804547852265,0.027698404783869257,0.9994576463993561
1718608630211785342,212,1718608630211785555,8.811206422682158,-16.25189221149135,2.0368046159262825,-0.012742371450802311,-0.013132915029336837,0.027736809271879843,0.9994477614783364
1718608630221618125,213,1718608630221618428,8.81263256210499,-16.2521783705185,2.035283244588788,-0.013232353724326594,-0.013020632443755295,0.027780254567171467,0.9994416568273818
1718608630234921689,214,1718608630234924445,8.81382782704732,-16.25243917925361,2.033873484771667,-0.013618579724602465,-0.012804677444915051,0.02783143632854361,0.9994378348220097
1718608630243782884,215,1718608630243783276,8.814864464704677,-16.250677812044938,2.0310926582234883,-0.014008000167679755,-0.0124660904417675,0.027917648948474264,0.9994343287067889
1718608630288030232,216,1718608630288030937,8.804900733776211,-16.23685522329525,2.028111007638185,-0.015514258898947506,-0.011040690784589092,0.028087734406317046,0.9994240792044866
1718608630298706334,217,1718608630298706580,8.79622195115267,-16.22484377133755,2.025408878904461,-0.015581751522935079,-0.01066773683420759,0.028112516313508244,0.9994263829001294
1718608630313442033,218,1718608630313442464,8.788647991012184,-16.214441095527086,2.0228232086236,-0.015385225151408392,-0.010096299609049496,0.028178712026797052,0.9994334994234262
1718608630323833960,219,1718608630323834288,8.782045162904279,-16.205381776661785,2.020406569307017,-0.015299680245912156,-0.009879919444040859,0.028325139741476792,0.9994328358798193
1718608630340581155,220,1718608630340581385,8.778418959448022,-16.20149699284107,2.0043531064009334,-0.015396526030275253,-0.009461094020386498,0.02853191089001702,0.9994295196496352
1718608630378339120,221,1718608630378339473,8.775258160765613,-16.198052367606163,1.9902812611364984,-0.015767414237931317,-0.009288577430707103,0.028644310519603332,0.9994221402652733
1718608630386160467,222,1718608630386160816,8.772528952402467,-16.19547844709403,1.9784433363825935,-0.017046793419656082,-0.009020844011054673,0.02878900469478518,0.9993994318670186
1718608630406042530,223,1718608630406042989,8.77012014864209,-16.193146539653092,1.9680356505109315,-0.017259550449802853,-0.008932644106755781,0.028724594635527713,0.9993984257795073
1718608630411088495,224,1718608630411088850,8.768000637708916,-16.19111693753617,1.958901538770083,-0.017929716806581418,-0.008577806352784576,0.028621733308421993,0.99939268702339
1718608630421201363,225,1718608630421201571,8.766167996849322,-16.18933173308266,1.950956295768142,-0.018335738314223266,-0.008314921141349215,0.028614292478606956,0.999387755104511
1718608630437161353,226,1718608630437161635,8.784279126703538,-16.20948231765735,1.9481401085099723,-0.018732060764320962,-0.007775236501600958,0.02871107366759322,0.9993819739447575
1718608630447375966,227,1718608630447376159,8.799963743937713,-16.22694695457187,1.9455964795450174,-0.018825478855638435,-0.007503441536468262,0.02879321203223581,0.9993799330844259
1718608630488272444,228,1718608630488272677,8.813534124023157,-16.242055876477956,1.9432032414086435,-0.018783348348768932,-0.007010578197501074,0.028884951050163955,0.9993816574367248
1718608630490494108,229,1718608630490494359,8.825581025191287,-16.255477161190846,1.942994420397121,-0.019116302537286297,-0.006653434452555257,0.028689072776065905,0.9993834278646699
1718608630512935462,230,1718608630512935772,8.836012823068728,-16.267124612941902,1.9427515238246122,-0.020102322584616163,-0.006636229037507851,0.028305631811067874,0.999375128917386
1718608630522939671,231,1718608630522940018,8.84503308588853,-16.277287275523097,1.9424361329750763,-0.020266772846966888,-0.006619917120306335,0.02829040913104673,0.999372346709117
1718608630533503693,232,1718608630533503982,8.852858595974986,-16.28611074267898,1.9421475893226228,-0.020204070595859377,-0.006602089734569913,0.028354141356464233,0.9993719280680401
1718608630548330230,233,1718608630548330474,8.856055815229137,-16.292758098160096,1.9352952855453134,-0.02009459230870618,-0.006632948355177085,0.02843627359747549,0.9993715974050664
1718608630576884242,234,1718608630576884599,8.85881346253301,-16.298458870655303,1.9293116959410834,-0.01999233699931143,-0.006714438677657189,0.02855150826746203,0.9993698185107468
1718608630617654231,235,1718608630617654655,8.860943228484096,-16.303378157456823,1.9225401253621668,-0.01982246768102744,-0.007045493930413178,0.028568074096087564,0.9993704497996485
1718608630618975913,236,1718608630618976099,8.862723444425775,-16.30763338062953,1.9166331846298192,-0.019540365357399614,-0.007065754694714011,0.028672297788532794,0.9993728776446854
1718608630635256494,237,1718608630635256721,8.860594274215476,-16.325049016943908,1.9202124861175578,-0.01935004173671621,-0.006699918481934399,0.028678015507077347,0.9993789363418155
1718608630666096278,238,1718608630666096772,8.858678056078293,-16.340077750931307,1.9232556480361789,-0.019359589779004267,-0.006522686448267606,0.028624919129577184,0.9993814461205048
1718608630712880795,239,1718608630712881242,8.856953698149276,-16.353132596993383,1.9257878813723248,-0.01933397729360258,-0.006316523546826245,0.028535064370875256,0.999385835878037
1718608630714570007,240,1718608630714570341,8.854201940430602,-16.361362398794324,1.9356918674934807,-0.018756511065418473,-0.006246271979301236,0.028625523264622144,0.9993946952014705
1718608630719660682,241,1718608630719661113,8.85179660505197,-16.368441683099864,1.9443043146187595,-0.01845456458492228,-0.006146535692944848,0.02865566289917605,0.9994000711070442
1718608630720737715,242,1718608630720737989,8.849672457448943,-16.374543402349687,1.9517416842169515,-0.018225156381730504,-0.006121733271106206,0.028616551207100792,0.9994055538436988
1718608630722644509,243,1718608630722644866,8.84779072679327,-16.379824199643277,1.958204612127003,-0.018069980179298673,-0.006153801755992963,0.0285712808125057,0.9994094698635794
1718608630739399077,244,1718608630739399442,8.85106067196558,-16.38859593694911,1.9682151109410697,-0.017772059151907573,-0.005983069757040136,0.02857391231679026,0.9994157735020476
1718608630749426171,245,1718608630749426504,8.853847957637157,-16.396166877348712,1.976857196414841,-0.01761177831022079,-0.0059730169824858915,0.028598571496172287,0.9994179656386295
1718608630778215880,246,1718608630778216206,8.856256346454423,-16.402695436677824,1.984353530493783,-0.01745468256947206,-0.006043265619993364,0.02864727179105219,0.9994189045720392
1718608630801034048,247,1718608630801034287,8.857546716516229,-16.40898854335052,1.9887846399868774,-0.017241406670934087,-0.006437703774853224,0.028740956521085433,0.9994174539622409
1718608630858369774,248,1718608630858370675,8.859645216913908,-16.399249784917906,1.9842811100773796,-0.016966986651091583,-0.007414344370382878,0.02855690256163383,0.9994206582703924
1718608630882454351,249,1718608630882454728,8.861440985843526,-16.390766525656375,1.9805517770004653,-0.0168094038879969,-0.0072893793658530825,0.02856183423175789,0.999424099426619
1718608630897635314,250,1718608630897635794,8.862972454474136,-16.3834028368059,1.9773827378200568,-0.01684222114399058,-0.0070874683418875335,0.02861347303551179,0.9994235221067621
1718608630900464051,251,1718608630900464352,8.868404583542002,-16.376962414312104,1.97471790090615,-0.016953085721069003,-0.006929700883744714,0.028634640036797877,0.9994221478034989
1718608630924941659,252,1718608630924941935,8.873063298149432,-16.371379366217088,1.9724838265849305,-0.0169733082363913,-0.00683350448988081,0.028443804226937364,0.999427916372661
1718608630938774033,253,1718608630938774333,8.876708867960645,-16.37056611481539,1.9717653387665395,-0.01578943954807587,-0.007109579936625196,0.028296075127575294,0.9994495883256228
1718608630968151618,254,1718608630968151892,8.879824445678384,-16.3698642799675,1.971269384893698,-0.01431711938757712,-0.0072674122098385875,0.028228079690160054,0.9994725510634197
1718608630996866051,255,1718608630996866290,8.882474526742616,-16.369242234681852,1.9709751922938425,-0.013840658378897289,-0.007301430106453468,0.02825460167307275,0.9994782652856116
1718608631021857868,256,1718608631021858059,8.872790793311026,-16.36235278488323,1.9632418154814475,-0.013325927176904014,-0.007415870335119473,0.028306693422185857,0.9994829441463976
1718608631041446474,257,1718608631041446812,8.86435760774495,-16.35635888332563,1.956627063691694,-0.012393193824940146,-0.00784382662793341,0.028334769378083546,0.9994908823870978
1718608631048360456,258,1718608631048360681,8.85163681392805,-16.353742207567834,1.9525718408429078,-0.011617363090390471,-0.008197313865901583,0.028258276275871467,0.9994995301360208
1718608631058726206,259,1718608631058726623,8.840546135746468,-16.351450957861317,1.9491980257461565,-0.01131046399507984,-0.008202509441506765,0.028243301532338592,0.9995034307903258
1718608631178265076,260,1718608631178265419,8.803796708730662,-16.329661677197965,1.9334422862765817,-0.006167497381436332,-0.009382881996589265,0.028494111711068155,0.9995308945196667
1718608631235300467,261,1718608631235300775,8.775131094560084,-16.32841408091851,1.8977589494136484,-0.004624696772237459,-0.009698336646473769,0.028647274762764678,0.9995318344578742
1718608631236581319,262,1718608631236581522,8.749031955237935,-16.329913122537373,1.866823605036508,-0.0031104560018088492,-0.010115410052401828,0.028700628826881344,0.9995320292256142
1718608631237712542,263,1718608631237712840,8.726347645099146,-16.331174195556837,1.8400300213439549,-0.0024312158428617036,-0.010279636371935663,0.028673591676913197,0.9995330126643801
1718608631310705144,264,1718608631310705553,8.706638588167309,-16.332244286541233,1.8168382530064757,-0.0016903041433425261,-0.010446197588121004,0.028650782954717645,0.9995334674056365
1718608631312731785,265,1718608631312732045,8.700837980220875,-16.345548521083895,1.80961217167078,0.0028922589600361916,-0.01087633954936539,0.028893378668644082,0.9995191407598082
1718608631338371080,266,1718608631338371322,8.695786154424471,-16.35704943403355,1.803317517266516,0.004286058601912762,-0.011004616221817231,0.02899100556504414,0.999509904763229
1718608631349324414,267,1718608631349324640,8.687151213624052,-16.368180902201765,1.7871125523026017,0.0047759795969746855,-0.011056332796812845,0.028975016654071463,0.9995075767265957
1718608631390616361,268,1718608631390616627,8.679605158842897,-16.37784579974948,1.7729858980680524,0.00619236028818569,-0.011234317451187402,0.02894108252729009,0.9994988036649248
1718608631405111618,269,1718608631405111948,8.669120161334622,-16.389277222990078,1.7705448439399725,0.006604287255382417,-0.011281920643414699,0.029007698928091387,0.9994936993595013
1718608631410314760,270,1718608631410314972,8.660022295691157,-16.399157311454374,1.7683882740409322,0.007036738139598933,-0.011349279681393801,0.02907619263977848,0.9994879955200277
1718608631420233933,271,1718608631420234201,8.652121668391086,-16.407697484778716,1.7664410557906247,0.0073371420189094,-0.011417589001019982,0.0290952092437744,0.9994845040356849
1718608631436508553,272,1718608631436508856,8.64452242640115,-16.416486918951456,1.7609086997326895,0.007589581365405444,-0.01158506600783109,0.02908411041371643,0.9994810148380683
1718608631451779316,273,1718608631451779508,8.637919798523114,-16.424108384308596,1.7560504650992537,0.007786657562835401,-0.011684720256840073,0.029053758462813398,0.9994792215927768
1718608631463761494,274,1718608631463761717,8.63220936482572,-16.430678492099155,1.7517782053655322,0.008087715671630658,-0.011728452878954352,0.02904329866346789,0.9994766225635423
1718608631503862178,275,1718608631503862434,8.643919453437057,-16.45493530696601,1.7671967315832313,0.008842311461844504,-0.011918660729443592,0.029032732182647757,0.9994682883996064
1718608631520868814,276,1718608631520869198,8.654085848213178,-16.475960443098426,1.7805018796070315,0.010181457494602636,-0.011944540493584664,0.02892944707045654,0.9994582297264255
1718608631528977647,277,1718608631528977869,8.662887333045926,-16.494179135797932,1.7919146609717964,0.010732935887337916,-0.011931261209792878,0.02891344430085005,0.9994530813559203
1718608631608743533,278,1718608631608743826,8.668111207402397,-16.508179031828885,1.8038028722633046,0.012349271038289174,-0.011717027864103549,0.02903703525781906,0.9994333681373115
1718608631611662810,279,1718608631611662992,8.672632241820512,-16.520294573922282,1.8139814542053723,0.012848056956652032,-0.01126322077688848,0.028968468305359516,0.9994342875518185
1718608631621297241,280,1718608631621297526,8.676550969025527,-16.5307674383804,1.8226970161365534,0.012977835681061907,-0.011170130187569708,0.028963059094975274,0.999433812305992
1718608631636964842,281,1718608631636965107,8.678649260486662,-16.53565683310473,1.8333234107561946,0.013400975203721296,-0.011051478456711422,0.028971090024152477,0.9994293144741766
1718608631688643299,282,1718608631688643620,8.680465635773317,-16.53986147181301,1.8424576531063581,0.014505314237348417,-0.010781752577126873,0.02893346095095516,0.9994179328527385
1718608631690727418,283,1718608631690727597,8.687251701748075,-16.532922754581808,1.855719863517826,0.014964229669142591,-0.010491401405052019,0.028938888170156198,0.9994140998997575
1718608631698117973,284,1718608631698118171,8.693144660065503,-16.526841685887565,1.867143005481816,0.014994279878767959,-0.010363048504759078,0.028950692054703207,0.9994146467938916
1718608631711996445,285,1718608631711996859,8.698229017576423,-16.521542708587525,1.876891034844889,0.01518040324654604,-0.010086427362904715,0.02893191180578062,0.9994152109206602
1718608631722090628,286,1718608631722090917,8.702646505435574,-16.516928652417047,1.8852484842359114,0.015490051982894994,-0.010039537342236615,0.028924529921669464,0.9994111453992953
1718608631738367317,287,1718608631738367511,8.706196818356332,-16.510542178415232,1.8961566257763025,0.016007401684126385,-0.009888691069261317,0.02894182840053359,0.999403996114231
1718608631749271943,288,1718608631749272238,8.709250639844395,-16.50500672194624,1.9054963178864737,0.01623330815652974,-0.009752152437027537,0.028942191823135222,0.9994016833894233
1718608631787628110,289,1718608631787628466,8.71161783000326,-16.50018696461286,1.9135028021753746,0.016325039535308786,-0.009669837391561137,0.028957673829663567,0.999400540551868
1718608631790919534,290,1718608631790919757,8.713658945332678,-16.49599665375127,1.920337991382582,0.016190093489299475,-0.009403435791375467,0.029063877577512033,0.9994021949587086
1718608631816129882,291,1718608631816130200,8.715410602113156,-16.492368474821916,1.9261470703934978,0.015649057394318783,-0.009375067109984175,0.029123510178231872,0.9994093436996929
1718608631840205477,292,1718608631840205703,8.711643837310923,-16.482346302708613,1.925393105893048,0.015437987219374111,-0.009394561620150147,0.029215173012971263,0.9994097680273101
1718608631888740686,293,1718608631888740996,8.708350459555184,-16.47367514014713,1.9245621396916575,0.015523524608100397,-0.009392303204807193,0.029306889788215416,0.9994057789682786
1718608631925023084,294,1718608631925023263,8.704952346366976,-16.462104498370508,1.9250857544375573,0.014859890047644838,-0.009553836924570623,0.029696018330459425,0.9994028488868278
1718608631925803542,295,1718608631925803744,8.702005586653623,-16.45206856812565,1.9254468358842713,0.014703836281924969,-0.009629764908906087,0.029676029421253306,0.9994050220527124
1718608631933169217,296,1718608631933169535,8.699460032493402,-16.443344724404227,1.9257255488578997,0.014740321852360528,-0.009753160538190168,0.02965156373888434,0.9994040141699673
1718608631945603051,297,1718608631945603730,8.697224992074531,-16.43266288546406,1.9267417538170795,0.014773293148530528,-0.009857106165791742,0.02963564866775107,0.9994029795811225
1718608631963096782,298,1718608631963097139,8.695262683725137,-16.423395157908935,1.9275164994960836,0.014686654492785618,-0.010090074619368878,0.029673578562992967,0.9994008061379833
1718608632016795702,299,1718608632016796021,8.692110466874759,-16.415358001766737,1.919714421591008,0.014547390019041134,-0.010291088706547867,0.029735651004159452,0.9993989483665804
1718608632018099319,300,1718608632018099645,8.689378976437492,-16.408373891499103,1.912941437135675,0.01369646183997649,-0.011708168383144302,0.030106583258612315,0.9993842701236949
1718608632019871369,301,1718608632019871536,8.68699751582399,-16.402235443995515,1.9070786525745838,0.01341412851272013,-0.012095666336494419,0.030044797425404616,0.9993853441790043
1718608632035526026,302,1718608632035526451,8.642713215966328,-16.36533173989073,1.891622638048806,0.012995518221590003,-0.012348762216969553,0.029882427966396032,0.9993926481001819
1718608632046137543,303,1718608632046137804,8.604248946500427,-16.333344196283186,1.87816270077846,0.012623687251908482,-0.01232637371830599,0.029802960884953943,0.9994000633147933
1718608632068738525,304,1718608632068738872,8.570846317103605,-16.305575507480306,1.866471635180848,0.011798726183211447,-0.012318155507405656,0.02977865322182774,0.9994109689800503
1718608632160047801,305,1718608632160048107,8.532801330718211,-16.285136872211474,1.8559656189240636,0.010331690142833912,-0.012176761204973031,0.03011393311652085,0.9994188980090396
1718608632184418373,306,1718608632184418811,8.499743150038697,-16.263196387800363,1.8468220505139097,0.007425113207130076,-0.01119931637711031,0.03022557717312243,0.9994527790201487
1718608632191322085,307,1718608632191322355,8.522622179281832,-16.3074177112426,1.8480886050423833,0.006142576213662411,-0.010626465062378536,0.03039102809431781,0.9994627218706598
1718608632212711327,308,1718608632212711541,8.542509836790693,-16.345788282090282,1.8492836098429424,0.005339663735492317,-0.01015326714103255,0.03063608960380302,0.9994647713508178
1718608632221457739,309,1718608632221457935,8.559782147072713,-16.37911999081839,1.850373041916565,0.00502129959514727,-0.009880724154373853,0.03074715407827838,0.9994657424627658
1718608632235543879,310,1718608632235544090,8.568087917970953,-16.393256852199972,1.835073308475421,0.0046751336229138235,-0.009519631050114408,0.030796717875122157,0.9994694001911203
1718608632246840169,311,1718608632246840365,8.575244511353429,-16.40543845240302,1.8217555108916217,0.004394421522301017,-0.00919106358485994,0.030799302521199168,0.9994736696751302
1718608632266746839,312,1718608632266747177,8.581440101949077,-16.41602491883993,1.8102101245874505,0.003932678708209825,-0.008792812232402015,0.030753989569098774,0.9994805714053713
1718608632291989877,313,1718608632291990319,8.58675894527892,-16.425201135497435,1.800149662830085,0.003391097461103247,-0.008313169527651605,0.030693763220017063,0.9994885114746479
1718608632344482232,314,1718608632344482470,8.589460077311319,-16.430753233089682,1.7922198722329312,0.0030209998686774437,-0.008044014459928922,0.030703433862104907,0.999491604036891
1718608632354490718,315,1718608632354491071,8.591807667547727,-16.435568270754047,1.7853667336554013,0.0012027037434705263,-0.006029833741824617,0.031084725961298156,0.9994978411285651
1718608632429687412,316,1718608632429687798,8.546447135557113,-16.39139554128976,1.7961457290191072,-6.0143343161115074e-05,-0.004981415130744616,0.031128578403883524,0.9995029732285076
1718608632442117725,317,1718608632442118060,8.507094416161355,-16.353051684893707,1.8056330532060956,-0.0031004114889299065,-0.003658380536355451,0.031229633235960574,0.999500732220041
1718608632464908467,318,1718608632464908850,8.481446181873768,-16.314256188074978,1.8171896985611633,-0.003624305021741739,-0.0030762712957339688,0.031341045166939696,0.9994974436464898
1718608632490104348,319,1718608632490104595,8.459170370405477,-16.280578180912457,1.82726839406419,-0.003853253573463126,-0.002765980861259544,0.0313662794700207,0.999496702495302
1718608632491788317,320,1718608632491788631,8.433396308689417,-16.251318096244912,1.8360517271667305,-0.004957131443760653,-0.0014882856816394383,0.03138623675553783,0.9994939299445017
1718608632497813261,321,1718608632497813584,8.411036082213716,-16.22590998849349,1.8437528175179139,-0.00519719039360895,-0.0013433171395456566,0.0314136763511523,0.9994920538199292
1718608632513282514,322,1718608632513282758,8.391617945728601,-16.203886747775698,1.8504279478410706,-0.005511168037766082,-0.0010712462723049478,0.03143347971114704,0.9994900778954899
1718608632524168291,323,1718608632524168750,8.374770869525666,-16.184802098152694,1.8562553338205452,-0.005623475085795691,-0.0010015965834197303,0.03143787814533825,0.9994893862117608
1718608632535850252,324,1718608632535850522,8.360163473583885,-16.168266474745426,1.8613594399053863,-0.005620052049794207,-0.0008930252849540121,0.03146237214929214,0.9994887376351659
1718608632544096242,325,1718608632544096595,8.34891492070604,-16.15393260444026,1.8622485385523595,-0.005511524921065086,-0.0008029244831154819,0.03149145746754053,0.9994885024410681
