time,field.header.seq,field.header.stamp,field.pose.pose.position.x,field.pose.pose.position.y,field.pose.pose.position.z,field.pose.pose.orientation.x,field.pose.pose.orientation.y,field.pose.pose.orientation.z,field.pose.pose.orientation.w
1718608626485670407,1,1718608626485670645,-0.0010303925256606088,-0.00010670709442677672,5.19027987206402e-06,-0.005733857362392172,-0.025623987987207584,0.023560654179036605,0.9993775211070314
1718608626487090246,2,1718608626487090461,-0.0020607850513212175,-0.00021341418885355344,1.038055974412804e-05,-0.005941484104438096,-0.025615401483983627,0.023771919233952547,0.9993715254245467
1718608626498951350,3,1718608626498951553,-0.0030911775769818265,-0.00032012128328033016,1.557083961619206e-05,-0.005950349304050464,-0.025623796167496497,0.02386114155857019,0.9993691311705842
1718608626508360524,4,1718608626508360670,-0.004121570102642435,-0.0004268283777071069,2.076111948825608e-05,-0.005928320581921196,-0.0256293909068519,0.02392897849030522,0.9993674966323611
1718608626519586139,5,1718608626519586817,-0.005151962628303044,-0.0005335354721338836,2.5951399360320102e-05,-0.005892307090507786,-0.025642073036970452,0.023972012341042598,0.9993663529616347
1718608626537379766,6,1718608626537379976,-0.006182355153963652,-0.0006402425665606602,3.114167923238412e-05,-0.0057923575519196096,-0.0256108718726896,0.024004847054675302,0.9993669492002389
1718608626551721259,7,1718608626551721483,-0.007212747679624261,-0.0007469496609874369,3.633195910444814e-05,-0.005750584248934047,-0.02558165528025504,0.024005490588727047,0.9993679232972773
1718608626587248572,8,1718608626587248830,-0.0066286837693188185,-0.0006118170046135627,-0.00020257700475298615,-0.005752035654346107,-0.025543660775700996,0.024033618138359233,0.9993682107607719
1718608626588316291,9,1718608626588316499,-0.006044619859013376,-0.0004766843482396886,-0.0004414859686104204,-0.005804849197768251,-0.02552194652085926,0.024077895509785025,0.9993673943647539
1718608626589128943,10,1718608626589129177,-0.005460555948707934,-0.0003415516918658145,-0.0006803949324678547,-0.0058800314676857035,-0.025514230836116352,0.02415034996572073,0.9993654035693419
1718608626612129366,11,1718608626612129613,-0.004876492038402492,-0.0002064190354919403,-0.0009193038963252891,-0.005936190295426271,-0.025521746948779057,0.024211901394267977,0.9993633903182231
1718608626619792864,12,1718608626619793155,-0.0042924281280970495,-7.128637911806615e-05,-0.0011582128601827233,-0.005893467581994351,-0.025545591862227598,0.024198268061155385,0.9993633641469497
1718608626624609300,13,1718608626624609481,-0.003708364217791607,6.384627725580802e-05,-0.0013971218240401576,-0.005832609280529762,-0.02555735606769303,0.024148721354163516,0.999364618883803
1718608626639573778,14,1718608626639574145,-0.003124300307486164,0.00019897893362968218,-0.001636030787897592,-0.005731714220201135,-0.025519521000722255,0.02403172579002804,0.9993689897407986
1718608626680755200,15,1718608626680755507,-0.0036038722977202054,0.0008841672542455236,-0.001998635176402447,-0.005753996704042411,-0.02547363529857161,0.02388285068100547,0.9993736012472784
1718608626710734832,16,1718608626710735070,-0.004083444287954247,0.0015693555748613648,-0.0023612395649073017,-0.005881409382262682,-0.02544763951145224,0.023800742755589396,0.9993754806434144
1718608626722092332,17,1718608626722092560,-0.004563016278188288,0.002254543895477206,-0.0027238439534121566,-0.005855124650975203,-0.025445698729619676,0.02378604459001877,0.9993760343405502
1718608626731654542,18,1718608626731654770,-0.005042588268422329,0.0029397322160930476,-0.0030864483419170115,-0.0058039693296592434,-0.025440637489549042,0.023767138336548303,0.9993769114000168
1718608626741438138,19,1718608626741438280,-0.0055221602586563705,0.003624920536708889,-0.0034490527304218664,-0.0057410805853902415,-0.0254356444709535,0.02373948072668104,0.9993780591142107
1718608626766637087,20,1718608626766637365,-0.004719828414570693,0.0031242080052248165,-0.00369021023097366,-0.005687933371961415,-0.025427469790516227,0.023705027817398982,0.9993793888459902
1718608626767568175,21,1718608626767568476,-0.003917496570485015,0.002623495473740744,-0.003931367731525454,-0.00567844170047257,-0.025388713297074525,0.023704336368871252,0.9993804445626724
1718608626774064275,22,1718608626774064436,-0.003115164726399337,0.0021227829422566717,-0.004172525232077248,-0.005723011059299586,-0.025353030546360386,0.02373941923463513,0.9993802634437668
1718608626789258520,23,1718608626789258732,-0.0023128328823136595,0.0016220704107725993,-0.004413682732629042,-0.005847657623697148,-0.0253249798970554,0.023858407714428993,0.9993774195342127
1718608626800250482,24,1718608626800250696,-0.001510501038227982,0.0011213578792885269,-0.004654840233180836,-0.005940702831344876,-0.02534690164116959,0.02396069129836831,0.9993738679290982
1718608626814184027,25,1718608626814184280,-0.0007081691941423045,0.0006206453478044545,-0.00489599773373263,-0.005973334061089046,-0.02536680220404905,0.0240456242517267,0.9993711285505902
1718608626831264121,26,1718608626831264331,9.416264994337306e-05,0.00011993281632038206,-0.005137155234284424,-0.005901820414070979,-0.025360447951074633,0.02406380852575179,0.9993712770110801
1718608626841063687,27,1718608626841063957,0.0008964944940290506,-0.00038077971516369035,-0.0053783127348362185,-0.0057369566756645075,-0.02536079774331333,0.024054429742338665,0.9993724539308132
1718608626850395294,28,1718608626850395505,0.0016988263381147281,-0.0008814922466477628,-0.005619470235388013,-0.005674177571720787,-0.025350808163411277,0.02406534091392685,0.9993728031125537
1718608626867064134,29,1718608626867064390,0.0011561329195019284,-0.00044353517088144745,-0.005504609509397581,-0.005678824783820837,-0.025259405918011738,0.024099089809346757,0.9993742778519492
1718608626899172595,30,1718608626899172841,0.0006134395008891288,-5.57809511513214e-06,-0.00538974878340715,-0.005921597783145593,-0.0253179340970755,0.024228303499193256,0.9993682635556834
1718608626911173278,31,1718608626911173468,7.07460822763292e-05,0.00043237898065118317,-0.005274888057416718,-0.005938358922957815,-0.025320300202996946,0.02424296117662267,0.9993677486913017
1718608626921088333,32,1718608626921088530,-0.0004719473363364704,0.0008703360564174985,-0.005160027331426287,-0.00582286609463738,-0.0253403870357872,0.02419085188213859,0.999369181884521
1718608626937058208,33,1718608626937058473,-0.00101464075494927,0.0013082931321838137,-0.005045166605435855,-0.005697085991068552,-0.025290198638747888,0.02411467024587291,0.9993730193190907
1718608626949820462,34,1718608626949820679,-0.0015573341735620697,0.0017462502079501289,-0.004930305879445424,-0.005624423084590663,-0.02523637293900699,0.024008945705302036,0.9993773370814294
1718608626975285483,35,1718608626975285736,-0.0017645346792345285,0.0013189115558334985,-0.004773498498875671,-0.005684692506144706,-0.025242611976074514,0.023934852627698313,0.9993786157615272
1718608626987791967,36,1718608626987792162,-0.0019717351849069874,0.000891572903716868,-0.004616691118305918,-0.0059141166684221706,-0.025255936680774763,0.023898619834155414,0.9993778148710484
1718608626998056985,37,1718608626998057192,-0.0021789356905794464,0.00046423425160023755,-0.004459883737736165,-0.005950529092270435,-0.025235658358665883,0.023897461448403063,0.9993781386877787
1718608627013420248,38,1718608627013420489,-0.0023861361962519054,3.6895599483607075e-05,-0.004303076357166412,-0.0059255112956660425,-0.025322922667581363,0.02390710191826929,0.9993758494086827
1718608627024016997,39,1718608627024017213,-0.0025933367019243645,-0.0003904430526330234,-0.004146268976596659,-0.005821810101237589,-0.02537337689408396,0.02386284432192299,0.9993762369263157
1718608627033941573,40,1718608627033941818,-0.0028005372075968235,-0.0008177817047496539,-0.003989461596026906,-0.005669351587931654,-0.02535194681916079,0.02380550246943103,0.9993790248435419
1718608627043726963,41,1718608627043727166,-0.0030077377132692825,-0.0012451203568662843,-0.003832654215457153,-0.005564509183994395,-0.025359992700725822,0.023747765360565762,0.9993807836096008
1718608627074867513,42,1718608627074867743,-0.0033542279769111544,-0.0015939525649458176,-0.0037644082258416665,-0.005731380884492211,-0.025277655016995148,0.023784899562191604,0.9993810434377945
1718608627075744374,43,1718608627075744588,-0.0037007182405530263,-0.001942784773025351,-0.00369616223622618,-0.005882006487204287,-0.025290280077380666,0.02385473017620231,0.9993781844634756
1718608627090629521,44,1718608627090629833,-0.004047208504194898,-0.002291616981104884,-0.0036279162466106934,-0.005997438028853632,-0.025370415383723796,0.023935139363468694,0.9993735447088835
1718608627099913894,45,1718608627099914149,-0.0043936987678367696,-0.0026404491891844177,-0.003559670256995207,-0.006008520529750468,-0.02544688351823663,0.023976483544898862,0.9993705429104233
1718608627114872538,46,1718608627114872770,-0.004740189031478641,-0.0029892813972639512,-0.0034914242673797203,-0.005801502121292453,-0.02543288643190495,0.024088131146516596,0.9993694375948999
1718608627143635263,47,1718608627143635484,-0.005086679295120513,-0.0033381136053434847,-0.0034231782777642337,-0.005806881169969152,-0.025412221063003244,0.024150062972502145,0.9993684373693953
1718608627193543616,48,1718608627193544031,-0.005159212101763343,-0.002832172382631793,-0.003009858717611258,-0.005737680351190539,-0.025486288037120712,0.02416624821241792,0.9993665596734825
1718608627204540423,49,1718608627204540637,-0.005231744908406173,-0.0023262311599201013,-0.0025965391574582822,-0.005901752002522957,-0.025451740089273887,0.0242731904940882,0.9993638929203749
1718608627205088576,50,1718608627205088813,-0.005304277715049003,-0.0018202899372084095,-0.0021832195973053065,-0.0060347536052061486,-0.02553702642909331,0.024303774693519103,0.9993601795977919
1718608627205820619,51,1718608627205820794,-0.005376810521691833,-0.0013143487144967178,-0.001769900037152331,-0.006036922461997554,-0.02562120785363521,0.024279665699976492,0.9993585978560479
1718608627217227349,52,1718608627217227584,-0.005449343328334663,-0.0008084074917850261,-0.0013565804769993554,-0.005879513712633902,-0.025632121630325803,0.024247006591993157,0.9993600493968923
1718608627248219185,53,1718608627248219528,-0.005521876134977493,-0.0003024662690733345,-0.0009432609168463799,-0.005691982608779236,-0.025525401394497427,0.02415355397633071,0.9993661296281477
1718608627253327457,54,1718608627253327804,-0.005594408941620323,0.00020347495363835712,-0.0005299413566934043,-0.005757225315968477,-0.025556611359993178,0.024090495396806067,0.9993664803284088
1718608627279952057,55,1718608627279952412,-0.004934993792157416,-0.00028533414947786047,-0.0007002740424517345,-0.005794034308195401,-0.025592487167184038,0.024054422844674475,0.9993662184147725
1718608627291041112,56,1718608627291041353,-0.00427557864269451,-0.0007741432525940781,-0.0008706067282100646,-0.005939517757893919,-0.025511112588310934,0.023990305633553616,0.9993689861602264
1718608627314770421,57,1718608627314770663,-0.0036161634932316035,-0.0012629523557102958,-0.0010409394139683948,-0.0058602782905471575,-0.025575346841705954,0.02368271127275266,0.9993751487599914
1718608627343175401,58,1718608627343175658,-0.002956748343768697,-0.0017517614588265134,-0.001211272099726725,-0.005714086296153205,-0.025260979071394057,0.02344315663218151,0.999389639010368
1718608627366811731,59,1718608627366811945,-0.0034462147712715184,-0.002764358815939844,-0.0014404710729144588,-0.00570781038695871,-0.02545183414828043,0.023637809703538612,0.999380247449135
1718608627441122472,60,1718608627441122716,-0.00393568119877434,-0.003776956173053175,-0.0016696700461021926,-0.005516850188208587,-0.02542120870563027,0.0246710023221234,0.9993571274356168
1718608627447058472,61,1718608627447058666,-0.004425147626277161,-0.0047895535301665055,-0.0018988690192899265,-0.005505681781169476,-0.02543511527325488,0.024646985434051596,0.9993574277945676
1718608627500734125,62,1718608627500734397,-0.0038531676232391693,-0.0036996777826041943,-0.0007645351731904281,-0.006095679020561679,-0.025357689672952217,0.024938268582870144,0.9993487444490123
1718608627523006395,63,1718608627523006613,-0.0032811876202011774,-0.002609802035041883,0.0003697986729090702,-0.006125941816679092,-0.02545459359001029,0.0249870938762076,0.9993448762272451
1718608627523635521,64,1718608627523635664,-0.0027092076171631855,-0.001519926287479572,0.0015041325190085686,-0.005976198459259933,-0.025625285562514147,0.02490487219062857,0.9993434730526755
1718608627538544093,65,1718608627538544288,-0.0021372276141251936,-0.00043005053991726104,0.002638466365108067,-0.005869770922404932,-0.025537273063887218,0.024685273090637706,0.9993518053049285
1718608627556826797,66,1718608627556827438,-0.0015652476110872018,0.00065982520764505,0.003772800211207565,-0.005856463599106798,-0.025518854702986146,0.02450009958011713,0.999356910722753
1718608627576929641,67,1718608627576929841,-0.0015667382349199594,-0.00039625259800360035,0.003286265852149522,-0.005797559476936746,-0.025647236197485945,0.024352532129141635,0.9993575745239743
1718608627587402545,68,1718608627587402929,-0.001568228858752717,-0.0014523304036522507,0.002799731493091479,-0.005887500054192329,-0.02543015968360578,0.0242086203184696,0.9993660925926267
1718608627598349094,69,1718608627598349433,-0.0015697194825854746,-0.002508408209300901,0.0023131971340334357,-0.005919915796057912,-0.025598036718551067,0.02421479738377831,0.9993614654872309
1718608627612044995,70,1718608627612045177,-0.0015712101064182323,-0.0035644860149495515,0.0018266627749753924,-0.005892031000879171,-0.02557526947428588,0.024191197443608262,0.9993627847424811
1718608627622070425,71,1718608627622070700,-0.00157270073025099,-0.004620563820598202,0.001340128415917349,-0.005780650953579127,-0.025526738418217638,0.024173575211738667,0.9993651024334216
1718608627637536081,72,1718608627637536311,-0.0015741913540837475,-0.005676641626246852,0.0008535940568593057,-0.005603203394804849,-0.02572284195115285,0.02409272946749656,0.9993630370893645
1718608627668317549,73,1718608627668318037,-0.0014033039596612748,-0.0056697439651862995,0.0005742021589021397,-0.005608962262216922,-0.025684788269477715,0.024040197435381855,0.9993652485959079
1718608627713797152,74,1718608627713797357,-0.001232416565238802,-0.005662846304125747,0.0002948102609449737,-0.005867622583850317,-0.026095430369095285,0.024362218630336586,0.9993453266126144
1718608627724116585,75,1718608627724116793,-0.0010615291708163293,-0.005655948643065195,1.541836298780768e-05,-0.005871315253767413,-0.026105935580829253,0.02446493968153268,0.9993425211162684
1718608627734308649,76,1718608627734308798,-0.0008906417763938565,-0.005649050982004643,-0.00026397353496935834,-0.005794582449473696,-0.02604498353658424,0.02451711904357806,0.9993432806201372
1718608627744217411,77,1718608627744217968,-0.0007197543819713837,-0.00564215332094409,-0.0005433654329265244,-0.005658928595564757,-0.026174136559340776,0.02453418186428827,0.9993402648861766
1718608627757966817,78,1718608627757967749,-0.000548866987548911,-0.005635255659883538,-0.0008227573308836904,-0.005642896325995386,-0.026260514780893467,0.02457434041579778,0.9993371027224123
1718608627794838128,79,1718608627794838373,-0.0003457859299010285,-0.004905832638156004,-0.0009445427195095598,-0.005707072356823611,-0.026318957093354838,0.024642397704724355,0.9993335249344908
1718608627838259852,80,1718608627838260079,-0.00014270487225314605,-0.0041764096164284715,-0.0010663281081354293,-0.005791925275660733,-0.02657823598647397,0.024718006714934324,0.9993243072784175
1718608627846336203,81,1718608627846336439,6.037618539473641e-05,-0.003446986594700938,-0.0011881134967612987,-0.00581059650518135,-0.026480257468702497,0.024676050951274876,0.9993278368193769
1718608627872595142,82,1718608627872595366,-8.667677658654466e-05,-0.003287895065010117,-0.0016960983457563954,-0.005717536540954709,-0.02663261648570527,0.024543181382320423,0.9993275968183121
1718608627892039179,83,1718608627892039384,-0.00023372973856782572,-0.0031288035353192957,-0.0022040831947514918,-0.0059886959614437905,-0.026570699385978704,0.024381035275416567,0.999331625924908
1718608627927098164,84,1718608627927098590,-0.00038078270054910676,-0.0029697120056284745,-0.0027120680437465886,-0.005902331425233648,-0.026730984668683865,0.024318606028995927,0.9993293863102374
1718608627942619641,85,1718608627942619907,-0.0005278356625303878,-0.0028106204759376532,-0.0032200528927416854,-0.005868434041370611,-0.0267037212157913,0.024292523317421315,0.9993309492185278
1718608627980551160,86,1718608627980551561,-0.0012000541766381953,-0.0041136115149997925,-0.0031521748296883347,-0.005809629204539507,-0.026639351018476354,0.02428800557729294,0.999333120621396
1718608627992160004,87,1718608627992160247,-0.0018722726907460028,-0.005416602554061931,-0.003084296766634984,-0.00594948031383309,-0.026686384622365614,0.024155634796927727,0.9993342513230196
1718608628015194701,88,1718608628015194925,-0.0025444912048538104,-0.00671959359312407,-0.0030164187035816334,-0.005878032161855284,-0.026835169536873676,0.02418004898090289,0.9993300994391755
1718608628036282595,89,1718608628036282999,-0.003216709718961618,-0.008022584632186209,-0.0029485406405282827,-0.005943858419100415,-0.02668914335176547,0.024252177693422434,0.9993318728287262
1718608628078607865,90,1718608628078607984,-0.0035586009476687693,-0.00751571526864309,-0.003345573681254623,-0.0057253539871098096,-0.026643617222399538,0.024378044662264575,0.999331300881481
1718608628119876690,91,1718608628119876846,-0.0039004921763759206,-0.00700884590509997,-0.0037426067219809636,-0.00597207890716279,-0.026319451214949267,0.024621769397494244,0.9993324718195677
1718608628121948078,92,1718608628121948233,-0.004242383405083072,-0.006501976541556851,-0.004139639762707304,-0.005838130899686879,-0.026414857422950976,0.024615141791482914,0.9993309093235876
1718608628143440327,93,1718608628143440535,-0.004584274633790224,-0.005995107178013732,-0.0045366728034336445,-0.005867759969186068,-0.026302439224083894,0.024610084600817702,0.9993338255156522
1718608628150269483,94,1718608628150269765,-0.004926165862497375,-0.0054882378144706125,-0.004933705844159985,-0.005863901883800404,-0.02614151749993678,0.02462328482328588,0.9993377454904868
1718608628206177831,95,1718608628206178126,-0.00499327737257465,-0.005294177594517036,-0.005033608976924284,-0.0060531111536184,-0.02594405443645241,0.024556968753878933,0.9993433950201408
1718608628263019366,96,1718608628263020034,-0.00548936341223825,-0.0049905592668340985,-0.004721413523002106,-0.005679786407265372,-0.025988402501214727,0.02442370800534183,0.9993476999768761
1718608628280713313,97,1718608628280713548,-0.0059854494519018505,-0.004686940939151161,-0.004409218069079928,-0.005770800516948659,-0.025887116259273,0.024384464568830082,0.9993507657278619
1718608628299107453,98,1718608628299107734,-0.006481535491565451,-0.0043833226114682235,-0.00409702261515775,-0.005840179764742583,-0.0257819285600031,0.024311370267899018,0.999354862766845
1718608628300108869,99,1718608628300109158,-0.006977621531229051,-0.004079704283785286,-0.003784827161235572,-0.005973421691649002,-0.02571042880456254,0.02434041610790087,0.9993552102369174
1718608628306688551,100,1718608628306688753,-0.007473707570892651,-0.0037760859561023485,-0.003472631707313394,-0.005900661229514575,-0.025832489981864847,0.02434120604248918,0.9993524755294242
1718608628315796704,101,1718608628315796837,-0.00796979361055625,-0.003472467628419411,-0.003160436253391216,-0.005849008214913545,-0.025982386326622725,0.024331196171233093,0.9993491369869456
1718608628338050921,102,1718608628338051137,-0.008465879650219851,-0.0031688493007364735,-0.002848240799469038,-0.00596059365321472,-0.02599338134519699,0.024346503224262434,0.9993478189450836
1718608628357891378,103,1718608628357891598,-0.008961965689883451,-0.002865230973053536,-0.00253604534554686,-0.005798555044840769,-0.02614067128240867,0.024314461460945562,0.999345710466684
1718608628374369895,104,1718608628374370181,-0.007766593444260504,-0.00241163032920426,-0.002400516939989343,-0.005838532571274556,-0.026140945279343193,0.024321452142731268,0.9993453004257263
1718608628393415804,105,1718608628393416031,-0.006571221198637556,-0.0019580296853549837,-0.002264988534431826,-0.0057520757031021994,-0.026335091226300088,0.024405836099719254,0.9993386471859687
1718608628398526724,106,1718608628398526901,-0.005375848953014609,-0.0015044290415057076,-0.002129460128874309,-0.005890560724026064,-0.026377444737352276,0.024450430322585922,0.9993356333887653
1718608628412674091,107,1718608628412674318,-0.0041804767073916616,-0.0010508283976564314,-0.001993931723316792,-0.005994630203807673,-0.026442886094136503,0.02453297068609031,0.9993312621613754
1718608628423027174,108,1718608628423027381,-0.002985104461768714,-0.0005972277538071551,-0.0018584033177592748,-0.005827290632588043,-0.026638165586011644,0.02454732043830076,0.9993267132811946
1718608628433332059,109,1718608628433332238,-0.0017897322161457665,-0.00014362710995787886,-0.0017228749122017578,-0.0057733797157184215,-0.026668638849509273,0.024538506761178382,0.9993264298889049
1718608628443966476,110,1718608628443966692,-0.0005943599705228188,0.0003099735338913974,-0.0015873465066442408,-0.005804576081887617,-0.026659323095795166,0.02452529068195464,0.9993268221685783
1718608628473908858,111,1718608628473909081,-0.000835825256435409,0.0003679722880506345,-0.0013463027886545303,-0.005510139379070983,-0.026837314034800597,0.024436925050067178,0.9993258896043462
1718608628518735352,112,1718608628518735618,-0.0010772905423479993,0.0004259710422098716,-0.0011052590706648198,-0.0060610008881622395,-0.02691233571723344,0.02432418483406243,0.9993234333721165
1718608628536190042,113,1718608628536190264,-0.0013187558282605895,0.0004839697963691087,-0.0008642153526751093,-0.005893279601299054,-0.02708710080722077,0.024207017506479668,0.9993225598018096
1718608628546428617,114,1718608628546428805,-0.0015602211141731797,0.0005419685505283458,-0.0006231716346853987,-0.0058322794736005296,-0.027071887195215135,0.02414697183876496,0.9993247826361804
1718608628588983751,115,1718608628588983928,-0.0015250155887556315,-0.000742670162360339,-0.0014738098180334695,-0.005829440587259731,-0.02700099421951519,0.024091989452680117,0.9993280442266239
1718608628618352846,116,1718608628618353116,-0.0014898100633380833,-0.0020273088752490237,-0.00232444800138154,-0.00574151396510972,-0.02712165236118735,0.02408222914390487,0.9993255211541671
1718608628619005011,117,1718608628619005214,-0.0014546045379205351,-0.0033119475881377087,-0.0031750861847296107,-0.0057996702068192464,-0.02708398536165328,0.024088950698009714,0.9993260449006074
1718608628620436797,118,1718608628620436990,-0.001419399012502987,-0.004596586301026394,-0.004025724368077682,-0.0056407208013778114,-0.02722150016319888,0.02407392424107065,0.9993235804129417
1718608628622858018,119,1718608628622858172,-0.0013841934870854387,-0.005881225013915079,-0.004876362551425753,-0.005584352761879277,-0.027238071511739795,0.024071354902333506,0.9993235073477048
1718608628638201436,120,1718608628638201708,-0.0013489879616678906,-0.007165863726803764,-0.005727000734773824,-0.005659582591490012,-0.027096532440674226,0.02408297187495982,0.9993266520614026
1718608628649116477,121,1718608628649116738,-0.0013137824362503424,-0.008450502439692448,-0.006577638918121895,-0.005510472454160975,-0.02715683052179934,0.024088763521100152,0.999325709026525
1718608628659982785,122,1718608628659983203,-0.0012785769108327942,-0.009735141152581133,-0.007428277101469966,-0.005581309843545349,-0.027057568623896303,0.024116884159324673,0.9993273301871811
1718608628692829253,123,1718608628692829630,-0.001181449915871715,-0.011121504621224038,-0.007404119453913714,-0.00585104705399181,-0.0269456335395137,0.024339377632395125,0.9993234175070621
1718608628740238823,124,1718608628740239059,-0.001084322920910636,-0.012507868089866944,-0.007379961806357462,-0.005965031271888407,-0.026541041451029396,0.02447123475217232,0.9993303508801903
1718608628769681462,125,1718608628769681697,-0.0005175493071274127,-0.012162251840913896,-0.007519185988297107,-0.005575776120429949,-0.026342075076552278,0.024482244532704082,0.9993375933607007
1718608628788022184,126,1718608628788022462,4.922430665581061e-05,-0.011816635591960849,-0.007658410170236753,-0.005655051787461865,-0.02618220873233233,0.024492795136226507,0.9993410905799844
1718608628800766561,127,1718608628800766783,0.0006159979204390339,-0.011471019343007802,-0.007797634352176399,-0.005795041309693558,-0.026016686828806597,0.024529595710621514,0.9993437088594415
1718608628812471982,128,1718608628812472176,0.0011827715342222571,-0.011125403094054754,-0.007936858534116045,-0.005822172934393353,-0.02598089366549754,0.024547433718496173,0.9993440443433383
1718608628822840213,129,1718608628822840457,0.0017495451480054804,-0.010779786845101707,-0.00807608271605569,-0.005813294049604682,-0.025927731371416678,0.024560490346334667,0.9993451559257052
1718608628837863111,130,1718608628837863335,0.0023163187617887037,-0.01043417059614866,-0.008215306897995336,-0.00555723670559168,-0.026016304167678223,0.024476492681734477,0.999346371556756
1718608628865166558,131,1718608628865167178,0.002735228748326277,-0.009411871610248776,-0.007861648222688294,-0.005644127112852952,-0.025922543620630015,0.024440161242786477,0.9993492102762663
1718608628870734243,132,1718608628870735069,0.0031541387348638502,-0.008389572624348892,-0.00750798954738125,-0.005771471232722891,-0.025712661646737967,0.02441381309696366,0.9993545491370501
1718608628938414465,133,1718608628938414711,0.0035730487214014235,-0.007367273638449008,-0.007154330872074207,-0.005736838309610894,-0.0257682174348548,0.024372796393250233,0.9993543187740836
1718608628964482055,134,1718608628964482319,0.0032196217847849447,-0.006961810517407366,-0.006758733585683746,-0.005838863472702756,-0.02563143486905699,0.024330220787712912,0.9993582828877347
1718608628971401309,135,1718608628971401556,0.002866194848168466,-0.006556347396365724,-0.006363136299293285,-0.005572449037679622,-0.025687043026728185,0.024296105289138795,0.9993592061416378
1718608628985987779,136,1718608628985987988,0.002512767911551987,-0.006150884275324082,-0.005967539012902824,-0.005566445072255737,-0.025610757499245056,0.024313248226464156,0.9993607805743883
1718608628987816843,137,1718608628987817042,0.0021593409749355082,-0.00574542115428244,-0.005571941726512363,-0.0055825619265414805,-0.025674939842882685,0.024428873135927738,0.9993562240881424
1718608628998123345,138,1718608628998123652,0.0018059140383190292,-0.005339958033240798,-0.005176344440121902,-0.005762871648885442,-0.02571017591097037,0.024478472040394,0.999353081033702
1718608629009297028,139,1718608629009297909,0.0014524871017025502,-0.004934494912199156,-0.004780747153731441,-0.005949427907895313,-0.025766020783449757,0.02452259533327508,0.9993494678032685
1718608629018611651,140,1718608629018611831,0.0010990601650860711,-0.004529031791157514,-0.00438514986734098,-0.005868200664346038,-0.02591578823076987,0.024537982275931302,0.9993456977278518
1718608629039509759,141,1718608629039509987,0.0007456332284695921,-0.004123568670115872,-0.003989552580950519,-0.005897399190336009,-0.026077867031066147,0.024561999923050006,0.9993407195214653
1718608629049487526,142,1718608629049487908,0.0003922062918531131,-0.00371810554907423,-0.0035939552945600576,-0.005880444698036693,-0.026025797825526113,0.024551767529259774,0.9993424282641498
1718608629080365085,143,1718608629080365400,0.0006008187814184741,-0.0033184028286326857,-0.0036409276871802107,-0.005624924721044748,-0.026109339067212238,0.024572325413357646,0.9993412147305523
1718608629089645183,144,1718608629089645384,0.0008094312709838352,-0.0029187001081911416,-0.003687900079800364,-0.00591450550657647,-0.026055659814421612,0.024659571900051972,0.9993387947687982
1718608629114991418,145,1718608629114991638,0.0010180437605491963,-0.0025189973877495974,-0.003734872472420517,-0.005951243214287875,-0.026177442515124126,0.02470164647077525,0.999334354892898
1718608629134174921,146,1718608629134175113,0.0012266562501145573,-0.0021192946673080533,-0.00378184486504067,-0.005836359308967397,-0.026202969401093495,0.024686133736298514,0.999334746771939
1718608629136578829,147,1718608629136579047,0.0014352687396799184,-0.0017195919468665094,-0.0038288172576608232,-0.005585994334696418,-0.026335344465004136,0.02461421944186782,0.9993344717863333
1718608629150259896,148,1718608629150260203,0.0016438812292452795,-0.0013198892264249655,-0.0038757896502809763,-0.005566054960673998,-0.026339609202180064,0.02458093131549039,0.9993352899977636
1718608629189638590,149,1718608629189638821,0.001559291166198059,-0.0007118742751577679,-0.003947260253653063,-0.0059250392511793985,-0.026444192779704553,0.024467201722064694,0.9993332550345723
1718608629197375916,150,1718608629197376146,0.0014747011031508385,-0.00010385932389057038,-0.0040187308570251495,-0.006103049663518867,-0.02649195936622324,0.024482345872297355,0.9993305477239912
1718608629212673641,151,1718608629212673857,0.001390111040103618,0.0005041556273766272,-0.004090201460397236,-0.0059994588089258265,-0.026740550349421008,0.024434372192920724,0.9993257281370013
1718608629222599679,152,1718608629222599922,0.0013055209770563975,0.0011121705786438247,-0.004161672063769322,-0.006052103387321304,-0.02673477505625867,0.024411896356911537,0.9993261145209505
1718608629241105144,153,1718608629241105416,0.001220930914009177,0.0017201855299110221,-0.004233142667141409,-0.005893965831623818,-0.026658278231709714,0.024339126834364726,0.999330878274777
1718608629270484175,154,1718608629270484535,0.0006806481934930894,0.0009540231662769924,-0.00474883351918895,-0.005673615393914868,-0.026561646091519998,0.024296388463854804,0.9993357666734861
1718608629323514634,155,1718608629323514839,0.0001403654729770019,0.0001878608026429627,-0.005264524371236491,-0.005603192903702845,-0.026535842527797386,0.02432427939719348,0.9993361710267628
1718608629323924566,156,1718608629323924717,-0.00039991724753908565,-0.000578301560991067,-0.005780215223284032,-0.0057953646783248615,-0.026496134178491726,0.024418607021077073,0.9993338282340846
1718608629324822858,157,1718608629324823037,-0.0009401999680551732,-0.0013444639246250967,-0.006295906075331573,-0.005943492189236909,-0.02647641898600896,0.02447853473445968,0.9993320146355402
1718608629326010753,158,1718608629326010917,-0.0014804826885712608,-0.0021106262882591266,-0.006811596927379114,-0.005838583278528004,-0.026535455387486306,0.024493159957016356,0.9993307088586834
1718608629327890753,159,1718608629327890969,-0.002020765409087348,-0.0028767886518931566,-0.007327287779426655,-0.005804948589183567,-0.02652380652229082,0.024501430210261774,0.9993310113156184
1718608629340275660,160,1718608629340275846,-0.0025610481296034354,-0.0036429510155271865,-0.007842978631474196,-0.005980763198787546,-0.02635682949371008,0.024530681131267395,0.9993336748523166
1718608629349434301,161,1718608629349434596,-0.0031013308501195228,-0.004409113379161216,-0.008358669483521737,-0.0059990115155331225,-0.026150718602878528,0.02449849832164516,0.9993397697266801
1718608629386925718,162,1718608629386925985,-0.003221444024112312,-0.0044400164609768875,-0.00867884526683992,-0.005777868039311013,-0.026007566650015145,0.024476314119293293,0.9993453521005633
1718608629393695699,163,1718608629393695934,-0.003341557198105101,-0.004470919542792559,-0.008999021050158101,-0.006083328472271982,-0.025309304513667114,0.02457090544318783,0.999359146065835
1718608629415372364,164,1718608629415372626,-0.0034616703720978903,-0.00450182262460823,-0.009319196833476283,-0.006223902512724298,-0.02485795667956377,0.024653086204194402,0.9993675852096853
1718608629439103441,165,1718608629439103679,-0.0035817835460906795,-0.004532725706423901,-0.009639372616794465,-0.006001801536262999,-0.024471021538697613,0.024702069624806887,0.9993772837319362
1718608629486177746,166,1718608629486177941,-0.004239983229037354,-0.0031733795663036113,-0.009813610744612525,-0.005961758004342747,-0.024217474879663435,0.024727187717889135,0.9993830784736726
1718608629487406739,167,1718608629487406907,-0.004898182911984029,-0.0018140334261833218,-0.009987848872430585,-0.005965736965697141,-0.023563257581278738,0.02478566312407113,0.9993972452324023
1718608629488297562,168,1718608629488297730,-0.005556382594930704,-0.00045468728606303226,-0.010162087000248645,-0.005909954301690187,-0.02333328543860116,0.02482544106310777,0.9994019850424627
1718608629490207855,169,1718608629490208060,-0.006214582277877379,0.0009046588540572572,-0.010336325128066705,-0.005983553848047751,-0.023057172156756168,0.024854412390596395,0.9994072353551376
1718608629492400758,170,1718608629492400965,-0.006872781960824054,0.0022640049941775467,-0.010510563255884765,-0.006075170328299829,-0.022748500002073666,0.024865293758767892,0.9994134856101492
1718608629520515887,171,1718608629520516109,-0.0075309816437707285,0.0036233511342978362,-0.010684801383702825,-0.006003495341998991,-0.02213279558351356,0.024968883099250026,0.9994251609200725
1718608629521926018,172,1718608629521926251,-0.008189181326717403,0.004982697274418126,-0.010859039511520886,-0.006036726523813662,-0.021851412104671175,0.02500219732436028,0.9994303196575848
1718608629538522424,173,1718608629538522624,-0.008847381009664078,0.006342043414538415,-0.011033277639338946,-0.006016493602590875,-0.021415557098806763,0.025069202509579558,0.9994381975912325
1718608629549892130,174,1718608629549892343,-0.009505580692610753,0.007701389554658705,-0.011207515767157006,-0.005925585344901846,-0.021221005677105637,0.025082833341565598,0.9994425485378996
1718608629577196391,175,1718608629577196607,-0.010119082517706629,0.009228220919938102,-0.00982906185019282,-0.005968268941049367,-0.020784987309178153,0.02509789709802269,0.9994510791577853
1718608629594378284,176,1718608629594378456,-0.010732584342802505,0.010755052285217498,-0.008450607933228636,-0.005846731989856494,-0.020025397533490877,0.02522278817526707,0.9994641615062192
1718608629599792051,177,1718608629599792236,-0.011346086167898381,0.012281883650496895,-0.0070721540162644505,-0.005828642077410027,-0.019820197706178197,0.0252608331177841,0.9994673966691545
1718608629615008547,178,1718608629615008717,-0.011959587992994257,0.013808715015776291,-0.005693700099300265,-0.005805594642462975,-0.019455398680118963,0.0252619935629919,0.9994746691208678
1718608629640683373,179,1718608629640683687,-0.012573089818090133,0.015335546381055687,-0.00431524618233608,-0.005584543150933649,-0.01888551607275086,0.02532132338312814,0.9994853579430707
1718608629714785620,180,1718608629714785827,-0.011110748398976295,0.019088662293443377,-0.0038700434746598506,-0.005469834809220417,-0.018599422347798038,0.025358140058558496,0.999490423730142
1718608629730757808,181,1718608629730758039,-0.009648406979862457,0.022841778205831068,-0.003424840766983621,-0.005780507099167005,-0.017469243335618785,0.0253657315325595,0.9995088748674398
1718608629737983076,182,1718608629737983432,-0.008186065560748619,0.02659489411821876,-0.002979638059307391,-0.0051898044980735,-0.01728017860340849,0.025401799682735024,0.9995144871034058
1718608629793679514,183,1718608629793679859,-0.009090747564640239,0.028700601877513537,-0.00312335897235301,-0.005109303434475245,-0.017159980993425684,0.025429437822054386,0.9995162698839744
1718608629835082119,184,1718608629835082355,-0.009995429568531859,0.030806309636808315,-0.0032670798853986285,-0.006590141820886118,-0.016829384251056262,0.02536962145182147,0.999514744345426
1718608629837735056,185,1718608629837735254,-0.010900111572423479,0.032912017396103097,-0.003410800798444247,-0.00634243723265912,-0.01687034312326698,0.0253461063770668,0.9995162529465819
1718608629839396143,186,1718608629839396401,-0.011804793576315099,0.035017725155397875,-0.003554521711489866,-0.006191203139176509,-0.016912385188920773,0.025274754488077672,0.9995182974895849
1718608629890971092,187,1718608629890971397,-0.013023180954884975,0.03601825380464179,-0.0035598957649561336,-0.006573728940653566,-0.0170689025220132,0.025400011600191615,0.9995100189919153
1718608629898058270,188,1718608629898058450,-0.014241568333454854,0.03701878245388571,-0.0035652698184224013,-0.00660090205634369,-0.017001156700669946,0.02539710934734769,0.9995110682727233
1718608629911856624,189,1718608629911856814,-0.015459955712024732,0.03801931110312962,-0.003570643871888669,-0.006820499993400403,-0.01688190387207493,0.025338458255425446,0.9995131037834032
1718608629921997316,190,1718608629921997554,-0.01667834309059461,0.03901983975237354,-0.0035760179253549367,-0.00688462490731916,-0.016797277407321114,0.025292449554640474,0.999515255214803
1718608629937919593,191,1718608629937919785,-0.017896730469164488,0.040020368401617455,-0.0035813919788212044,-0.00681954197656526,-0.016688354901473287,0.02529883005224456,0.9995173644594174
1718608629947466448,192,1718608629947466683,-0.019115117847734366,0.04102089705086137,-0.003586766032287472,-0.00669488851149413,-0.01661648555481347,0.025342143373364292,0.99951830730851
1718608629972245895,193,1718608629972246100,-0.02064116884069924,0.041121360224388365,-0.004693278845947845,-0.006553153967232706,-0.01662528327115928,0.025508174649990355,0.9995148769054222
1718608630014576142,194,1718608630014576440,-0.022167219833664115,0.04122182339791536,-0.005799791659608219,-0.006844470323081212,-0.016621843823035918,0.025692524674464208,0.9995082599507475
1718608630015395906,195,1718608630015396104,-0.02369327082662899,0.04132228657144235,-0.006906304473268593,-0.007126878868242457,-0.01657540146566247,0.025687843277231316,0.9995071777489214
1718608630016572419,196,1718608630016572624,-0.025219321819593864,0.041422749744969345,-0.008012817286928967,-0.007460014411767252,-0.016524618453483682,0.025739224568351322,0.9995042658681168
1718608630018636722,197,1718608630018636918,-0.02674537281255874,0.04152321291849634,-0.00911933010058934,-0.0077640639691848755,-0.016503922063058514,0.025821114916951115,0.999500180035834
1718608630039291589,198,1718608630039291797,-0.028271423805523613,0.04162367609202333,-0.010225842914249715,-0.007889683945910884,-0.016342050615144467,0.02603769002647725,0.9994962375952252
1718608630084281202,199,1718608630084281485,-0.029957515704053323,0.04215233753830313,-0.011803320818165071,-0.00792491495295944,-0.01636200514602232,0.02613322697744529,0.9994931390251437
1718608630090542848,200,1718608630090543102,-0.03164360760258303,0.04268099898458293,-0.013380798722080428,-0.00888955595608817,-0.015236956110228633,0.026568377465212456,0.9994913367719924
1718608630116701186,201,1718608630116701426,-0.03332969950111274,0.043209660430862724,-0.014958276625995784,-0.009340549232119525,-0.01501595972725716,0.026916368104110175,0.9994812575639404
1718608630136409338,202,1718608630136409597,-0.03501579139964245,0.04373832187714252,-0.01653575452991114,-0.009219003593304959,-0.014853806766675874,0.02722004727817493,0.9994765847299569
1718608630146584976,203,1718608630146585275,-0.03670188329817216,0.04426698332342232,-0.018113232433826496,-0.009229857440765965,-0.014685505947336835,0.02736771655491516,0.9994749390241177
1718608630165862093,204,1718608630165862342,-0.03804921655947762,0.04529156635488893,-0.014958440507198129,-0.009506115192892078,-0.014491750101092502,0.027594944882156008,0.999468929967259
1718608630184114844,205,1718608630184115067,-0.03939654982078308,0.04631614938635554,-0.011803648580569762,-0.009914873469160583,-0.014205262093591874,0.027671612903437483,0.9994669517559174
1718608630185913395,206,1718608630185913684,-0.040743883082088546,0.04734073241782215,-0.008648856653941396,-0.010727324921740028,-0.013956215471003827,0.02769070912503234,0.9994615416202383
1718608630192415381,207,1718608630192415531,-0.04209121634339401,0.04836531544928876,-0.005494064727313029,-0.011449249335995292,-0.013642804547852265,0.027698404783869257,0.9994576463993561
1718608630212641446,208,1718608630212641661,-0.04343854960469947,0.04938989848075537,-0.0023392728006846625,-0.012742371450802311,-0.013132915029336837,0.027736809271879843,0.9994477614783364
1718608630222067280,209,1718608630222067394,-0.044785882866004934,0.05041448151222198,0.000815519125943704,-0.013232353724326594,-0.013020632443755295,0.027780254567171467,0.9994416568273818
1718608630235958492,210,1718608630235958714,-0.046133216127310396,0.05143906454368859,0.003970311052572071,-0.013618579724602465,-0.012804677444915051,0.02783143632854361,0.9994378348220097
1718608630244669759,211,1718608630244670000,-0.04748054938861586,0.052463647575155196,0.007125102979200437,-0.014008000167679755,-0.0124660904417675,0.027917648948474264,0.9994343287067889
1718608630288806630,212,1718608630288806836,-0.050939477971187815,0.05097977752126489,0.012768800085169195,-0.015514258898947506,-0.011040690784589092,0.028087734406317046,0.9994240792044866
1718608630299625371,213,1718608630299625607,-0.05439840655375977,0.04949590746737458,0.018412497191137953,-0.015581751522935079,-0.01066773683420759,0.028112516313508244,0.9994263829001294
1718608630314237299,214,1718608630314237521,-0.057857335136331726,0.048012037413484275,0.02405619429710671,-0.015385225151408392,-0.010096299609049496,0.028178712026797052,0.9994334994234262
1718608630324555267,215,1718608630324555412,-0.06131626371890368,0.04652816735959397,0.029699891403075468,-0.015299680245912156,-0.009879919444040859,0.028325139741476792,0.9994328358798193
1718608630341263840,216,1718608630341264121,-0.06477519230147565,0.04504429730570366,0.035343588509044226,-0.015396526030275253,-0.009461094020386498,0.02853191089001702,0.9994295196496352
1718608630379069919,217,1718608630379070113,-0.06844124613365048,0.048326480183267614,0.05062086255687672,-0.015767414237931317,-0.009288577430707103,0.028644310519603332,0.9994221402652733
1718608630387439122,218,1718608630387439433,-0.07210729996582531,0.05160866306083157,0.06589813660470921,-0.017046793419656082,-0.009020844011054673,0.02878900469478518,0.9993994318670186
1718608630407160828,219,1718608630407161035,-0.07577335379800014,0.05489084593839552,0.0811754106525417,-0.017259550449802853,-0.008932644106755781,0.028724594635527713,0.9993984257795073
1718608630411851996,220,1718608630411852192,-0.07943940763017497,0.058173028815959475,0.0964526847003742,-0.017929716806581418,-0.008577806352784576,0.028621733308421993,0.99939268702339
1718608630422049974,221,1718608630422050215,-0.0831054614623498,0.06145521169352343,0.1117299587482067,-0.018335738314223266,-0.008314921141349215,0.028614292478606956,0.999387755104511
1718608630438042516,222,1718608630438042804,-0.08677151529452463,0.06473739457108738,0.12700723279603918,-0.018732060764320962,-0.007775236501600958,0.02871107366759322,0.9993819739447575
1718608630448378422,223,1718608630448378767,-0.09043756912669947,0.06801957744865132,0.14228450684387167,-0.018825478855638435,-0.007503441536468262,0.02879321203223581,0.9993799330844259
1718608630489806626,224,1718608630489806874,-0.09217738946093426,0.06551696019946936,0.15976606370057722,-0.018783348348768932,-0.007010578197501074,0.028884951050163955,0.9993816574367248
1718608630491164561,225,1718608630491164812,-0.09391720979516907,0.06301434295028739,0.17724762055728277,-0.019116302537286297,-0.006653434452555257,0.028689072776065905,0.9993834278646699
1718608630513839546,226,1718608630513839816,-0.09565703012940388,0.060511725701105426,0.19472917741398832,-0.020102322584616163,-0.006636229037507851,0.028305631811067874,0.999375128917386
1718608630523758592,227,1718608630523758807,-0.09739685046363869,0.05800910845192346,0.21221073427069387,-0.020266772846966888,-0.006619917120306335,0.02829040913104673,0.999372346709117
1718608630534486404,228,1718608630534486615,-0.0991366707978735,0.055506491202741495,0.22969229112739942,-0.020204070595859377,-0.006602089734569913,0.028354141356464233,0.9993719280680401
1718608630549810544,229,1718608630549810794,-0.10087649113210831,0.05300387395355953,0.24717384798410497,-0.02009459230870618,-0.006632948355177085,0.02843627359747549,0.9993715974050664
1718608630577922413,230,1718608630577922662,-0.10285443432398933,0.04989447088533339,0.2630643815564942,-0.01999233699931143,-0.006714438677657189,0.02855150826746203,0.9993698185107468
1718608630618323544,231,1718608630618323843,-0.10483237751587035,0.046785067817107256,0.27895491512888343,-0.01982246768102744,-0.007045493930413178,0.028568074096087564,0.9993704497996485
1718608630619655447,232,1718608630619655687,-0.10681032070775137,0.04367566474888112,0.29484544870127266,-0.019540365357399614,-0.007065754694714011,0.028672297788532794,0.9993728776446854
1718608630635911709,233,1718608630635912149,-0.10878826389963239,0.04056626168065498,0.3107359822736619,-0.01935004173671621,-0.006699918481934399,0.028678015507077347,0.9993789363418155
1718608630666534133,234,1718608630666534378,-0.11036070845403825,0.0374218201403434,0.3265192873819064,-0.019359589779004267,-0.006522686448267606,0.028624919129577184,0.9993814461205048
1718608630714862385,235,1718608630714862664,-0.11193315300844411,0.03427737860003181,0.3423025924901509,-0.01933397729360258,-0.006316523546826245,0.028535064370875256,0.999385835878037
1718608630714908758,236,1718608630714908942,-0.11350559756284997,0.03113293705972023,0.3580858975983954,-0.018756511065418473,-0.006246271979301236,0.028625523264622144,0.9993946952014705
1718608630720499766,237,1718608630720500219,-0.11507804211725584,0.02798849551940865,0.37386920270663987,-0.01845456458492228,-0.006146535692944848,0.02865566289917605,0.9994000711070442
1718608630721468232,238,1718608630721468452,-0.1166504866716617,0.02484405397909707,0.38965250781488436,-0.018225156381730504,-0.006121733271106206,0.028616551207100792,0.9994055538436988
1718608630723365446,239,1718608630723365676,-0.11822293122606756,0.021699612438785487,0.40543581292312886,-0.018069980179298673,-0.006153801755992963,0.0285712808125057,0.9994094698635794
1718608630740370227,240,1718608630740370456,-0.11979537578047342,0.018555170898473906,0.42121911803137335,-0.017772059151907573,-0.005983069757040136,0.02857391231679026,0.9994157735020476
1718608630750405624,241,1718608630750405919,-0.12136782033487928,0.015410729358162322,0.43700242313961785,-0.01761177831022079,-0.0059730169824858915,0.028598571496172287,0.9994179656386295
1718608630779712082,242,1718608630779712363,-0.12040188001029885,0.015474479920520302,0.4538020557263512,-0.01745468256947206,-0.006043265619993364,0.02864727179105219,0.9994189045720392
1718608630797567143,243,1718608630797567489,-0.11943593968571842,0.01553823048287828,0.4706016883130845,-0.017241406670934087,-0.006437703774853224,0.028740956521085433,0.9994174539622409
1718608630859133689,244,1718608630859134031,-0.11846999936113799,0.01560198104523626,0.48740132089981786,-0.016966986651091583,-0.007414344370382878,0.02855690256163383,0.9994206582703924
1718608630878211565,245,1718608630878211991,-0.11750405903655756,0.01566573160759424,0.5042009534865513,-0.0168094038879969,-0.0072893793658530825,0.02856183423175789,0.999424099426619
1718608630898748720,246,1718608630898749153,-0.11653811871197713,0.015729482169952222,0.5210005860732846,-0.01684222114399058,-0.0070874683418875335,0.02861347303551179,0.9994235221067621
1718608630907557446,247,1718608630907557877,-0.1155721783873967,0.015793232732310203,0.5378002186600179,-0.016953085721069003,-0.006929700883744714,0.028634640036797877,0.9994221478034989
1718608630925766569,248,1718608630925766842,-0.11574296994611488,0.017113083522995887,0.5543197528631797,-0.0169733082363913,-0.00683350448988081,0.028443804226937364,0.999427916372661
1718608630939893167,249,1718608630939893466,-0.11591376150483307,0.018432934313681572,0.5708392870663415,-0.01578943954807587,-0.007109579936625196,0.028296075127575294,0.9994495883256228
1718608630968074747,250,1718608630968075134,-0.11386750120818537,0.01912799623338295,0.5850607376096112,-0.01431711938757712,-0.0072674122098385875,0.028228079690160054,0.9994725510634197
1718608630997761015,251,1718608630997761282,-0.11182124091153767,0.019823058153084328,0.5992821881528809,-0.013840658378897289,-0.007301430106453468,0.02825460167307275,0.9994782652856116
1718608631023300480,252,1718608631023300694,-0.10977498061488997,0.020518120072785705,0.6135036386961507,-0.013325927176904014,-0.007415870335119473,0.028306693422185857,0.9994829441463976
1718608631042662292,253,1718608631042662594,-0.10772872031824227,0.021213181992487083,0.6277250892394204,-0.012393193824940146,-0.00784382662793341,0.028334769378083546,0.9994908823870978
1718608631049036282,254,1718608631049036517,-0.10568246002159457,0.02190824391218846,0.6419465397826901,-0.011617363090390471,-0.008197313865901583,0.028258276275871467,0.9994995301360208
1718608631059569181,255,1718608631059569410,-0.10363619972494686,0.02260330583188984,0.6561679903259598,-0.01131046399507984,-0.008202509441506765,0.028243301532338592,0.9995034307903258
1718608631179397933,256,1718608631179398217,-0.1080913594836633,0.02681466097547918,0.6619310251824816,-0.006167497381436332,-0.009382881996589265,0.028494111711068155,0.9995308945196667
1718608631236052197,257,1718608631236052430,-0.11254651924237974,0.031026016119068522,0.6676940600390033,-0.004624696772237459,-0.009698336646473769,0.028647274762764678,0.9995318344578742
1718608631237303499,258,1718608631237303787,-0.11700167900109618,0.035237371262657864,0.6734570948955251,-0.0031104560018088492,-0.010115410052401828,0.028700628826881344,0.9995320292256142
1718608631238361796,259,1718608631238361971,-0.12145683875981261,0.039448726406247206,0.6792201297520468,-0.0024312158428617036,-0.010279636371935663,0.028673591676913197,0.9995330126643801
1718608631311222859,260,1718608631311223119,-0.12728370739132613,0.042039057260773484,0.6866341348084163,-0.0016903041433425261,-0.010446197588121004,0.028650782954717645,0.9995334674056365
1718608631313600122,261,1718608631313600344,-0.13311057602283966,0.04462938811529976,0.6940481398647858,0.0028922589600361916,-0.01087633954936539,0.028893378668644082,0.9995191407598082
1718608631339760664,262,1718608631339760969,-0.13893744465435318,0.04721971896982604,0.7014621449211552,0.004286058601912762,-0.011004616221817231,0.02899100556504414,0.999509904763229
1718608631350051452,263,1718608631350051724,-0.1447643132858667,0.04981004982435232,0.7088761499775247,0.0047759795969746855,-0.011056332796812845,0.028975016654071463,0.9995075767265957
1718608631391476490,264,1718608631391476788,-0.15167011032939454,0.05352214258022307,0.7119833466903064,0.00619236028818569,-0.011234317451187402,0.02894108252729009,0.9994988036649248
1718608631406001367,265,1718608631406001608,-0.15857590737292238,0.05723423533609383,0.7150905434030881,0.006604287255382417,-0.011281920643414699,0.029007698928091387,0.9994936993595013
1718608631411244810,266,1718608631411245085,-0.16548170441645021,0.06094632809196458,0.7181977401158698,0.007036738139598933,-0.011349279681393801,0.02907619263977848,0.9994879955200277
1718608631420989025,267,1718608631420989297,-0.17238750145997805,0.06465842084783534,0.7213049368286515,0.0073371420189094,-0.011417589001019982,0.0290952092437744,0.9994845040356849
1718608631437591339,268,1718608631437591576,-0.1792932985035059,0.06837051360370609,0.7244121335414332,0.007589581365405444,-0.01158506600783109,0.02908411041371643,0.9994810148380683
1718608631454136418,269,1718608631454136692,-0.18619909554703373,0.07208260635957685,0.7275193302542149,0.007786657562835401,-0.011684720256840073,0.029053758462813398,0.9994792215927768
1718608631463956094,270,1718608631463956335,-0.18906610087916595,0.0765900969310941,0.728299702835657,0.008087715671630658,-0.011728452878954352,0.02904329866346789,0.9994766225635423
1718608631504772619,271,1718608631504772848,-0.19193310621129817,0.08109758750261135,0.7290800754170992,0.008842311461844504,-0.011918660729443592,0.029032732182647757,0.9994682883996064
1718608631521860619,272,1718608631521860845,-0.19480011154343038,0.08560507807412861,0.7298604479985413,0.010181457494602636,-0.011944540493584664,0.02892944707045654,0.9994582297264255
1718608631530071574,273,1718608631530071758,-0.1976671168755626,0.09011256864564586,0.7306408205799835,0.010732935887337916,-0.011931261209792878,0.02891344430085005,0.9994530813559203
1718608631609977089,274,1718608631609977589,-0.20103443615537434,0.09327938966946592,0.7329492026333387,0.012349271038289174,-0.011717027864103549,0.02903703525781906,0.9994333681373115
1718608631612935011,275,1718608631612935286,-0.20440175543518607,0.09644621069328597,0.735257584686694,0.012848056956652032,-0.01126322077688848,0.028968468305359516,0.9994342875518185
1718608631622106173,276,1718608631622106434,-0.2077690747149978,0.09961303171710603,0.7375659667400493,0.012977835681061907,-0.011170130187569708,0.028963059094975274,0.999433812305992
1718608631657974750,277,1718608631657975103,-0.21113639399480955,0.10277985274092609,0.7398743487934045,0.013400975203721296,-0.011051478456711422,0.028971090024152477,0.9994293144741766
1718608633055051132,1,1718608633055051372,8.28169252260631,-16.037266988400223,1.8594666936105588,0.0021285784069897265,-0.008921481322511705,0.035601256895431206,0.9993239849180259
1718608633136565235,2,1718608633136565488,8.270019513876253,-16.021877502176224,1.86009615161127,0.002518135377297375,-0.008567371478850307,0.0357565100565416,0.9993206347958303
1718608633145807920,3,1718608633145808158,8.254094862254561,-16.013131379842815,1.8250447740769615,0.0022372723648374994,-0.008378556614948813,0.0364834801565721,0.9992966276722245
1718608633182014226,4,1718608633182014534,8.240285933729485,-16.00554380330303,1.7947036639453204,0.0019753812817273615,-0.008370825091635115,0.036545000979622766,0.999294996514781
1718608633215319534,5,1718608633215319774,8.225314490241498,-15.998936025282422,1.7684194315746227,-1.1807686182176108e-05,-0.007498503343939001,0.03698024598711737,0.9992878632881077
1718608633218282207,6,1718608633218282387,8.212294021368802,-15.993168970970494,1.7455550015939727,-0.001346507185443615,-0.00726188091977301,0.037116794657104116,0.9992836411941751
1718608633226256925,7,1718608633226257166,8.201046283624976,-15.98813349085139,1.7257699421985733,-0.0018220646827630897,-0.007266881619090775,0.037118120670931766,0.9992828016280897
1718608633240805575,8,1718608633240805810,8.191475192104967,-15.987244465807645,1.7084662969518976,-0.00251361966417325,-0.007223263085995224,0.03715044346813297,0.999280416468118
1718608633249395118,9,1718608633249395396,8.18317885455128,-15.986552266796476,1.693466195052921,-0.002918048724593658,-0.007176676673615453,0.03716294047554919,0.9992791882946297
1718608633321390602,10,1718608633321390799,8.181771201172307,-15.975268586394957,1.7166275381920226,-0.005900402936514337,-0.007358957910429043,0.03761851362422656,0.999247656197583
1718608633326127571,11,1718608633326127790,8.18055996150025,-15.965484934642685,1.73671026365491,-0.006446195774372319,-0.007575211590293896,0.03755364199197723,0.9992451084206213
1718608633341130798,12,1718608633341131029,8.179536583474206,-15.957029083664018,1.7541183747992084,-0.006879963340016899,-0.007841489156519431,0.03752395825175581,0.9992412770244076
1718608633346142266,13,1718608633346142504,8.174334661016772,-15.94976696142556,1.7717017436834552,-0.007218696373324308,-0.00798974715164361,0.037504224569963454,0.9992384537749377
1718608633374331947,14,1718608633374332191,8.169862627495181,-15.943470231491023,1.787056881694251,-0.00778326565799541,-0.008363331031906441,0.037437879426606764,0.9992336466781865
1718608633417156825,15,1718608633417157185,8.167430534437813,-15.933538070791343,1.8008060880629004,-0.010797041565112268,-0.009818150749900471,0.03763052109835153,0.9991851538584628
1718608633421519518,16,1718608633421519703,8.165337768376816,-15.924926290513472,1.8127765146199308,-0.011172468283505078,-0.010120983722509323,0.03766840158426612,0.9991765775692649
1718608633441076533,17,1718608633441076822,8.18152609706106,-15.94356109385538,1.8191043674301428,-0.011362896100889402,-0.010612849890686601,0.03762871333303265,0.99917082220324
1718608633450126439,18,1718608633450126774,8.195603591097132,-15.959720272882524,1.824606040761889,-0.011407181157437647,-0.010889346269202769,0.03759071823318673,0.9991687726598465
1718608633486982845,19,1718608633486983078,8.205300090875479,-15.971831965371205,1.8340372037289943,-0.011688741331143648,-0.011270909996038013,0.03747089039134807,0.9991657881889443
1718608633488545681,20,1718608633488546010,8.213765806931733,-15.982406305599731,1.8421907296935898,-0.01308592947828486,-0.012140299076607719,0.03746802408824058,0.9991383881920176
1718608633498402207,21,1718608633498402414,8.221128818424841,-15.991645402706094,1.849238230071425,-0.013526412048718918,-0.01256419009709297,0.03754735941331251,0.9991243031301861
1718608633508721784,22,1718608633508721975,8.227551336675639,-15.999662079525944,1.8553642711612979,-0.013798644130086161,-0.013004329387363303,0.03765359347326962,0.9991109506635917
1718608633518878916,23,1718608633518879123,8.233170823303514,-16.00662660228055,1.8607378470712301,-0.013910044376711206,-0.013357799876721404,0.03773353727716982,0.9991017265586342
1718608633575107627,24,1718608633575107861,8.238035199012785,-16.01115914389252,1.8638394547447998,-0.014073770707001254,-0.015274612385546756,0.038015047012607814,0.9990612951141623
1718608633589091542,25,1718608633589091775,8.24660152767937,-16.019666936188653,1.8717389455113371,-0.014120877903581193,-0.0162963765421043,0.038021350127635946,0.9990442461939821
1718608633604235363,26,1718608633604235755,8.254040542297805,-16.027064766464935,1.8785681409523465,-0.01436654243683615,-0.016590321953510033,0.03805838271363308,0.9990344954910776
1718608633613994787,27,1718608633613994995,8.260498135074837,-16.033512461573306,1.8845094805789666,-0.01509807875074221,-0.017105314476193442,0.03816965132115286,0.9990107776959809
1718608633624039247,28,1718608633624039499,8.266095321745883,-16.039143841601106,1.8896460791262,-0.015631137158382657,-0.01749063999462808,0.03823105927934997,0.9989935591234275
1718608633641165106,29,1718608633641165300,8.26516668698061,-16.043147623912546,1.8935368322148365,-0.016543348698380672,-0.0179603727121168,0.03835854923705954,0.9989656472203204
1718608633676318929,30,1718608633676319178,8.264392000066824,-16.046622310775906,1.8969608884722688,-0.017575612030052593,-0.01834181668871801,0.038528382204611133,0.9989345521039014
1718608633712032630,31,1718608633712032867,8.26527526272211,-16.049686845187544,1.8965893410263412,-0.01916176233678127,-0.018955967991043796,0.03871696747630893,0.9988866274863778
1718608633721623568,32,1718608633721623793,8.266075248902595,-16.052329856376844,1.8963437094230928,-0.019604149557356454,-0.0190575898840072,0.038750475853337664,0.998874810078363
1718608633738829369,33,1718608633738829737,8.266523823552852,-16.05204815523626,1.8926021286622625,-0.020295226483310794,-0.019123026664747828,0.03883838192401402,0.9988563428855497
1718608633750010625,34,1718608633750011104,8.266886286777044,-16.051828704413758,1.8892791561897033,-0.02083519973673198,-0.019165595452589508,0.03888416180560821,0.998842628427298
